"COUNTY","FullAddress","Month","Day","Year","Longitude","Latitude"
"HAWAII ","15-2676 MAIKOIKO ST , HAWI , HI","9","10","2004",-155.8327778,20.2413889
"HAWAII ","823 PELTIER , HONOLULU , HI","7","15","2004",-157.9038306,21.3416755
"HAWAII ","15-2676 MAIKOIKO ST , PAHOA , HI","9","10","2004",-154.9082249,19.5484171
"HONOLULU ","1550 RYCROFT ST , HONOLULU , HI","2","10","2004",-157.839407,21.295782
"HONOLULU ","1777 ALA MOANA BLVD 1138 , HONOLULU , HI","9","10","2004",-157.8384768,21.2842821
"HONOLULU ","620 SHERIDAN ST 202 , HONOLULU , HI","10","3","2005",-157.845269,21.294958
"HONOLULU ","47-031 OKANA RD , KANEOHE , HI","7","22","2005",-157.829022,21.44135
"MAUI ","515 LAIE DRIVE , MAKAWAO , HI","5","24","2006",-156.3236662,20.8434758
