"COUNTY","FullAddress","STATE","Month","Date","Year","lon","lat"
"ADAIR ","604 3RD ST , FONTANELLE , IA","IA","7","14","2004",-94.5638043,41.2925351
"ADAIR ","403 6TH SE ST , STUART , IA","IA","7","27","2004",-94.3140815,41.4983467
"ADAMS ","1092 ADAMS STREET , CUMBERLAND , IA","IA","3","11","2008",-94.8681285,41.2810491
"ALLAMAKEE ","311 POLE LINE RD , POSTVILLE , IA","IA","7","15","2004",-91.5880988,43.1090268
"ALLAMAKEE ","922 4TH NW ST 12 , WAUKON , IA","IA","4","15","2004",-91.4801137,43.2795519
"ALLAMAKEE ","1056 ELON DR , WAUKON , IA","IA","4","29","2005",-91.4198204,43.2724872
"AUDUBON ","515 WASHINGTON E ST , EXIRA , IA","IA","1","14","2004",-94.8712125,41.5911168
"BENTON ","1236 D AVE , BELLE PLAINE , IA","IA","1","26","2004",-92.2399852,41.8283835
"BENTON ","1040 L AVE , BLAIRSTOWN , IA","IA","6","18","2005",-92.0899052,41.8562908
"BENTON ","206  LOCUST, BLAIRSTOWN , IA","IA","8","14","2010",-92.0843907,41.9080898
"BENTON ","6909 28TH AVENUE , NEWHALL , IA","IA","6","9","2007",-91.953924,42.019608
"BENTON ","107 HOMER STREET 1 , SHELLSBURG , IA","IA","1","25","2008",-91.863721,42.092897
"BENTON ","5224 26TH AVE , VINTON , IA","IA","12","12","2005",-91.981919,42.266689
"BENTON ","5748 22ND AVE DRIVE , VINTON , IA","IA","5","22","2007",-92.0613351,42.1887976
"BENTON ","512 W 14TH STREET , VINTON , IA","IA","12","7","2015",-92.029878,42.158195
"BENTON ","425 1ST STREET , WALFORD , IA","IA","4","3","2008",-91.8315525,41.8741831
"BLACK HAWK ","1813 8TH W ST , CEDAR FALLS , IA","IA","7","10","2004",-92.4664355,42.5314721
"BLACK HAWK ","2306 FOURTH W ST 2 , CEDAR FALLS , IA","IA","9","20","2005",-92.473095,42.534611
"BLACK HAWK ","1315 WEST FOURTH STREET , CEDAR FALLS , IA","IA","7","27","2007",-92.461474,42.535291
"BLACK HAWK ","321 WASHINGTON S ST 3 , HUDSON , IA","IA","2","25","2004",-92.455262,42.398807
"BLACK HAWK ","11311 HICKS ROAD , HUDSON , IA","IA","8","19","2007",-92.5147673,42.359523
"BLACK HAWK ","9933 COTTER ROAD , LA PORTE CITY , IA","IA","10","1","2008",-92.257135,42.371723
"BLACK HAWK ","9903 COTTER ROADS , LA PORTE CITY , IA","IA","10","10","2008",-92.1921275,42.3149911
"BLACK HAWK ","6418 LAFAYETTE STREET , RAYMOND , IA","IA","4","29","2006",-92.22871,42.468416
"BLACK HAWK ","10208 NEWELL ST , WATERLOO , IA","IA","1","23","2004",-92.136713,42.5115
"BLACK HAWK ","406 LINDALE AVE , WATERLOO , IA","IA","3","4","2004",-92.3629186,42.5127115
"BLACK HAWK ","204 4TH W ST 808 , WATERLOO , IA","IA","4","16","2004",-92.3399994,42.4952119
"BLACK HAWK ","1945 LA PORTE RD 200 , WATERLOO , IA","IA","4","23","2004",-92.3194849,42.4670897
"BLACK HAWK ","1119 KERN ST , WATERLOO , IA","IA","6","20","2004",-92.360786,42.514734
"BLACK HAWK ","514 FLETCHER , WATERLOO , IA","IA","7","31","2004",-92.36741,42.486127
"BLACK HAWK ","8106 COTTER RD , WATERLOO , IA","IA","9","8","2004",-92.2592716,42.4007032
"BLACK HAWK ","114 WYCOMBE ST , WATERLOO , IA","IA","12","2","2005",-92.309252,42.486278
"BLACK HAWK ","213 WHITTIER AVENUE , WATERLOO , IA","IA","4","11","2006",-92.3614605,42.5130015
"BLACK HAWK ","801 COLORADO STREET , WATERLOO , IA","IA","10","30","2006",-92.312159,42.492601
"BLACK HAWK ","303 LAFAYETTE STREET , WATERLOO , IA","IA","2","9","2007",-92.337818,42.501162
"BLACK HAWK ","1267 RAVENWOOD ROAD , WATERLOO , IA","IA","2","15","2007",-92.3391635,42.4630974
"BLACK HAWK ","315 CLOUGH , WATERLOO , IA","IA","3","24","2007",-92.361771,42.488932
"BLACK HAWK ","811 HAWTHORNE AVENUE , WATERLOO , IA","IA","5","28","2007",-92.3469907,42.4813658
"BLACK HAWK ","52 FRANKLIN STREET , WATERLOO , IA","IA","10","26","2007",-92.340088,42.504801
"BLACK HAWK ","510 CANDLEWICK ROAD , WATERLOO , IA","IA","1","31","2008",-92.3759716,42.5308718
"BLACK HAWK ","1030 SUNRISE BOULEVARD , WATERLOO , IA","IA","2","13","2008",-92.370938,42.459097
"BLACK HAWK ","1230 STRATFORD , WATERLOO , IA","IA","11","8","2008",-92.3813799,42.504473
"BLACK HAWK ","302 COMMERCIAL STREET , WATERLOO , IA","IA","12","10","2008",-92.3430167,42.4968861
"BLACK HAWK ","2400  HAWTHORNE AVENUE  , WATERLOO , IA","IA","4","2","2009",-92.3168311,42.4810708
"BLACK HAWK ","1020 WEST THIRD, WATERLOO , IA","IA","4","22","2010",-92.351303,42.4897149
"BLACK HAWK ","324  FLETCHER AVENUE  , WATERLOO , IA","IA","4","26","2010",-92.3676108,42.4881424
"BLACK HAWK ","4424  LOGAN AVENUE  , WATERLOO , IA","IA","4","30","2010",-92.3369,42.562227
"BLACK HAWK ","330  CUTLER STREET  , WATERLOO , IA","IA","6","1","2010",-92.338643,42.516258
"BLACK HAWK ","732  3RD, WATERLOO , IA","IA","5","8","2011",-92.347849,42.492104
"BLACK HAWK ","226  CAMPBELL , WATERLOO , IA","IA","12","1","2011",-92.3583926,42.4840987
"BLACK HAWK ","306 W 11TH STREET , WATERLOO , IA","IA","12","18","2015",-92.3337287,42.4893423
"BOONE ","6100 WEST LINCOLN WAY 3 , AMES , IA","IA","5","19","2011",-93.6988049,42.0227372
"BOONE ","1804 3RD W , BOONE , IA","IA","5","12","2004",-93.9175872,42.059249
"BOONE ","308  JACKSON STREET  , BOONE , IA","IA","4","8","2010",-93.8675706,42.0592465
"BOONE ","  9TH STREET 111 , MADRID , IA","IA","1","7","2011",-93.8202553,41.8697279
"BOONE ","965 22ND DR 1 , ODGEN , IA","IA","1","26","2004",-93.097702,41.8780025
"BREMER ","225 5TH ST , JANESVILLE , IA","IA","2","3","2006",-92.4620039,42.64461
"BREMER ","1120 265 STREET , JANESVILLE , IA","IA","4","13","2007",-92.5309429,42.666825
"BREMER ","1485 BADGER AVE , PLAINFIELD , IA","IA","2","27","2004",-92.534298,42.834472
"BUCHANAN ","2940 DANIEL AVE , BRANDON , IA","IA","3","24","2004",-92.0257593,42.3647972
"BUCHANAN ","207 NORTH 3RD STREET , HAZLETON , IA","IA","11","17","2004",-91.9069932,42.6194644
"BUCHANAN ","1300 NORTHWEST 3RD STREET , INDEPENDENCE , IA","IA","12","7","2006",-91.9089818,42.4703634
"BUCHANAN ","635 PINE ST , LAMONT , IA","IA","12","16","2004",-91.641364,42.5999768
"BUCHANAN ","619 BUSH ST , LAMONT , IA","IA","1","4","2005",-91.6418544,42.598783
"BUCHANAN ","675 CONCORD ST , LAMONT , IA","IA","7","16","2005",-91.6402158,42.5994152
"BUCHANAN ","310 3RD STREET LOT # 5 , QUASQUETON , IA","IA","1","12","2008",-122.3988974,37.7835439
"BUENA VISTA ","439  600TH STREET  , ALTA , IA","IA","8","11","2012",-95.320186,42.648641
"BUENA VISTA ","7091/2  LAKE AVENUE , STORM LAKE , IA","IA","3","14","2016",-95.2007785,42.6619532
"BUTLER ","14815 HWY 57 , APLINGTON , IA","IA","8","4","2004",-92.9298188,42.5854201
"CALHOUN ","705 TH AVE , MANSON , IA","IA","9","16","2004",-94.5341421,42.5291439
"CASS ","1057 BIRCH AVE , CUMBERLAND , IA","IA","3","10","2004",-94.9009611,41.1412806
"CASS ","405 4TH ST , MARNE , IA","IA","4","1","2004",-95.1133884,41.4512241
"CASS ","507 CLARK AVE , MASSENA , IA","IA","1","22","2004",-94.7626958,41.2511211
"CEDAR ","21079 FIRST AVE , DURANT , IA","IA","4","14","2005",-90.897093,41.61327
"CEDAR ","15 BROOK SIDE DR , WEST BRANCH , IA","IA","3","4","2004",-93.8061129,41.6915272
"CEDAR ","310 300TH STREET , WEST BRANCH , IA","IA","9","22","2008",-91.3061723,41.6565443
"CERRO GORDO ","112 9TH N ST , CLEAR LAKE , IA","IA","10","29","2004",-93.377014,43.139051
"CERRO GORDO ","911 8TH NE ST , MASON CITY , IA","IA","1","29","2004",-93.182936,43.15898
"CERRO GORDO ","1623 FEDERAL , MASON CITY , IA","IA","3","25","2004",-93.2010726,43.1354465
"CERRO GORDO ","777 SOUTH EISENHOWER AVENUE , MASON CITY , IA","IA","10","25","2006",-93.2606225,43.1447313
"CHEROKEE ","5194 S AVE , CHEROKEE , IA","IA","12","28","2004",-95.5088162,42.7666268
"CHEROKEE ","223 WEST LOCUST , CHEROKEE , IA","IA","4","4","2006",-95.552588,42.74692
"CHICKASAW ","3085 270TH STREET , FREDERICKSBURG , IA","IA","4","12","2007",-92.142621,42.9653022
"CHICKASAW ","235  SOUTHEAST AVENUE  , FREDERICKSBURG , IA","IA","10","10","2013",-92.193329,42.9636301
"CHICKASAW ","200  DAWN DRIVE B , NASHUA , IA","IA","9","4","2010",-92.542012,42.9432106
"CHICKASAW ","99  GREELEY STREET  , NASHUA , IA","IA","7","4","2012",-92.540045,42.9544028
"CLARKE ","314 VALE S , OSCEOLA , IA","IA","1","7","2004",-93.775221,41.031283
"CLARKE ","263 MANOR DR , OSCEOLA , IA","IA","4","14","2004",-93.756322,41.020516
"CLARKE ","322 MAIN N ST , OSCEOLA , IA","IA","6","11","2004",-93.7656997,41.0382026
"CLARKE ","1888 OSAGE ST , OSCEOLA , IA","IA","3","3","2006",-93.848456,41.110686
"CLARKE ","425  TEMPLE, OSCEOLA , IA","IA","8","19","2010",-93.770468,41.0298915
"CLARKE ","217 EAST WEBSTER STREET 1 , OSCEOLA , IA","IA","3","22","2011",-93.762716,41.036704
"CLARKE ","616 NORTH PARK STREET  , OSCEOLA , IA","IA","7","27","2011",-93.764275,41.0413659
"CLAY ","2725 200TH AVENUE , FOSTORIA , IA","IA","4","24","2006",-95.1555519,43.2421877
"CLAY ","212 4TH W TRL , PETERSON , IA","IA","12","13","2004",-95.347577,42.920308
"CLAY ","113 MAIN STREET , ROYAL , IA","IA","5","18","2007",-95.282048,43.064119
"CLAY ","16 1ST E ST 2 , SPENCER , IA","IA","6","13","2004",-95.143542,43.138382
"CLAY ","1251 RIVER N RD , SPENCER , IA","IA","10","28","2005",-95.1601241,42.8993465
"CLAY ","3100  330TH STREET  , , IA","IA","4","22","2009",-94.974345,42.3109978
"CLAYTON ","405 S MAIN STREET , FARMERSBURG , IA","IA","3","3","2015",-91.3680068,42.9574476
"CLAYTON ","726  SECOND, GUTTENBERG , IA","IA","5","5","2011",-91.1019799,42.7931031
"CLAYTON ","115  SCHILLER, GUTTENBERG , IA","IA","10","15","2011",-91.0964849,42.7803877
"CLAYTON ","16998 KING ROAD , MCGREGOR , IA","IA","1","1","2008",-91.2199251,42.9852521
"CLAYTON ","109 1/2 ELKADER ST D , STRAWBERRY POINT , IA","IA","3","9","2004",-91.5342354,42.6843341
"CLINTON ","2604 FOURTH N ST 2007 , CLINTON , IA","IA","1","25","2004",-90.1838593,41.8768363
"CLINTON ","1415 13TH S AVE , CLINTON , IA","IA","5","5","2004",-90.2190107,41.8317707
"CLINTON ","2701 PERSHING BLVD 4 , CLINTON , IA","IA","1","13","2006",-90.1797211,41.8766093
"CLINTON ","62 21ST N AVE , CLINTON , IA","IA","1","25","2006",-90.1777499,41.8682634
"CLINTON ","335  1ST STREET  , CLINTON , IA","IA","9","19","2013",-90.1907255,41.8380654
"CLINTON ","1814  PERSHING BOULEVARD , CLINTON , IA","IA","6","17","2015",-90.1837648,41.8654809
"CLINTON ","700  ARGYLE COURT , CLINTON , IA","IA","6","29","2015",-90.2084864,41.8388471
"CLINTON ","924 11TH ST , DE WITT , IA","IA","3","12","2004",-90.5458329,41.8260372
"CLINTON ","1022 12TH AVE , DE WITT , IA","IA","4","23","2004",-90.5482356,41.8251236
"CRAWFORD ","202 BURTON AVENUE , ARION , IA","IA","3","21","2006",-95.4609478,41.9522334
"CRAWFORD ","1403 3RD AVE 3 , DENISON , IA","IA","2","9","2004",-95.3535382,42.013275
"CRAWFORD ","309 9TH S ST , DENISON , IA","IA","2","25","2005",-95.3612478,42.0133705
"CRAWFORD ","2910  30 HIGHWAY  , DENISON , IA","IA","7","6","2010",-95.3294614,42.0139477
"CRAWFORD ","3116 230TH ST , DOW CITY , IA","IA","1","27","2004",-95.4218051,41.9048961
"DALLAS ","2125 W AVE , DALLAS CENTER , IA","IA","6","17","2004",-93.8534712,41.7283629
"DALLAS ","705 5TH ST , PERRY , IA","IA","3","15","2004",-94.101469,41.834129
"DALLAS ","608 ELM STREET , VAN METER , IA","IA","5","11","2006",-93.953169,41.530913
"DALLAS ","302 MAIN ST 5 , WOODWARD , IA","IA","12","15","2004",-93.922433,41.855589
"DALLAS ","2201 OWL AVE , WOODWARD , IA","IA","2","15","2005",-93.8721113,41.8906598
"DAVIS ","26368 ICE AVE , BLOOMFIELD , IA","IA","8","22","2004",-92.4893847,40.6625824
"DAVIS ","405 DAVIS S ST , BLOOMFIELD , IA","IA","1","4","2005",-92.4176554,40.7485824
"DAVIS ","14318 WHEAT AVE , FLORIS , IA","IA","9","15","2004",-92.2074494,40.8132303
"DELAWARE ","22218 258 ST , DELHI , IA","IA","4","21","2004",-91.3612214,42.416003
"DELAWARE ","26061  210th AVENUE , DELHI , IA","IA","1","1","2016",-91.3854907,42.419498
"DELAWARE ","3238 200TH ST , HOPKINTON , IA","IA","3","8","2005",-91.4025467,42.318367
"DELAWARE ","204 SE CASCADE STREET , HOPKINTON , IA","IA","6","20","2015",-91.2469141,42.3423529
"DELAWARE ","808 WEST MAIN STREET , MANCHESTER , IA","IA","6","26","2007",-91.4672346,42.4838619
"DELAWARE ","3131/2 SOUTH BREWER STREET  , MANCHESTER , IA","IA","9","3","2013",-91.4542159,42.4840004
"DELAWARE ","1505  N FRANKLIN STREET 2 , MANCHESTER , IA","IA","9","16","2013",-91.4579122,42.5032514
"DELAWARE ","302  KANE STREET , MANCHESTER , IA","IA","5","6","2014",-91.4610087,42.4784443
"DELAWARE ","408  WARREN STREET , MANCHESTER , IA","IA","5","27","2014",-91.4623418,42.4802684
"DELAWARE ","500 EAST UNION STREET , MANCHESTER , IA","IA","7","13","2014",-91.4530647,42.4876644
"DES MOINES ","1111 FIFTH N ST , BURLINGTON , IA","IA","1","3","2004",-91.102382,40.819234
"DES MOINES ","1401 LINCOLN AVE , BURLINGTON , IA","IA","1","22","2004",-91.114846,40.822479
"DES MOINES ","512 STARR S ST , BURLINGTON , IA","IA","8","1","2004",-91.1222686,40.8046905
"DES MOINES ","1337 ASHMUN STREET , BURLINGTON , IA","IA","9","8","2004",-91.110124,40.822761
"DES MOINES ","812 LINDEN ST , BURLINGTON , IA","IA","10","16","2004",-91.106084,40.82134
"DES MOINES ","736 WHITEWOOD ST , BURLINGTON , IA","IA","11","6","2004",-91.106137,40.786519
"DES MOINES ","1825 DEHN ST , BURLINGTON , IA","IA","3","15","2005",-91.132358,40.828458
"DES MOINES ","201 STARR ST , BURLINGTON , IA","IA","11","22","2005",-91.122913,40.808463
"DES MOINES ","935 EIGHTH N ST , BURLINGTON , IA","IA","12","4","2005",-91.106501,40.8179779
"DES MOINES ","1825 DEHN STREET , BURLINGTON , IA","IA","3","1","2006",-91.132358,40.828458
"DES MOINES ","5943 BRUSH COLLEGE ROAD , BURLINGTON , IA","IA","1","24","2007",-91.171977,40.767629
"DES MOINES ","4200 SPRING LAKE ROAD , BURLINGTON , IA","IA","2","16","2007",-91.14371,40.741849
"DES MOINES ","1516 GROVE STREET , BURLINGTON , IA","IA","5","4","2007",-91.117889,40.8011229
"DES MOINES ","120 SOUTH CENTRAL , BURLINGTON , IA","IA","7","3","2007",-91.112042,40.809198
"DES MOINES ","1714 WEST ACRES DRIVE , BURLINGTON , IA","IA","7","5","2007",-91.118699,40.793345
"DES MOINES ","1620 MADISON , BURLINGTON , IA","IA","7","11","2007",-91.107113,40.790943
"DES MOINES ","1211 NORTH NINTH STREET , BURLINGTON , IA","IA","9","27","2007",-91.1073399,40.8208569
"DES MOINES ","405 SOUTH 10TH, BURLINGTON , IA","IA","10","16","2013",-91.1117716,40.8042408
"DES MOINES ","1310  JEFFERSON , BURLINGTON , IA","IA","3","4","2015",-91.114915,40.811972
"DES MOINES ","310 THIRD S ST , DANVILLE , IA","IA","11","9","2004",-91.3112869,40.8627718
"DES MOINES ","15001 250TH STREET , MEDIAPOLIS , IA","IA","6","12","2007",-91.2188164,41.0446646
"DES MOINES ","642 RAMSEY ST , WEST BURLINGTON , IA","IA","2","26","2005",-91.158759,40.818867
"DICKINSON ","2308 225TH AVE , MILFORD , IA","IA","1","17","2005",-95.1436454,43.3120193
"DICKINSON ","16415 255TH AVENUE , SPIRIT LAKE , IA","IA","4","16","2008",-95.079429,43.4089635
"DUBUQUE ","2270 JACKSON , DUBUQUE , IA","IA","1","9","2004",-90.6703086,42.5152045
"DUBUQUE ","590 CLARK DR , DUBUQUE , IA","IA","2","4","2004",-90.678646,42.51088
"DUBUQUE ","1780 LOCUST ST , DUBUQUE , IA","IA","2","16","2004",-90.671778,42.5069923
"DUBUQUE ","504 17TH W ST 1 , DUBUQUE , IA","IA","2","16","2004",-90.675243,42.506699
"DUBUQUE ","745 DAVIS ST , DUBUQUE , IA","IA","3","16","2004",-90.671614,42.529725
"DUBUQUE ","427 RHOMBERG AVE , DUBUQUE , IA","IA","4","13","2004",-90.665781,42.513395
"DUBUQUE ","2515 CENTRAL AVE 1 , DUBUQUE , IA","IA","4","27","2004",-90.674447,42.517684
"DUBUQUE ","11420 RUPP HOLLOW RD , DUBUQUE , IA","IA","5","12","2004",-90.7082609,42.551527
"DUBUQUE ","2805 JACKSON ST , DUBUQUE , IA","IA","5","19","2004",-90.677296,42.523255
"DUBUQUE ","440 ANGELLA #6 , DUBUQUE , IA","IA","7","23","2004",-90.6751005,42.5080238
"DUBUQUE ","1441 1/2 BLUFF ST , DUBUQUE , IA","IA","7","25","2004",-90.6666621,42.4925768
"DUBUQUE ","1360 MISSOURI ST , DUBUQUE , IA","IA","7","27","2004",-90.707994,42.496732
"DUBUQUE ","11420 RUPP HOLLOW RD , DUBUQUE , IA","IA","7","28","2004",-90.7082609,42.551527
"DUBUQUE ","1390 KAUFMANN AVE , DUBUQUE , IA","IA","8","19","2004",-90.695947,42.514891
"DUBUQUE ","2510 CENTRAL AVE 1 , DUBUQUE , IA","IA","10","8","2004",-90.6738522,42.5176452
"DUBUQUE ","430 KAUFMANN AVE , DUBUQUE , IA","IA","10","20","2004",-90.678123,42.513711
"DUBUQUE ","101 29 E ST , DUBUQUE , IA","IA","11","18","2004",-90.678757,42.524447
"DUBUQUE ","11294 ROCK GROVE CT , DUBUQUE , IA","IA","11","18","2004",-90.706679,42.6076934
"DUBUQUE ","1695 ALGONA N , DUBUQUE , IA","IA","11","23","2004",-90.692884,42.501742
"DUBUQUE ","20204 ST. JOSEPH DR , DUBUQUE , IA","IA","11","24","2004",-90.6840053,42.4472514
"DUBUQUE ","101 (A) 29TH E ST , DUBUQUE , IA","IA","12","30","2004",-90.678757,42.524447
"DUBUQUE ","2724 PINARD ST , DUBUQUE , IA","IA","1","23","2005",-90.673425,42.523645
"DUBUQUE ","1365 JACKSON 3 , DUBUQUE , IA","IA","2","21","2005",-90.665906,42.506563
"DUBUQUE ","364 1/2 HILL ST , DUBUQUE , IA","IA","3","29","2005",-90.6801412,42.4901806
"DUBUQUE ","101 29TH E ST , DUBUQUE , IA","IA","6","5","2005",-90.678757,42.524447
"DUBUQUE ","1903 GRACE ST , DUBUQUE , IA","IA","7","5","2005",-90.6906319,42.497134
"DUBUQUE ","2008 FOYE ST , DUBUQUE , IA","IA","11","9","2005",-90.6776862,42.5091364
"DUBUQUE ","745 GILLESPIE ST , DUBUQUE , IA","IA","11","10","2005",-90.6645718,42.5005583
"DUBUQUE ","2027 ELM ST , DUBUQUE , IA","IA","11","23","2005",-90.6666733,42.5126243
"DUBUQUE ","1157 IOWA ST , DUBUQUE , IA","IA","12","5","2005",-90.667901,42.503931
"DUBUQUE ","1907 1/2 JOHNSON STREET , DUBUQUE , IA","IA","2","26","2006",-90.6635874,42.5141921
"DUBUQUE ","3058 LEMON STREET , DUBUQUE , IA","IA","3","17","2006",-90.6827163,42.5258063
"DUBUQUE ","3601 1/2 LEMON STREET , DUBUQUE , IA","IA","10","17","2006",-90.6838312,42.5268814
"DUBUQUE ","1720 DELHI STREET , DUBUQUE , IA","IA","10","20","2006",-90.6885656,42.496956
"DUBUQUE ","10543 EMBERWOOD DRIVE , DUBUQUE , IA","IA","12","14","2006",-90.693453,42.552493
"DUBUQUE ","1665 WASHINGTON STREET , DUBUQUE , IA","IA","12","25","2006",-90.666074,42.5092408
"DUBUQUE ","2034 JACKSON STREET , DUBUQUE , IA","IA","1","13","2007",-90.6683505,42.5122442
"DUBUQUE ","1325 COX STREET , DUBUQUE , IA","IA","3","8","2007",-90.6777844,42.5021365
"DUBUQUE ","917 LINCOLN AVENUE , DUBUQUE , IA","IA","4","2","2007",-90.66286,42.518719
"DUBUQUE ","614 LORAS BOULEVARD , DUBUQUE , IA","IA","8","21","2007",-90.6749193,42.5040242
"DUBUQUE ","4163 BLUEBIRD DRIVE , DUBUQUE , IA","IA","2","16","2008",-90.6808677,42.540563
"DUBUQUE ","2170 JACKSON STREET , DUBUQUE , IA","IA","8","5","2008",-90.669403,42.513952
"DUBUQUE ","1356 ELM STREET , DUBUQUE , IA","IA","9","6","2008",-90.663337,42.507201
"DUBUQUE ","911 GARFIELD AVENUE , DUBUQUE , IA","IA","11","5","2008",-90.660822,42.517563
"DUBUQUE ","2724  PINARD STREET  , DUBUQUE , IA","IA","1","12","2010",-90.673425,42.523645
"DUBUQUE ","1704  GARFIELD AVENUE  , DUBUQUE , IA","IA","1","31","2010",-90.653979,42.524651
"DUBUQUE ","2904  BALKE STREET  , DUBUQUE , IA","IA","4","19","2010",-90.6734029,42.526676
"DUBUQUE ","2411  QUEEN, DUBUQUE , IA","IA","6","3","2010",-90.668849,42.517989
"DUBUQUE ","205 1/  KAUFMANN, DUBUQUE , IA","IA","9","10","2010",-90.674118,42.51325
"DUBUQUE ","2192  ORCHARD, DUBUQUE , IA","IA","6","7","2011",-90.658143,42.544813
"DUBUQUE ","2831  CENTRAL, DUBUQUE , IA","IA","8","3","2011",-90.67898,42.522985
"DUBUQUE ","613  GARFIELD AVENUE , DUBUQUE , IA","IA","12","7","2011",-90.663243,42.514734
"DUBUQUE ","2200  WINDSOR AVENUE  , DUBUQUE , IA","IA","2","15","2012",-90.666051,42.517003
"DUBUQUE ","1922  WHITE STREET 3 , DUBUQUE , IA","IA","2","29","2012",-90.6688185,42.5110542
"DUBUQUE ","2459  CENTRAL AVENUE  , DUBUQUE , IA","IA","7","18","2012",-90.673978,42.516813
"DUBUQUE ","513 EAST 24HT STREET  , DUBUQUE , IA","IA","7","18","2012",-90.6688829,42.517579
"DUBUQUE ","10131  METCALF LANE  , DUBUQUE , IA","IA","8","21","2012",-90.687278,42.417989
"DUBUQUE ","1001  GARFIELD AVENUE  , DUBUQUE , IA","IA","12","4","2012",-90.660161,42.518223
"DUBUQUE ","911  GARFIELD AVENUE  , DUBUQUE , IA","IA","12","19","2012",-90.660822,42.517563
"DUBUQUE ","2283  WHITGE STREET  , DUBUQUE , IA","IA","2","17","2013",-90.671582,42.515015
"DUBUQUE ","2665  WHITE STREET  , DUBUQUE , IA","IA","8","14","2013",-90.675944,42.520822
"DUBUQUE ","895  LOWELL SUMMIT  , DUBUQUE , IA","IA","1","9","2014",-90.6645718,42.5005583
"DUBUQUE ","2119  AVALON ROAD , DUBUQUE , IA","IA","1","2","2015",-90.711801,42.507416
"DUBUQUE ","2283  WHITE STREET , DUBUQUE , IA","IA","3","26","2015",-90.671582,42.515015
"DUBUQUE ","2256  WHITE STREET BOX 1/2 , DUBUQUE , IA","IA","4","14","2015",-90.6645718,42.5005583
"DUBUQUE ","1430  IOWA STREET , DUBUQUE , IA","IA","6","18","2015",-90.668588,42.506459
"DUBUQUE ","2613  CENTRAL AVENUE , DUBUQUE , IA","IA","8","3","2015",-90.676252,42.519754
"DUBUQUE ","20204 ST. JOSEPH DR , RICKARDSVILLE , IA","IA","10","10","2004",-90.88199,42.582857
"EMMET ","1095 SCHOOL ST , DOLLIVER , IA","IA","6","1","2004",-94.6183338,43.4660151
"FAYETTE ","17051 190TH STREET , HAWKEYE , IA","IA","5","27","2006",-91.9258639,42.9065585
"FAYETTE ","17783 PALACE ROAD , HAWKEYE , IA","IA","3","13","2007",-91.9135606,42.8874981
"FAYETTE ","215 KING ST , WEST UNION , IA","IA","2","25","2004",-91.815163,43.07217
"FAYETTE ","118 EAST ELM STREET  , WEST UNION , IA","IA","5","25","2010",-91.8071876,42.9612606
"FLOYD ","804 JOSLIN N ST , CHARLES CITY , IA","IA","2","18","2004",-92.677862,43.074457
"FLOYD ","1838 CEDARVIEW , CHARLES CITY , IA","IA","5","18","2007",-92.716236,43.093249
"FLOYD ","202 10TH AVENUE , CHARLES CITY , IA","IA","8","22","2008",-92.670764,43.071653
"FLOYD ","1902 KIRKWOOD AVENUE , CHARLES CITY , IA","IA","9","16","2008",-92.829246,43.08077
"FLOYD ","608  KELLOGG AVENUE , CHARLES CITY , IA","IA","12","15","2014",-92.682303,43.074399
"FLOYD ","1781 QUARRY RD , FLOYD , IA","IA","11","16","2004",-92.7422023,43.1029492
"FRANKLIN ","317 4TH ST , COULTER , IA","IA","3","6","2004",-93.369524,42.734189
"FRANKLIN ","306  FOREST, DOWS , IA","IA","9","1","2010",-93.498388,42.659
"FRANKLIN ","315 FIRST SW ST , HAMPTON , IA","IA","3","19","2004",-93.209048,42.738479
"GREENE ","307 NORTH OLIVE STREET , JEFFERSON , IA","IA","7","10","2006",-94.3707587,42.017337
"GRUNDY ","215 KOHLER , CONRAD , IA","IA","6","15","2007",-92.8746455,42.2247077
"GRUNDY ","107 6TH ST , GRUNDY CENTER , IA","IA","5","31","2004",-92.7713244,42.3673606
"GUTHRIE ","104 1ST W ST , GUTHRIE CENTER , IA","IA","2","9","2005",-94.5067968,41.6772274
"GUTHRIE ","424 SHERMAN ST , STUART , IA","IA","2","9","2004",-94.3141922,41.5081533
"HAMILTON ","2273 SAC AND FOX AVE , BLAIRSBURG , IA","IA","3","4","2004",-93.6108618,42.4602099
"HAMILTON ","2273 SAC & FOX AVE , BLAIRSBURG , IA","IA","3","12","2004",-95.7392969,35.1740874
"HAMILTON ","2749 230TH ST , BLAIRSBURG , IA","IA","12","8","2004",-93.6283459,42.4562832
"HAMILTON ","3057 TOLLMAN AVE , ELLSWORTH , IA","IA","1","7","2004",-93.6008643,42.3459105
"HAMILTON ","406 MEADOW LAKE STREET , JEWELL , IA","IA","3","8","2004",-93.6436209,42.2997298
"HAMILTON ","650 TAYLOR ST , STANHOPE , IA","IA","4","26","2004",-93.7946755,42.2865689
"HAMILTON ","1217 SECOND ST 17 , WEBSTER CITY , IA","IA","2","12","2004",-93.8339575,42.4695602
"HAMILTON ","1233  WATER, WEBSTER CITY , IA","IA","7","2","2010",-93.8339889,42.4657971
"HARDIN ","20879 290 ST , HUBBARD , IA","IA","3","26","2004",-93.292794,42.283445
"HARDIN ","3642 YOUNG AVE , RADCLIFFE , IA","IA","4","1","2005",-93.5017479,42.2610768
"HENRY ","109 OAK E , HILLSBORO , IA","IA","11","21","2004",-91.7121712,40.8372789
"HENRY ","2788 KENTUCKY AVE , MOUNT PLEASANT , IA","IA","8","24","2004",-91.537527,40.9047228
"HENRY ","1795 OAKLAND MILLS RD , MOUNT PLEASANT , IA","IA","10","28","2004",-91.5638796,40.9509611
"HENRY ","506 1/2 MADISON E ST , MOUNT PLEASANT , IA","IA","11","29","2004",-91.547126,40.9670649
"HENRY ","103 NORTH HAYNES STREET , MOUNT PLEASANT , IA","IA","6","9","2007",-91.5351304,40.9651578
"HENRY ","2419 FRANKLIN AVENUE , MOUNT PLEASANT , IA","IA","11","21","2007",-91.6125527,40.9484765
"HENRY ","210 KNEEN STREET , MOUNT UNION , IA","IA","8","2","2008",-91.3911849,41.0579679
"HUMBOLDT ","2490 LONE TREET RD , HUMBOLDT , IA","IA","12","23","2004",-94.1808788,42.6896441
"HUMBOLDT ","512 KELLING ST , RENWICK , IA","IA","1","22","2004",-93.979513,42.8289611
"IDA ","6243  75 HIGHWAY  , ARTHUR , IA","IA","5","15","2009",-95.2645394,42.3078992
"IDA ","5445 170TH ST , HOLSTEIN , IA","IA","3","4","2004",-95.5457763,42.4572897
"IOWA ","5204 C ST , AMANA , IA","IA","12","30","2004",-91.8506713,41.8102863
"IOWA ","4301 V STREET , HOMESTEAD , IA","IA","1","8","2006",-91.8772198,41.7612206
"IOWA ","723  HILTON, MARENGO , IA","IA","5","20","2010",-92.059487,41.7985692
"IOWA ","550 HAWKEYE DR 7 , WILLIAMSBURG , IA","IA","6","18","2005",-92.0097294,41.6811099
"JACKSON ","7149 HIGHWAY 64 , BALDWIN , IA","IA","8","25","2004",-90.8145561,42.0750985
"JACKSON ","1002 17TH AVE , BALDWIN , IA","IA","10","1","2004",-90.5975824,42.0473129
"JACKSON ","701 3RD N , BELLEVUE , IA","IA","5","26","2004",-90.4275372,42.2633258
"JACKSON ","23607 LAKE SHORE DRIVE , BERNARD , IA","IA","3","28","2006",-90.7782664,42.2402342
"JACKSON ","902 PLATT E , MAQUOKETA , IA","IA","3","13","2004",-90.6556078,42.0691884
"JACKSON ","108 1/2 MAIN S ST , MAQUOKETA , IA","IA","5","19","2004",-90.5924166,42.1529011
"JACKSON ","311 FOURTH S ST , MAQUOKETA , IA","IA","8","7","2004",-90.6690561,42.0660433
"JACKSON ","26290 35TH (CODFISH HOLLOW RD) , MAQUOKETA , IA","IA","1","20","2006",-90.5828931,42.0727033
"JACKSON ","412 N MATTESON STREET , MAQUOKETA , IA","IA","8","2","2015",-90.6606271,42.0765079
"JACKSON ","42 1/2 NE ASMUSSEN STREET BOX 2 , PRESTON , IA","IA","3","17","2015",-90.3960275,42.0502844
"JASPER ","5027 112 1/2 W ST , MINGO , IA","IA","1","25","2005",-93.2617259,41.7453019
"JASPER ","1102 6TH N AVE , NEWTON , IA","IA","4","5","2005",-93.039768,41.7043419
"JASPER ","324 4TH W ST , NEWTON , IA","IA","7","12","2005",-93.057094,41.696835
"JASPER ","414 WEST 3 AVENUE  , NEWTON , IA","IA","4","12","2010",-93.055736,41.696096
"JASPER ","706 NORTH 7TH STREET  , NEWTON , IA","IA","8","7","2012",-93.0611436,41.7054835
"JASPER ","316  HICKORY STREET  , NEWTON , IA","IA","8","29","2012",-93.086589,41.701189
"JASPER ","206 SOUTH W ST , PRAIRIE CITY , IA","IA","2","14","2004",-93.238307,41.595324
"JASPER ","104 SECOND E ST , PRAIRIE CITY , IA","IA","4","3","2004",-93.23556,41.596835
"JEFFERSON ","400  4TH STREET #3 , BATAVIA , IA","IA","7","5","2011",-122.3996486,37.7808011
"JEFFERSON ","301 BUCHANAN E ST B3 , FAIRFIELD , IA","IA","4","28","2004",-91.9573063,41.0109341
"JEFFERSON ","602 COURT N ST 4 , FAIRFIELD , IA","IA","9","8","2004",-91.9680221,41.0123936
"JEFFERSON ","2696 HIGHWAY 34 , FAIRFIELD , IA","IA","1","4","2005",-91.8534148,41.0020497
"JEFFERSON ","1000 NORTH 8TH STREET  , FAIRFIELD , IA","IA","4","7","2010",-91.9733294,41.015636
"JEFFERSON ","1582  OLIVE AVENUE  , FAIRFIELD , IA","IA","7","6","2010",-91.8952299,41.0747355
"JEFFERSON ","203  BURLINGTON, FAIRFIELD , IA","IA","7","21","2010",-91.9651175,41.0066524
"JEFFERSON ","1947  REDWOOD, FAIRFIELD , IA","IA","6","9","2011",-91.8521833,40.9875051
"JEFFERSON ","608 EAST BUCHANAN AVENUE  , FAIRFIELD , IA","IA","6","15","2011",-91.9548958,40.9936584
"JEFFERSON ","1226 NUTMEG AVENUE , RICHLAND , IA","IA","8","27","2008",-91.9179327,41.1312397
"JOHNSON ","1576 NORTHWEST 120TH STREET , FAIRFAX , IA","IA","6","24","2014",-91.776062,41.8481359
"JOHNSON ","3981 N.E. OVERLOOK W RD , IOWA CITY , IA","IA","1","2","2004",-91.5435727,41.7242318
"JOHNSON ","2221 MUSCATINE AVE , IOWA CITY , IA","IA","6","12","2004",-91.502457,41.649242
"JOHNSON ","328 4TH AVE , IOWA CITY , IA","IA","10","22","2004",-91.506009,41.656942
"JOHNSON ","428 ELMRIDGE DR , IOWA CITY , IA","IA","11","18","2004",-91.4987869,41.655432
"JOHNSON ","328 4TH AVE , IOWA CITY , IA","IA","12","4","2004",-91.506009,41.656942
"JOHNSON ","4494 TAFT AVENUE , IOWA CITY , IA","IA","10","15","2006",-91.4637154,41.5205359
"JOHNSON ","1116 NORTH DODGE STREET , IOWA CITY , IA","IA","5","10","2007",-91.519077,41.675738
"JOHNSON ","633 BEACHVIEW DRIVE , IOWA CITY , IA","IA","7","22","2008",-91.5525056,41.6286399
"JOHNSON ",", IOWA CITY , IA","IA","8","17","2015",-91.5301683,41.6611277
"JOHNSON ","2  CENTURY STREET , IOWA CITY , IA","IA","8","25","2015",-91.482153,41.6402807
"JOHNSON ","2221  MUSCATINE AVENUE , IOWA CITY , IA","IA","8","31","2015",-91.502457,41.649242
"JOHNSON ","35 SPARTON DR , NORTH LIBERTY , IA","IA","1","21","2005",-91.6067409,41.7354975
"JOHNSON ","1710 LOWER OLD HIGHWAY 6 NW , OXFORD , IA","IA","8","27","2004",-91.763532,41.727066
"JOHNSON ","4344 SOUTHWEST EAGLE AVENUE , OXFORD , IA","IA","4","4","2006",-91.763062,41.616388
"JONES ","404 SALES N , ANAMOSA , IA","IA","7","20","2004",-91.2880469,42.1110406
"JONES ","801 JACKSON ST , OLIN , IA","IA","3","8","2005",-91.1418784,42.0015461
"JONES ","801 NORTH JACKSON STREET , OLIN , IA","IA","7","20","2006",-91.1418784,42.0015461
"JONES ","38TH SW AVE , OXFORD JUNCTION , IA","IA","10","7","2004",-90.951917,41.9531601
"JONES ","10678 HIGHWAY 64 , WYOMING , IA","IA","1","17","2006",-91.0862432,42.0627579
"KEOKUK ","24719 112 AVE , DELTA , IA","IA","3","14","2005",-92.3873732,41.2991765
"KEOKUK ","102 SOUTH ST , DELTA , IA","IA","7","16","2005",-95.3623555,41.3910333
"KEOKUK ","406  PARK, HEDRICK , IA","IA","7","14","2011",-92.3077333,41.1742944
"KEOKUK ","101 BUCKEYE , MARTINSBURG , IA","IA","11","10","2004",-92.253041,41.1798999
"KEOKUK ","21891 HWY 78 HWY , OLLIE , IA","IA","1","25","2005",-92.1802502,41.177128
"KEOKUK ","12114 175TH ST , WHAT CHEER , IA","IA","11","6","2004",-92.3159536,41.4017549
"KOSSUTH ","1302 NORTH E ST , ALGONA , IA","IA","5","7","2005",-94.2216324,43.070919
"KOSSUTH ","3144 100TH ST , LU VERNE , IA","IA","2","13","2005",-94.0263703,42.9077925
"KOSSUTH ","505 ASH W AVE , SWEA CITY , IA","IA","1","27","2004",-94.3124548,43.3809992
"LEE ","309 MADISON AVE 18 , DONNELLSON , IA","IA","11","8","2004",-91.562225,40.638627
"LEE ","105 OAK S ST 5 , DONNELLSON , IA","IA","11","9","2004",-91.5631602,40.6388054
"LEE ","1463 155TH AVE , DONNELLSON , IA","IA","1","23","2005",-91.612481,40.750856
"LEE ","1743 255TH , DONNELLSON , IA","IA","10","31","2008",-91.575386,40.59226
"LEE ","917  MADISON AVENUE  , DONNELLSON , IA","IA","4","30","2009",-91.5701009,40.639824
"LEE ","2785 CHALKRIDGE RD , FORT MADISON , IA","IA","7","29","2004",-91.3733992,40.6540702
"LEE ","1518 L AVE , FORT MADISON , IA","IA","1","21","2005",-91.3271649,40.627172
"LEE ","1709 39TH ST , FORT MADISON , IA","IA","3","27","2005",-91.3631375,40.621659
"LEE ","1890 303RD AVE , FORT MADISON , IA","IA","8","5","2005",-91.329331,40.683438
"LEE ","2508 G AVE , FORT MADISON , IA","IA","8","24","2005",-91.3414207,40.6310011
"LEE ","1117 23RD STREET , FORT MADISON , IA","IA","2","4","2006",-91.338634,40.627572
"LEE ","5914 O AVENUE , FORT MADISON , IA","IA","4","4","2006",-91.3920214,40.6238935
"LEE ","2415 E AVENUE , FORT MADISON , IA","IA","3","13","2007",-91.340501,40.633601
"LEE ","1116 MAIN 13TH STREET , FORT MADISON , IA","IA","9","16","2008",-91.320537,40.628475
"LEE ","1519  M AVENUE  , FORT MADISON , IA","IA","4","23","2009",-91.32566,40.626668
"LEE ","1203  23RD STREET , FORT MADISON , IA","IA","6","6","2012",-91.3385787,40.626825
"LEE ","909  34TH STREET , FORT MADISON , IA","IA","6","17","2012",-91.355733,40.629304
"LEE ","2401  245TH AVENUE  , FORT MADISON , IA","IA","11","13","2012",-91.4403804,40.6081014
"LEE ","1203 140TH AVE , HOUGHTON , IA","IA","12","2","2004",-91.643749,40.782746
"LEE ","2343 b 340 ST , KEOKUK , IA","IA","2","19","2004",-91.464452,40.465313
"LEE ","1218 7TH S ST , KEOKUK , IA","IA","2","26","2004",-91.398365,40.391529
"LEE ","3806 MAIN STREET RD LOT 9 , KEOKUK , IA","IA","2","26","2004",-91.416299,40.428491
"LEE ","708 14TH S ST , KEOKUK , IA","IA","2","26","2004",-91.398492,40.39848
"LEE ","1112 DES MOINES S ST , KEOKUK , IA","IA","4","27","2004",-91.394084,40.3975
"LEE ","318 16TH S ST , KEOKUK , IA","IA","8","12","2004",-91.396191,40.4022789
"LEE ","204 14TH N ST , KEOKUK , IA","IA","10","13","2004",-91.3885188,40.4043858
"LEE ","504 CARROLL ST , KEOKUK , IA","IA","12","22","2004",-91.391107,40.391408
"LEE ","1511 TIMEA ST , KEOKUK , IA","IA","7","27","2005",-91.395749,40.401622
"LEE ","1505 MISSOURI ST , KEOKUK , IA","IA","8","9","2005",-91.4075343,40.391015
"LEE ","1312 CEDAR ST , KEOKUK , IA","IA","9","13","2005",-91.399876,40.396514
"LEE ","727 EXCHANGE STREET , KEOKUK , IA","IA","2","12","2007",-91.387469,40.396902
"LEE ","818.5 MAIN STREET , KEOKUK , IA","IA","10","27","2007",-91.3791414,40.3919597
"LEE ","427 PALEAN STREET , KEOKUK , IA","IA","1","31","2008",-91.3892984,40.3919235
"LEE ","1400  RIDGE STREET  , KEOKUK , IA","IA","4","27","2009",-91.3990155,40.3977893
"LEE ","610  HIGH STREET  , KEOKUK , IA","IA","2","25","2010",-91.3816159,40.398606
"LEE ","2701  MAIN STREET  , KEOKUK , IA","IA","3","7","2010",-91.4014569,40.4134944
"LEE ","2449  JOHNSON STREET  , KEOKUK , IA","IA","5","9","2010",-91.399875,40.4099559
"LEE ","2723  340TH STREET 6 , KEOKUK , IA","IA","7","25","2010",-91.3921766,40.4646507
"LEE ","1626  ESTES, KEOKUK , IA","IA","11","12","2010",-91.403924,40.391988
"LEE ","805  YODER, KEOKUK , IA","IA","11","28","2010",-91.389556,40.417512
"LEE ","2101  7TH, KEOKUK , IA","IA","5","11","2011",-91.4095509,40.389824
"LEE ","820  EXCHANGE, KEOKUK , IA","IA","7","11","2011",-91.388729,40.397203
"LEE ","1727  OAK, KEOKUK , IA","IA","7","21","2011",-91.405256,40.392299
"LEE ","2806  MAIN, KEOKUK , IA","IA","8","5","2011",-91.4022036,40.4138665
"LEE ","1316  LEIGHTON , KEOKUK , IA","IA","12","1","2011",-91.382229,40.4076344
"LEE ","1306  OAK, KEOKUK , IA","IA","12","3","2011",-91.399562,40.393436
"LEE ","725  K STREET  , KEOKUK , IA","IA","6","4","2012",-91.4072274,40.3921562
"LEE ","215 SOUTH 15TH STREET , KEOKUK , IA","IA","6","21","2012",-91.3938919,40.402005
"LEE ","21 1/2 SOUTH 5TH STREET 2 , KEOKUK , IA","IA","6","27","2012",-91.3833573,40.3957752
"LEE ","3400  MAIN STREET  , KEOKUK , IA","IA","7","30","2012",-91.4083614,40.4197705
"LEE ","127 NORTH 16TH STREET  , KEOKUK , IA","IA","8","6","2012",-91.390336,40.405474
"LEE ","600 NORTH 13TH STREET  , KEOKUK , IA","IA","8","9","2012",-91.3836716,40.4058666
"LEE ","302  EXCHANGE STREET  , KEOKUK , IA","IA","8","24","2012",-91.3841209,40.392867
"LEE ","1917  WILLIAM STREET  , KEOKUK , IA","IA","10","11","2012",-91.406774,40.389108
"LEE ","316 SOUTH 11TH STREET  , KEOKUK , IA","IA","12","2","2012",-91.392299,40.398527
"LEE ","1316  LEIGHTON STREET  , KEOKUK , IA","IA","12","3","2012",-91.382229,40.4076344
"LEE ","825  CONCERT STREET  , KEOKUK , IA","IA","10","8","2013",-91.3839799,40.400168
"LEE ","1109  JOHNSON STREET , KEOKUK , IA","IA","3","1","2016",-91.389297,40.4002709
"LEE ","2343 a 340TH ST , MONTROSE , IA","IA","2","19","2004",-91.464452,40.465313
"LEE ","3072 KOEHLER LN , MONTROSE , IA","IA","12","27","2004",-91.380483,40.513558
"LEE ","#9 BLUFFPARK RD , MONTROSE , IA","IA","11","16","2005",-91.405487,40.528391
"LEE ","2530 235TH ST , MONTROSE , IA","IA","12","27","2005",-91.4443611,40.6109273
"LEE ","2217 300TH STREET , MONTROSE , IA","IA","11","16","2008",-91.486548,40.524163
"LEE ","275TH AVENUE  , MONTROSE , IA","IA","4","14","2009",-91.3863303,40.4955942
"LEE ","210  SPRUCE STREET  , MONTROSE , IA","IA","1","16","2010",-91.414762,40.5294
"LEE ","1100  WHITE PLAINS ROAD  , MONTROSE , IA","IA","3","9","2010",-91.537965,40.5027498
"LEE ","2045 FRANKLIN RD , WEST POINT , IA","IA","4","7","2005",-91.502651,40.6601039
"LINN ","1758 MALLORY ST , CEDAR RAPIDS , IA","IA","1","2","2004",-91.6615209,41.962321
"LINN ","307 33RD NE ST , CEDAR RAPIDS , IA","IA","1","5","2004",-91.637342,42.010685
"LINN ","1123 1ST SW AVE , CEDAR RAPIDS , IA","IA","1","9","2004",-91.686286,41.9715
"LINN ","1613 I NE AVE , CEDAR RAPIDS , IA","IA","2","3","2004",-91.655547,41.997118
"LINN ","345 30TH SE ST , CEDAR RAPIDS , IA","IA","2","9","2004",-91.624398,41.986105
"LINN ","1123 1ST SW AVE , CEDAR RAPIDS , IA","IA","2","15","2004",-91.686286,41.9715
"LINN ","841 44TH ST , CEDAR RAPIDS , IA","IA","3","11","2004",-91.599393,41.977441
"LINN ","612 3RD SW ST , CEDAR RAPIDS , IA","IA","3","22","2004",-91.672559,41.9707352
"LINN ","1221 ROSE SE ST , CEDAR RAPIDS , IA","IA","4","15","2004",-91.5723749,41.974374
"LINN ","828 F NW AVE , CEDAR RAPIDS , IA","IA","6","28","2004",-91.68463,41.979313
"LINN ","3729 RICHMOND NE RD , CEDAR RAPIDS , IA","IA","7","31","2004",-91.656294,42.017282
"LINN ","823 11 SE AVE , CEDAR RAPIDS , IA","IA","8","14","2004",-91.652621,41.974457
"LINN ","4950 16TH SW AVE 209 , CEDAR RAPIDS , IA","IA","11","18","2004",-91.7353236,41.9638235
"LINN ","1804 SOUTHEAST 6TH AVENUE , CEDAR RAPIDS , IA","IA","12","29","2004",-91.6443939,41.9816224
"LINN ","1104 22 SW AVE , CEDAR RAPIDS , IA","IA","1","27","2005",-91.683948,41.957
"LINN ","249 11 NW ST , CEDAR RAPIDS , IA","IA","2","25","2005",-91.6867041,41.9746043
"LINN ","1221 ROSE SE ST , CEDAR RAPIDS , IA","IA","4","4","2005",-91.5723749,41.974374
"LINN ","4303 1ST AVE , CEDAR RAPIDS , IA","IA","5","17","2005",-91.6295213,42.0221346
"LINN ","812 SOUTHWEST 8TH AVENUE , CEDAR RAPIDS , IA","IA","4","20","2006",-91.680406,41.968603
"LINN ","1342 NORTHWEST ELLIS BOULEVARD , CEDAR RAPIDS , IA","IA","4","21","2006",-91.6823443,41.9865966
"LINN ","2011 SW SHADY GROVE ROAD , CEDAR RAPIDS , IA","IA","3","16","2015",-91.7028448,41.9604946
"LINN ","1004 SW 2ND AVENUE BOX U , CEDAR RAPIDS , IA","IA","4","9","2015",-91.6656232,41.9778795
"LINN ","1014 SE BEALER COURT , CEDAR RAPIDS , IA","IA","6","20","2015",-91.651435,41.977033
"LINN ","2000 W L STREET , CEDAR RAPIDS , IA","IA","8","3","2015",-91.6715564,41.9584129
"LINN ","2621 NE BLAIRS FERRY ROAD , CEDAR RAPIDS , IA","IA","8","4","2015",-91.6806341,42.0341957
"LINN ","310 SE 5TH AVENUE , CEDAR RAPIDS , IA","IA","10","17","2015",-91.6639046,41.9763253
"LINN ","310 SE 5TH AVENUE BOX 450 , CEDAR RAPIDS , IA","IA","11","13","2015",-91.6656232,41.9778795
"LINN ","941 SW M AVENUE BOX 3 , CEDAR , IA","IA","2","15","2015",-92.4125081,42.5404446
"LINN ","439 1/2 MAIN ST UPPER APT , CENTRAL CITY , IA","IA","2","10","2004",-91.5278267,42.203455
"LINN ","4013 HUMMINGBIRD LANE , HIAWATHA , IA","IA","8","22","2004",-91.6939016,42.0611111
"LINN ","1300 NORTHEAST WHITE OAK AVENUE , LISBON , IA","IA","5","3","2006",-91.3910561,41.8369454
"LINN ","210  RIDGE DRIVE BOX 9 , MARION , IA","IA","10","16","2015",-91.5968958,42.033279
"LINN ","2133  ROSS ROAD  , PALO , IA","IA","1","22","2010",-91.767037,42.01695
"LOUISA ","160 CASS W ST , LETTS , IA","IA","7","16","2004",-91.2377594,41.3334822
"LOUISA ","1604 S AVE , MORNING SUN , IA","IA","10","22","2004",-91.3515032,41.0829625
"LOUISA ","306 SECOND STREET , OAKVILLE , IA","IA","4","5","2007",-91.0430567,41.0969411
"LOUISA ","15816 70TH ST , WAPELLO , IA","IA","1","24","2004",-91.2295063,41.1607912
"LOUISA ","22076  28TH STREET  , WINFIELD , IA","IA","8","21","2012",-91.3523033,41.1006807
"LUCAS ","105 SOUTH AVE , WILLIAMSON , IA","IA","3","18","2004",-93.2540666,41.0882574
"MADISON ","171 2ND N ST , PATTERSON , IA","IA","5","5","2004",-93.8778898,41.3491618
"MADISON ","15710 165TH AVE , SAINT CHARLES , IA","IA","4","7","2004",-92.6725381,43.1195744
"MAHASKA ","248 SOUTH WALNUT STREET , FREMONT , IA","IA","11","15","2008",-92.4368154,41.2109993
"MAHASKA ","214 MARKET N , OSKALOOSA , IA","IA","4","21","2004",-92.6450674,41.2968747
"MARION ","408 TOWER DR , HARVEY , IA","IA","1","21","2004",-92.9241172,41.3136501
"MARION ","806 MAIN ST , HARVEY , IA","IA","10","22","2004",-92.9262791,41.3134966
"MARION ","506 FOURTH S ST , KNOXVILLE , IA","IA","1","2","2004",-93.0953171,41.3149039
"MARION ","909 MAIN W ST , KNOXVILLE , IA","IA","1","22","2004",-93.1070648,41.3189225
"MARION ","2210 103RD AVE , KNOXVILLE , IA","IA","3","6","2004",-93.1517652,41.1900646
"MARION ","1329 LINCOLN S 62 , KNOXVILLE , IA","IA","3","8","2004",-93.1090382,41.3071776
"MARION ","506 2ND N ST , KNOXVILLE , IA","IA","7","2","2004",-93.0978647,41.322978
"MARION ","708 NORTH KENT , KNOXVILLE , IA","IA","6","28","2007",-93.1022163,41.3246092
"MARION ","1211 216TH PL , PELLA , IA","IA","2","5","2004",-92.9401675,41.3466649
"MARION ","407 COLUMBUS N , PLEASANTVILLE , IA","IA","7","14","2004",-93.2679315,41.3892577
"MARION ","307 1/2 COLUMBUS N , PLEASANTVILLE , IA","IA","12","13","2004",-93.2679926,41.3881402
"MARION ","609 EAST JASPER STREET , PLEASANTVILLE , IA","IA","10","5","2006",-93.2633416,41.3855944
"MARSHALL ","1465 NEWBY AVENUE , ALBION , IA","IA","5","16","2006",-92.9815531,42.1406524
"MARSHALL ","103 EAST SOUTH , ALBION , IA","IA","8","22","2006",-92.9900305,42.1072809
"MARSHALL ","207 LINN W ST , MARSHALLTOWN , IA","IA","2","10","2004",-92.9163797,42.046712
"MARSHALL ","3315 CENTER S ST 163 , MARSHALLTOWN , IA","IA","2","16","2004",-92.9133606,42.0056356
"MARSHALL ","8 19TH N ST , MARSHALLTOWN , IA","IA","2","18","2004",-92.9453356,42.0495875
"MARSHALL ","905 IOWA W AVE 10 , MARSHALLTOWN , IA","IA","2","18","2004",-92.9176686,42.007062
"MARSHALL ","207 12TH N ST , MARSHALLTOWN , IA","IA","8","12","2004",-92.9323034,42.0522603
"MARSHALL ","401 PLAZA HEIGHTS RD B , MARSHALLTOWN , IA","IA","10","9","2004",-92.904079,42.0155482
"MARSHALL ","111 STATE W ST 8 , MARSHALLTOWN , IA","IA","10","18","2004",-92.9258783,42.0511699
"MARSHALL ","403 WEST CHURCH  1 , MARSHALLTOWN , IA","IA","3","15","2011",-92.9196611,42.0479168
"MARSHALL ","513 MAIN ST 16 , MELBOURNE , IA","IA","4","24","2005",-93.1030314,41.9401075
"MILLS ","409 WILSON ST , EMERSON , IA","IA","1","28","2004",-95.3990805,41.0178043
"MILLS ","404 MANCHESTER ST , EMERSON , IA","IA","10","26","2004",-95.4025507,41.0175107
"MILLS ","301 EBAUGH ST 4 , GLENWOOD , IA","IA","9","26","2004",-95.7496929,41.037584
"MILLS ","60193 240TH STREET , GLENWOOD , IA","IA","12","29","2004",-95.7277709,41.0127185
"MILLS ","711 NORTH LINN STREET , GLENWOOD , IA","IA","5","23","2006",-95.7391891,41.0527366
"MILLS ","608 SOUTH LOCUST STREET , GLENWOOD , IA","IA","8","4","2006",-95.7447114,41.0402073
"MILLS ","412 SOUTH CHESNUT STREET , GLENWOOD , IA","IA","11","14","2006",-95.7400234,41.0427829
"MILLS ","36087 MAIN ST , HASTINGS , IA","IA","1","31","2004",-95.4972415,40.9495739
"MILLS ","95 2ND AVE , MALVERN , IA","IA","5","18","2005",-95.5863716,40.9985517
"MILLS ","24584 RAINS AVE , TABOR , IA","IA","8","11","2004",-95.7173546,40.9159943
"MITCHELL ","4811 RAMPART AVENUE , MCINTIRE , IA","IA","4","24","2008",-92.6927128,43.4592104
"MITCHELL ","5053  BEECH AVENUE  , SAINT ANSGAR , IA","IA","5","4","2009",-93.0056509,43.4941741
"MONONA ","101 OAK S ST , CASTANA , IA","IA","1","13","2004",-95.9112683,42.0765126
"MONONA ","22173 ORANGE AVE , CASTANA , IA","IA","5","19","2004",-95.9075912,42.041652
"MONONA ","11063 PECAN AVE , MAPLETON , IA","IA","5","13","2004",-95.881351,42.1959687
"MONONA ","514 14TH ST , ONAWA , IA","IA","1","10","2005",-96.102433,42.0327481
"MONONA ","811 6TH ST , ONAWA , IA","IA","3","2","2005",-96.0916418,42.0292422
"MONONA ","817 5TH ST , ONAWA , IA","IA","3","4","2005",-96.09008,42.0284157
"MONONA ","300 1ST ST , SOLDIER , IA","IA","7","29","2004",-95.7792198,41.985134
"MONROE ","216 CLINTON S , ALBIA , IA","IA","1","1","2004",-92.8083006,41.0250546
"MONROE ","312 1/2 WASHINGTON AVE , ALBIA , IA","IA","4","19","2004",-92.8044489,41.0261482
"MONROE ","2155 623RD AVENUE , ALBIA , IA","IA","3","17","2008",-92.863586,40.9879276
"MONTGOMERY ","2032 190TH ST , RED OAK , IA","IA","7","20","2004",-95.188433,41.0305214
"MONTGOMERY ","2900 8TH N ST , RED OAK , IA","IA","7","31","2004",-95.2234169,41.0306878
"MONTGOMERY ","906 7TH N ST , RED OAK , IA","IA","8","26","2004",-95.2241945,41.0126956
"MONTGOMERY ","200 BLK 2ND E AVE , VILLISCA , IA","IA","3","26","2004",-94.9854812,40.9308912
"MUSCATINE ","1219 RIPLEY COURT , MUSCATINE , IA","IA","7","24","2006",-91.0038353,41.472889
"MUSCATINE ","1070 GARFIELD ST , WEST LIBERTY , IA","IA","1","12","2006",-91.258686,41.586478
"MUSCATINE ","204 CHESTNUT STREET , WILTON , IA","IA","5","14","2008",-91.0151939,41.586564
"O'Brien ","3283 YEW AVE , HARTLEY , IA","IA","2","28","2006",-95.4077458,43.1722517
"O'Brien ","80 2ND SW ST , PRIMGHAR , IA","IA","4","27","2004",-95.6284236,43.0854427
"O'BRIEN ","6890 440TH STREET , SUTHERLAND , IA","IA","10","31","2006",-95.4304476,43.0106147
"OSCEOLA ","908 7TH ST , SIBLEY , IA","IA","5","27","2004",-95.7415255,43.4013569
"OSCEOLA ","614 6TH AVE , SIBLEY , IA","IA","3","21","2005",-95.7457909,43.4022242
"PAGE ","800 LINCOLN , CLARINDA , IA","IA","9","10","2004",-95.0288044,40.7414295
"PAGE ","601 STATE E ST , CLARINDA , IA","IA","4","12","2005",-95.0312622,40.7421226
"PAGE ","1001 EAST MAIN STREET , CLARINDA , IA","IA","3","6","2007",-95.0262882,40.7381704
"PAGE ","305 ELM S ST 19 , SHENANDOAH , IA","IA","7","6","2004",-95.3737848,40.7639869
"PALO ALTO ","5237 460TH ST , WEST BEND , IA","IA","6","26","2005",-94.5510825,42.9810739
"PLYMOUTH ","18546  140TH STREET  , AKRON , IA","IA","2","28","2010",-96.4583386,42.8513044
"PLYMOUTH ","420 OAK ST , BRUNSVILLE , IA","IA","11","23","2005",-96.2675072,42.8097612
"PLYMOUTH ","122 3RD SW AVE , LE MARS , IA","IA","3","24","2005",-96.1707618,42.7912253
"POLK ","604 2ND SE ST , ALTOONA , IA","IA","1","12","2005",-93.4574926,41.6501872
"POLK ","706 2 SE ST , ALTOONA , IA","IA","11","22","2005",-93.455999,41.650143
"POLK ","2732 SOUTHEAST DELAWARE AVENUE 1 , ANKENY , IA","IA","4","21","2004",-93.5822967,41.700991
"POLK ","7377 16TH NW ST , ANKENY , IA","IA","1","16","2005",-93.638271,41.695217
"POLK ","2301  ORALABOR ROAD 2 , ANKENY , IA","IA","4","7","2010",-93.629658,41.703266
"POLK ","2523 59TH ST , DES MOINES , IA","IA","1","6","2004",-93.6987451,41.6175307
"POLK ","1908 LAY ST , DES MOINES , IA","IA","1","12","2004",-93.572728,41.611115
"POLK ","1213 CLEVELAND E , DES MOINES , IA","IA","1","15","2004",-93.6039179,41.604938
"POLK ","4125 15TH SE CT , DES MOINES , IA","IA","2","4","2004",-93.593389,41.546968
"POLK ","2917 49TH PL , DES MOINES , IA","IA","2","17","2004",-93.6863774,41.6215449
"POLK ","4485 23RD NE AVE , DES MOINES , IA","IA","2","24","2004",-93.525358,41.614421
"POLK ","3848 14 NE ST , DES MOINES , IA","IA","2","27","2004",-93.637197,41.6310659
"POLK ","2517 8TH SE CT , DES MOINES , IA","IA","3","3","2004",-93.600573,41.561873
"POLK ","3315 SIXTH AVE , DES MOINES , IA","IA","3","4","2004",-93.6244608,41.6256641
"POLK ","935 HEROLD SW , DES MOINES , IA","IA","3","8","2004",-93.6274412,41.5420701
"POLK ","835 BUCHANAN , DES MOINES , IA","IA","3","16","2004",-93.607163,41.597037
"POLK ","3412 DUBUQUE AVE , DES MOINES , IA","IA","3","23","2004",-93.54902,41.604871
"POLK ","2150 66TH NW AVE , DES MOINES , IA","IA","4","7","2004",-93.6460974,41.6803435
"POLK ","3303 50TH TRL , DES MOINES , IA","IA","5","11","2004",-93.687039,41.625042
"POLK ","809 BROADWAY NE AVE 22 , DES MOINES , IA","IA","5","13","2004",-93.607544,41.642586
"POLK ","2934 EUCLID E , DES MOINES , IA","IA","5","16","2004",-93.5595,41.628216
"POLK ","3170 SOUTHEAST 14TH STREET 21 , DES MOINES , IA","IA","5","17","2004",-93.5969447,41.5554836
"POLK ","1427 DELAWARE E ST , DES MOINES , IA","IA","5","18","2004",-93.580872,41.60512
"POLK ","2613 ELM E ST , DES MOINES , IA","IA","5","22","2004",-93.566753,41.5857079
"POLK ","2904 MAPLE ST , DES MOINES , IA","IA","5","26","2004",-93.560776,41.5989859
"POLK ","3607 38 E ST , DES MOINES , IA","IA","6","11","2004",-93.5415942,41.6283243
"POLK ","706 MARION SW , DES MOINES , IA","IA","7","2","2004",-93.624103,41.547019
"POLK ","431 28TH ST , DES MOINES , IA","IA","7","10","2004",-93.6542054,41.5838486
"POLK ","3817 27TH E ST , DES MOINES , IA","IA","8","5","2004",-93.5667501,41.630361
"POLK ","4324 BASELINE N ST , DES MOINES , IA","IA","9","12","2004",-93.617931,41.6389489
"POLK ","1908 LAY ST , DES MOINES , IA","IA","9","15","2004",-93.572728,41.611115
"POLK ","3923 6TH AVE , DES MOINES , IA","IA","9","22","2004",-93.624412,41.632153
"POLK ","2938 EUCLID E , DES MOINES , IA","IA","10","6","2004",-93.559299,41.628217
"POLK ","3211 30TH 39 , DES MOINES , IA","IA","12","6","2004",-93.6576996,41.6246778
"POLK ","1275 34 E ST , DES MOINES , IA","IA","12","14","2004",-93.549132,41.60333
"POLK ","5500 14TH NE ST 26 , DES MOINES , IA","IA","2","4","2005",-93.60377,41.660706
"POLK ","1821 GRAND E AVE 1 , DES MOINES , IA","IA","1","30","2006",-93.586013,41.595148
"POLK ","3316 62ND ST , DES MOINES , IA","IA","2","22","2006",-93.702924,41.625453
"POLK ","4035 MAHASKA , DES MOINES , IA","IA","5","3","2006",-93.536536,41.601984
"POLK ","1325 EAST 16TH STREET , DES MOINES , IA","IA","10","2","2006",-93.594791,41.603848
"POLK ","4608 UNIVERSITY AVENUE , DES MOINES , IA","IA","12","24","2006",-93.6807077,41.600144
"POLK ","1827  WILLIAMS STREET  , DES MOINES , IA","IA","4","2","2009",-93.533005,41.611388
"POLK ","3300  VANDALIA AVENUE  , DES MOINES , IA","IA","4","13","2009",-93.5516513,41.570907
"POLK ","1827  WILLIAMS, DES MOINES , IA","IA","5","1","2009",-93.533005,41.611388
"POLK ","2326  DES MOINES STREET  , DES MOINES , IA","IA","4","2","2010",-93.573859,41.596665
"POLK ","2451  7TH, DES MOINES , IA","IA","4","24","2010",-93.62163,41.562861
"POLK ","3060  44TH, DES MOINES , IA","IA","5","4","2010",-93.6780075,41.6231796
"POLK ","1320  EMMA, DES MOINES , IA","IA","5","20","2010",-93.634916,41.542979
"POLK ","6001  CRESTON, DES MOINES , IA","IA","6","14","2010",-93.6994309,41.5610749
"POLK ","5013  12TH, DES MOINES , IA","IA","7","4","2010",-93.6305456,41.5390478
"POLK ","511  CRESTON, DES MOINES , IA","IA","9","13","2010",-93.620929,41.560204
"POLK ","1108  SENECA , DES MOINES , IA","IA","2","27","2012",-93.6326038,41.6312952
"POLK ","2444  LOGAN AVENUE  , DES MOINES , IA","IA","7","10","2012",-93.570598,41.592628
"POLK ","5663 113TH NW ST , GRIMES , IA","IA","7","6","2005",-93.7738913,41.6635073
"POLK ","151 PLEASANT HILL N BLVD , PLEASANT HILL , IA","IA","1","12","2004",-93.51982,41.589549
"POLK ","3000 UNIVERSITY AVE 73 , WEST DES MOINES , IA","IA","1","20","2004",-93.7454638,41.6000726
"POLK ","210 PRAIRIEVIEW DR , WEST DES MOINES , IA","IA","2","17","2004",-93.779918,41.5710421
"POLK ","124 3RD ST , WEST DES MOINES , IA","IA","6","29","2004",-93.706532,41.570499
"POLK ","830 12 ST 3 , WEST DES MOINES , IA","IA","1","30","2006",-93.7191272,41.5820468
"POLK ","3050 UNIVERSITY AVENUE , WEST DES MOINES , IA","IA","6","9","2006",-93.746495,41.598973
"POLK ","4621 WESTWOOD DRIVE , WEST DES MOINES , IA","IA","7","28","2006",-93.76634,41.569278
"POLK ","1202  OFFICE PARK ROAD  , WEST DES MOINES , IA","IA","6","27","2010",-93.7194794,41.5902123
"POTTAWATTAMIE ","155 CHESTNUT S ST , AVOCA , IA","IA","2","23","2004",-95.336104,41.476179
"POTTAWATTAMIE ","1727 5TH AVE , COUNCIL BLUFFS , IA","IA","4","14","2004",-95.870543,41.256856
"POTTAWATTAMIE ","1848 16TH N ST 227 , COUNCIL BLUFFS , IA","IA","5","19","2004",-95.8674913,41.2773461
"POTTAWATTAMIE ","21903 CHESNUT RD , COUNCIL BLUFFS , IA","IA","11","5","2004",-95.766824,41.214157
"POTTAWATTAMIE ","2118 N AVE , COUNCIL BLUFFS , IA","IA","3","9","2005",-95.9438021,41.2096667
"POTTAWATTAMIE ","1908 PUEBLO ROAD , COUNCIL BLUFFS , IA","IA","9","13","2006",-95.8679238,41.2275904
"POTTAWATTAMIE ","807 8TH AVENUE , COUNCIL BLUFFS , IA","IA","1","15","2008",-95.856504,41.254049
"POTTAWATTAMIE ","32505 US HWY 92 , TREYNOR , IA","IA","11","3","2004",-95.565064,41.229836
"POTTAWATTAMIE ","22426 HIGHWAY 191 , UNDERWOOD , IA","IA","1","20","2004",-95.6784279,41.3881281
"POTTAWATTAMIE ","22426 HWY 191 , UNDERWOOD , IA","IA","1","20","2004",-95.676674,41.3869388
"POWESHIEK ","926 1/2 MAIN TRL , GRINNELL , IA","IA","11","12","2004",-92.7257232,41.744268
"POWESHIEK ","3231 70TH ST , GRINNELL , IA","IA","2","2","2005",-92.6495823,41.8295692
"POWESHIEK ","1113 SPRING ST , GRINNELL , IA","IA","4","29","2005",-92.72884,41.7463623
"POWESHIEK ","818 3RD S ST , MONTEZUMA , IA","IA","2","23","2004",-92.524877,41.5782009
"SAC ","2650  IRA AVENUE  , EARLY , IA","IA","6","28","2012",-95.1868235,42.4097208
"SCOTT ","5425 VALLEY DR 7 , BETTENDORF , IA","IA","6","21","2004",-90.45499,41.547476
"SCOTT ","1005 39TH STREET , BETTENDORF , IA","IA","8","18","2007",-90.47933,41.531768
"SCOTT ","2815 68TH W ST , DAVENPORT , IA","IA","4","5","2004",-90.6153653,41.5899477
"SCOTT ","717 SOUTH DITTMER STREET  , DAVENPORT , IA","IA","1","17","2010",-90.620416,41.512505
"SCOTT ","2809  SHERIDAN STREET , DAVENPORT , IA","IA","5","8","2015",-90.574096,41.548946
"SCOTT ","5112  FAIRMOUNT STREET BOX 196 , DAVENPORT , IA","IA","5","6","2015",-90.5776367,41.5236437
"SCOTT ","1434 W 15TH STREET , DAVENPORT , IA","IA","12","21","2015",-90.5951259,41.535066
"SCOTT ","21445  SCOTT PARK ROAD  , MOUNT JOY , IA","IA","10","11","2013",-90.4818691,41.6116477
"SCOTT ","219  RIVER DRIVE , PRINCETON , IA","IA","12","16","2015",-90.339838,41.676014
"SHELBY ","1201 12TH ST , HARLAN , IA","IA","11","12","2004",-95.325691,41.656508
"SIOUX ","704 K AVE , HAWARDEN , IA","IA","3","26","2004",-96.4807017,42.9934608
"SIOUX ","2001  14TH STREET , ROCK VALLEY , IA","IA","10","11","2014",-96.2881125,43.2041674
"SIOUX ","4413 340TH ST , SHELDON , IA","IA","5","1","2005",-95.9183299,43.1565799
"STORY ","1343 Y AVE , AMES , IA","IA","1","14","2004",-93.6980381,41.8639353
"STORY ","916 DUFF AVE , AMES , IA","IA","2","5","2004",-93.610138,42.030687
"STORY ","2101 OAKWOOD RD 316 , AMES , IA","IA","7","15","2004",-93.6427899,41.997912
"STORY ","2279 190TH E ST , AMES , IA","IA","10","19","2004",-93.579966,42.078788
"STORY ","319 2ND S ST 3 , AMES , IA","IA","12","30","2004",-93.614627,42.021954
"STORY ","59 MAXWELL ST , MAXWELL , IA","IA","2","4","2005",-93.398041,41.886439
"STORY ","31100 653RD , MAXWELL , IA","IA","9","13","2006",-93.4008895,41.9051003
"TAMA ","8808 EAST 5TH STREET , TRAER , IA","IA","1","8","2004",-92.4654678,42.189887
"TAYLOR ","602 RANDOLPH STREET , BEDFORD , IA","IA","6","5","2008",-94.7305083,40.6671674
"UNION ","125 KANSAS E ST 2 , AFTON , IA","IA","2","20","2004",-94.1972927,41.0284159
"UNION ","106 STONE N ST , CRESTON , IA","IA","2","8","2004",-94.3773125,41.0573331
"UNION ","1720 MONROE AVE , CRESTON , IA","IA","5","13","2004",-94.4616658,41.0460577
"UNION ","205 OSAGE ST , CRESTON , IA","IA","10","16","2004",-94.3371649,41.0575974
"UNION ","502 WALNUT N ST , CRESTON , IA","IA","3","7","2005",-94.3602476,41.0526151
"UNION ","413  NEW YORK AVENUE  , CRESTON , IA","IA","4","28","2009",-94.3733879,41.0496959
"UNION ","219 NORTH MAPLE STREET  , CRESTON , IA","IA","4","3","2010",-94.3626839,41.0587535
"UNION ","212 NORTH MAPLE STREET  , CRESTON , IA","IA","4","21","2010",-94.3627225,41.058685
"UNION ","310 2ND E ST , LORIMOR , IA","IA","8","31","2004",-94.0527108,41.1250042
"VAN BUREN ","25455 TEAL AVE , BONAPARTE , IA","IA","7","20","2004",-91.8135189,40.6752322
"VAN BUREN ","22374 COLUMBIA ST , KEOSAUQUA , IA","IA","1","2","2004",-91.8529143,40.7208168
"VAN BUREN ","24474  180 STREET  , KEOSAUQUA , IA","IA","8","8","2012",-91.901148,40.7842812
"WAPELLO ","9155` 215TH AVE , BLAKESBURG , IA","IA","4","27","2005",-92.5722818,41.0190254
"WAPELLO ","600 HIGH STREET , ELDON , IA","IA","1","28","2008",-92.2213799,40.923218
"WAPELLO ","6962 CEMETERY RD , OTTUMWA , IA","IA","1","8","2004",-92.3094943,40.9860944
"WAPELLO ","315 LINCOLN AVE , OTTUMWA , IA","IA","2","26","2004",-92.404205,41.0234785
"WAPELLO ","16271 ROCK BLUFF RD , OTTUMWA , IA","IA","3","15","2004",-92.4576728,41.0279676
"WAPELLO ","1440 ALBIA RD 17 , OTTUMWA , IA","IA","4","23","2004",-92.441332,41.00923
"WAPELLO ","1217 QUINCY S AVE , OTTUMWA , IA","IA","7","18","2004",-92.437935,40.9822045
"WAPELLO ","16440 HIGHWAY 34 , OTTUMWA , IA","IA","8","19","2004",-92.4749865,41.0117015
"WAPELLO ","1301 SECOND E ST , OTTUMWA , IA","IA","9","22","2004",-92.3979563,41.0121339
"WAPELLO ","313 CHERRY N ST , OTTUMWA , IA","IA","3","15","2005",-92.4016895,41.0142379
"WAPELLO ","331 5TH E ST , OTTUMWA , IA","IA","5","5","2005",-92.4059041,41.0182079
"WAPELLO ","5582 CLIFFORD ROAD , OTTUMWA , IA","IA","6","27","2006",-92.4083022,41.0160293
"WAPELLO ","422  ELLIS, OTTUMWA JUNCTION , IA","IA","6","7","2010",-92.4396305,41.0483471
"WARREN ","100 ASH STREET 821 , CARLISLE , IA","IA","12","13","2004",-93.486228,41.493269
"WARREN ","10271 R57 HWY , INDIANOLA , IA","IA","1","22","2004",-93.644674,41.377204
"WARREN ","8218 PIERCE ST , INDIANOLA , IA","IA","3","10","2004",-93.65157,41.2698449
"WARREN ","1409 EAST IOWA STREET  , INDIANOLA , IA","IA","11","15","2012",-93.5402964,41.3686282
"WARREN ","16038 TYLER ST , LIBERTY CENTER , IA","IA","1","31","2004",-93.4993,41.204439
"WARREN ","701 MAPLE , NEW VIRGINIA , IA","IA","2","22","2006",-93.7359759,41.183336
"WASHINGTON ","3210 262ND ST , AINSWORTH , IA","IA","8","6","2005",-91.512219,41.2752415
"WASHINGTON ","1800  BLOCK WILLOW AVENUE  , AINSWORTH , IA","IA","5","1","2009",-91.5220901,41.395039
"WASHINGTON ","2705 SOUTHWEST 520TH STREET , KALONA , IA","IA","1","17","2007",-91.6653164,41.5545094
"WASHINGTON ","3175 HIGHWAY 22 4 , RIVERSIDE , IA","IA","2","11","2005",-91.5266417,41.4962823
"WASHINGTON ","531 D S AVE , WASHINGTON , IA","IA","10","25","2004",-91.6968456,41.2945312
"WASHINGTON ","733 SECOND STREET , WASHINGTON , IA","IA","10","24","2007",-91.6904067,41.3053339
"WASHINGTON ","1002 SECOND ST , WELLMAN , IA","IA","5","28","2004",-91.8402732,41.4638724
"WASHINGTON ","111 10TH AVENUE , WELLMAN , IA","IA","6","6","2007",-91.8402418,41.4633403
"WASHINGTON ","1085  170TH STREET  , WELLMAN , IA","IA","4","9","2009",-91.9076949,41.4104148
"WAYNE ","2832 25TH ST , LINEVILLE , IA","IA","8","25","2004",-93.5180646,40.6333807
"WEBSTER ","23592 NELSON AVE , COALVILLE , IA","IA","4","14","2004",-94.125343,42.447064
"WEBSTER ","319 9TH N ST , FORT DODGE , IA","IA","2","15","2004",-94.186966,42.5087485
"WEBSTER ","116 4TH NW ST , FORT DODGE , IA","IA","3","26","2004",-94.206294,42.5137
"WEBSTER ","437 2ND NW ST , FORT DODGE , IA","IA","8","13","2004",-94.20239,42.517867
"WEBSTER ","605 7TH N AVE , FORT DODGE , IA","IA","3","6","2005",-94.191215,42.511486
"WEBSTER ","309 8TH N ST , FORT DODGE , IA","IA","4","15","2005",-94.1879019,42.508065
"WEBSTER ","2322 QUAIL AVE , FORT DODGE , IA","IA","4","29","2005",-94.1218101,42.4543581
"WEBSTER ","308 NORTH 9TH STREET , FORT DODGE , IA","IA","4","6","2006",-94.187218,42.5081149
"WEBSTER ","2658 NORTH 4TH AVENUE , FORT DODGE , IA","IA","2","28","2008",-94.161427,42.510502
"WEBSTER ","330 G STREET , FORT DODGE , IA","IA","6","10","2008",-94.1978243,42.4971696
"WEBSTER ","839  20TH, FORT DODGE , IA","IA","5","4","2010",-94.170265,42.51497
"WEBSTER ","126  8TH, FORT DODGE , IA","IA","5","14","2010",-94.1871544,42.5038124
"WEBSTER ","1809  7TH, FORT DODGE , IA","IA","6","15","2010",-94.1936453,42.5251729
"WEBSTER ","1427  3RD, FORT DODGE , IA","IA","7","17","2011",-94.2217541,42.5153848
"WEBSTER ","23769  236 AVENUE  , FORT DODGE , IA","IA","8","9","2011",-94.1298429,42.44477
"WEBSTER ","304 NORTH ST , OTHO , IA","IA","1","26","2004",-94.1499411,42.4247272
"WINNEBAGO ","47246 200TH ST , LAKE MILLS , IA","IA","4","4","2005",-93.5768728,43.4481031
"WINNEBAGO ","307 2ND W AVE , RAKE , IA","IA","10","30","2004",-93.9161009,43.4859379
"WINNESHIEK ","202 BROADWAY E ST , DECORAH , IA","IA","8","5","2004",-91.7844575,43.3025327
"WINNESHIEK ","804  SUMNER, DECORAH , IA","IA","",NA,NA,-91.775396,43.305513
"WOODBURY ","1007 FIR S ST , CORRECTIONVILLE , IA","IA","4","1","2005",-95.7826943,42.4812558
"WOODBURY ","103 2ND ST , DANBURY , IA","IA","2","2","2005",-95.7284744,42.2342427
"WOODBURY ","26113 110 ST , HORNICK , IA","IA","3","2","2005",-96.0290336,42.1976652
"WOODBURY ","2808 MYRTLE ST , SIOUX CITY , IA","IA","1","27","2004",-96.4226693,42.5189484
"WOODBURY ","2219 1ST W , SIOUX CITY , IA","IA","3","1","2004",-96.4377488,42.4968335
"WOODBURY ","1512 ISABELLA ST , SIOUX CITY , IA","IA","5","22","2004",-96.423976,42.5062758
"WOODBURY ","1200 HELEN S ST , SIOUX CITY , IA","IA","8","5","2004",-96.3700397,42.4792644
"WOODBURY ","1311 6TH W ST , SIOUX CITY , IA","IA","8","24","2004",-96.4248071,42.5032351
"WOODBURY ","810 9TH ST 7 , SIOUX CITY , IA","IA","10","5","2004",-96.4007237,42.499644
"WOODBURY ","1703 INGLESIDE AVE , SIOUX CITY , IA","IA","11","13","2004",-96.3986377,42.5083502
"WOODBURY ","3800 9TH E ST , SIOUX CITY , IA","IA","11","29","2004",-96.3664703,42.4990436
"WOODBURY ","1115 LOGAN STREET , SIOUX CITY , IA","IA","4","30","2008",-96.3665195,42.5019801
"WOODBURY ","1473 GLENDALE BOULEVARD , SIOUX CITY , IA","IA","10","26","2008",-96.3696043,42.5057654
"WORTH ","206 6TH N ST , NORTHWOOD , IA","IA","5","20","2004",-93.2234717,43.4463719
"WORTH ","208 3RD N ST , NORTHWOOD , IA","IA","10","10","2004",-93.2271807,43.4464116
"WORTH ","99 13 N ST , NORTHWOOD , IA","IA","10","12","2004",-93.2146519,43.445129
"WRIGHT ","2288  QUINCY AVENUE  , CLARION , IA","IA","7","13","2010",-93.6567168,42.7185292
"WRIGHT ","721 3RD NW ST , EAGLE GROVE , IA","IA","3","7","2004",-93.9107689,42.6672046
"WRIGHT ","609 LINCOLN N AVE , EAGLE GROVE , IA","IA","3","15","2004",-93.908923,42.6697261
"WRIGHT ","207 3RD NE ST , EAGLE GROVE , IA","IA","1","31","2005",-93.9002481,42.6671816
