"COUNTY","FullAddress","STATE","Month","Date","Year","lon","lat"
"ADAMS ","505  DEBRAH LANE 118 , BERNE , IN","IN",1,8,2013,-84.957183,40.653964
"ADAMS ","164  INTERLAKEN DRIVE  , BERNE , IN","IN",2,14,2013,-84.93948,40.656918
"ADAMS ","505 EAST WATER STREET  , BERNE , IN","IN",5,6,2013,-84.945056,40.658968
"ADAMS ","228 PIEDMONT LANE , DECATUR , IN","IN",6,23,2007,-84.905072,40.830619
"ADAMS ","916  N 11TH STREET  , DECATUR , IN","IN",5,27,2013,-84.935486,40.838461
"ADAMS ","127  BELLMONT BOULEVARD  , DECATUR , IN","IN",7,26,2013,-84.904597,40.832093
"ADAMS ","110 EAST RINGOLD  10 , GENEVA , IN","IN",5,4,2013,-84.96068,40.585509
"ALLEN ","3730 WASHINGTON E BLVD , FORT WAYNE , IN","IN",6,2,2004,-85.091851,41.073539
"ALLEN ","2623 GATE N DR , FORT WAYNE , IN","IN",3,14,2005,-85.030692,41.116869
"ALLEN ","5330 GOSHEN RD LOT 111 , FORT WAYNE , IN","IN",10,5,2005,-85.211071,41.143216
"ALLEN ","5610 NEW HAVEN AVENUE , FORT WAYNE , IN","IN",12,28,2005,-85.06658,41.069149
"ALLEN ","7819 PRESTON POINTE DRIVE , FORT WAYNE , IN","IN",2,16,2008,-85.244626,41.070136
"ALLEN ","120 WEST PAULDING ROAD , FORT WAYNE , IN","IN",4,4,2008,-85.136802,41.031663
"ALLEN ","3414 NORTH CLINTON STREET , FORT WAYNE , IN","IN",7,17,2008,-85.137457,41.10819
"ALLEN ","5421  FAIRFIELD AVENUE  , FORT WAYNE , IN","IN",11,30,2012,-85.143973,41.034285
"ALLEN ","912 EAST JEFFERSON BOULEVARD 3 , FORT WAYNE , IN","IN",2,7,2013,-85.125948,41.077755
"ALLEN ","1436  OAKLAND STREET  , FORT WAYNE , IN","IN",2,23,2013,-85.154503,41.087129
"ALLEN ","4600  WOODWAY DRIVE  , FORT WAYNE , IN","IN",3,1,2013,-85.074379,41.121907
"ALLEN ","1615  HIGH STREET  , FORT WAYNE , IN","IN",3,19,2013,-85.162051,41.084894
"ALLEN ","14406  YELLOW RIVER ROAD  , FORT WAYNE , IN","IN",3,25,2013,-85.327902,41.118245
"ALLEN ","1900  HIGH STREET  , FORT WAYNE , IN","IN",3,28,2013,-85.167602,41.084911
"ALLEN ","9912  TIFFANY LANE  , FORT WAYNE , IN","IN",4,12,2013,-85.271829,41.050784
"ALLEN ","8809  WAVE CIRLCE  C , FORT WAYNE , IN","IN",4,16,2013,-85.109766,41.162105
"ALLEN ","415  E CONCORD LANE  , FORT WAYNE , IN","IN",5,20,2013,-85.133116,41.025573
"ALLEN ","5330  GOSHEN ROAD 207 , FORT WAYNE , IN","IN",5,23,2013,-85.211043,41.143184
"ALLEN ","1212  PUTNAM STREET 2B , FORT WAYNE , IN","IN",5,24,2013,-85.157482,41.091558
"ALLEN ","4410  TURF LANE  , FORT WAYNE , IN","IN",6,21,2013,-85.269532,41.043731
"ALLEN ","1731 EAST MAIN STREET  , FORT WAYNE , IN","IN",7,14,2013,-85.133376,41.081297
"ALLEN ","927  LINCOLN AVENUE B , FORT WAYNE , IN","IN",7,24,2013,-85.15003,41.060456
"ALLEN ","1220  ONEIDA STREET 3 , FORT WAYNE , IN","IN",8,8,2013,-85.126551,41.087217
"ALLEN ","6727  UNION CHAPEL ROAD  , FORT WAYNE , IN","IN",8,21,2013,-85.060282,41.200618
"ALLEN ","1036  1/2 ST MARYS AVENUE , FORT WAYNE , IN","IN",7,10,2014,-85.155677,41.079971
"ALLEN ","18514 BREMER RD , NEW HAVEN , IN","IN",7,1,2004,-84.903297,41.102027
"ALLEN ","4221 GUSTIN RD , WOODBURN , IN","IN",5,26,2005,-84.828847,41.12358
"BARTHOLOMEW ","1301 GRAND AVE , COLUMBUS , IN","IN",1,6,2004,-85.911332,39.211425
"BARTHOLOMEW ","632 14TH ST , COLUMBUS , IN","IN",2,6,2004,-85.918253,39.212036
"BARTHOLOMEW ","1607 25TH ST , COLUMBUS , IN","IN",2,7,2004,-85.907281,39.22291
"BARTHOLOMEW ","111 RED ST , COLUMBUS , IN","IN",4,5,2004,-85.909971,39.205889
"BARTHOLOMEW ","713 1/2 LAFAYETTE AVE , COLUMBUS , IN","IN",5,10,2004,-85.918407,39.197992
"BARTHOLOMEW ","1080 CR 625 SOUTH W , COLUMBUS , IN","IN",5,11,2004,-85.935031,39.109159
"BARTHOLOMEW ","2652 SME ST , COLUMBUS , IN","IN",6,9,2004,-85.232198,41.369704
"BARTHOLOMEW ","1428 CHESTNUT ST , COLUMBUS , IN","IN",6,21,2004,-85.915106,39.212815
"BARTHOLOMEW ","2325 TELLMAN RD , COLUMBUS , IN","IN",6,29,2004,-85.948999,39.210134
"BARTHOLOMEW ","5026 ATKINS N , COLUMBUS , IN","IN",7,6,2004,-85.946228,39.252184
"BARTHOLOMEW ","110 CARHILL RD 118 , COLUMBUS , IN","IN",7,21,2004,-85.948268,39.197862
"BARTHOLOMEW ","1413 FRANKLIN ST , COLUMBUS , IN","IN",8,5,2004,-85.920163,39.21233
"BARTHOLOMEW ","3493 CR 100 N W , COLUMBUS , IN","IN",9,22,2004,-85.949736,39.220776
"BARTHOLOMEW ","6770 CR 650 W S , COLUMBUS , IN","IN",11,9,2004,-86.03343,39.136108
"BARTHOLOMEW ","1721 ELM ST , COLUMBUS , IN","IN",1,28,2005,-85.907086,39.216003
"BARTHOLOMEW ","823 4TH ST 3 , COLUMBUS , IN","IN",2,15,2005,-85.915481,39.20255
"BARTHOLOMEW ","13500 NORTH US HWY 31 LOT 24 , COLUMBUS , IN","IN",3,9,2005,-85.960723,39.300973
"BARTHOLOMEW ","608 JEWEL ST , COLUMBUS , IN","IN",3,10,2005,-85.848065,39.197076
"BARTHOLOMEW ","1506 CR 850 S E , COLUMBUS , IN","IN",5,10,2005,-85.907097,39.07672
"BARTHOLOMEW ","1783 BRIDLE WAY , COLUMBUS , IN","IN",7,15,2005,-85.767359,39.305934
"BARTHOLOMEW ","8205 BUCKINGHAM DR , COLUMBUS , IN","IN",7,19,2005,-85.953304,39.281417
"BARTHOLOMEW ","13210 CR 750 W S , COLUMBUS , IN","IN",9,9,2005,-86.051068,39.082338
"BARTHOLOMEW ","11985 BAKER HOLLOW ROAD , COLUMBUS , IN","IN",9,28,2005,-86.051983,39.210856
"BARTHOLOMEW ","1925 PINEWOOD DR , COLUMBUS , IN","IN",10,25,2005,-85.903616,39.243145
"BARTHOLOMEW ","2906 RANDAL COURT , COLUMBUS , IN","IN",11,11,2005,-85.815566,39.226802
"BARTHOLOMEW ","817 CENTRAL PL , COLUMBUS , IN","IN",1,8,2006,-85.904464,39.207475
"BARTHOLOMEW ","626 HUTCHINS AVENUE , COLUMBUS , IN","IN",1,30,2006,-85.906669,39.205408
"BARTHOLOMEW ","7346 SOUTH CHRISTENBURG ROAD , COLUMBUS , IN","IN",6,16,2006,-85.989457,39.189194
"BARTHOLOMEW ","2111 TYLER ROAD , COLUMBUS , IN","IN",8,23,2006,-85.953645,39.287588
"BARTHOLOMEW ","2212 PENNSYLVANIA STREET , COLUMBUS , IN","IN",1,15,2007,-85.902934,39.220366
"BARTHOLOMEW ","15624 SOUTH 58 , COLUMBUS , IN","IN",2,3,2007,-86.043041,39.062775
"BARTHOLOMEW ","2710 EAST SOUTH STREET , COLUMBUS , IN","IN",2,7,2007,-85.892078,39.113734
"BARTHOLOMEW ","9555 SOUTH C.R. 700 W , COLUMBUS , IN","IN",3,9,2007,-86.04227,39.112466
"BARTHOLOMEW ","451 JEWEL STREET , COLUMBUS , IN","IN",3,26,2007,-85.847932,39.198777
"BARTHOLOMEW ","1112 EIGHTH STREET , COLUMBUS , IN","IN",5,25,2007,-85.912062,39.206953
"BARTHOLOMEW ","1804 HOME STREET , COLUMBUS , IN","IN",6,2,2007,-85.9121,39.216797
"BARTHOLOMEW ","2687 SOUTH CR 525E , COLUMBUS , IN","IN",6,7,2007,-85.814373,39.174664
"BARTHOLOMEW ","1323 CALIFORNIA STREET , COLUMBUS , IN","IN",6,26,2007,-85.913805,39.211772
"BARTHOLOMEW ","1212 PEARL STREET D , COLUMBUS , IN","IN",7,13,2007,-85.917449,39.210686
"BARTHOLOMEW ","2311 WEST C.R. 625 S. , COLUMBUS , IN","IN",8,21,2007,-85.94842,39.108493
"BARTHOLOMEW ","10330 WEST GEORGETOWN ROAD , COLUMBUS , IN","IN",11,28,2007,-86.034966,39.219218
"BARTHOLOMEW ","2010 14TH STREET , COLUMBUS , IN","IN",11,29,2007,-85.902256,39.212522
"BARTHOLOMEW ","1230 SOUTH 850 WEST ROAD , COLUMBUS , IN","IN",12,3,2007,-86.071368,39.181198
"BARTHOLOMEW ","3817 CAMDEN DRIVE , COLUMBUS , IN","IN",3,4,2008,-85.890658,39.242643
"BARTHOLOMEW ","6935 TYLER TOO , COLUMBUS , IN","IN",3,20,2008,-85.952717,39.287288
"BARTHOLOMEW ","2664 EAST MAINCROSS STREET , COLUMBUS , IN","IN",5,7,2008,-85.893344,39.114798
"BARTHOLOMEW ","10503 SOUTH US 31 LOT 24 , COLUMBUS , IN","IN",7,10,2008,-85.960123,39.30004
"BARTHOLOMEW ","10503 SOUTH US 31 LOT 32 , COLUMBUS , IN","IN",7,10,2008,-85.960123,39.30004
"BARTHOLOMEW ","3109 EAST 20TH STREET , COLUMBUS , IN","IN",10,12,2008,-85.887524,39.218375
"BARTHOLOMEW ","4451 EAST C.R. 300 NORTH , COLUMBUS , IN","IN",10,22,2008,-85.871201,39.157625
"BARTHOLOMEW ","1449  CHESTNUT STREET  , COLUMBUS , IN","IN",2,3,2010,-85.914977,39.213261
"BARTHOLOMEW ","837  FOURTH STREET 4 , COLUMBUS , IN","IN",4,19,2010,-85.915338,39.202558
"BARTHOLOMEW ","3560 NORTH S. R. 9, COLUMBUS , IN","IN",5,23,2010,-85.462699,41.215324
"BARTHOLOMEW ","1192  ELLIOTT, COLUMBUS , IN","IN",10,17,2012,-85.927763,39.182658
"BARTHOLOMEW ","2331  ILLINOIS AVENUE  , COLUMBUS , IN","IN",10,26,2012,-85.896871,39.195909
"BARTHOLOMEW ","2001  MCKINLEY AVENUE  , COLUMBUS , IN","IN",12,18,2012,-85.902641,39.20075
"BARTHOLOMEW ","1930  12TH STREET  , COLUMBUS , IN","IN",12,29,2012,-85.903347,39.210541
"BARTHOLOMEW ","310  THIRD STREET  , COLUMBUS , IN","IN",8,28,2013,-85.921013,39.201405
"BARTHOLOMEW ","2341  APPLEGATE DRIVE  , COLUMBUS , IN","IN",8,28,2013,-85.874956,39.221881
"BARTHOLOMEW ",", COLUMBUS , IN","IN",12,10,2015,-85.891338,39.191447
"BARTHOLOMEW ","7955 WEST 600 S ROAD  , EDINBURGH , IN","IN",4,23,2010,-85.930359,39.436553
"BARTHOLOMEW ","911 NORTH MAIN STREET  , EDINBURGH , IN","IN",12,10,2012,-85.967909,39.357059
"BARTHOLOMEW ","722  WALNUT STREET  , EDINBURGH , IN","IN",1,11,2013,-85.850633,39.393236
"BARTHOLOMEW ","9506 PR 820 W N 6 , ELIZABETHTOWN , IN","IN",5,24,2004,-85.76802,38.443458
"BARTHOLOMEW ","10603 US 31 S 31 , ELIZABETHTOWN , IN","IN",5,27,2004,-85.836173,39.108851
"BARTHOLOMEW ","20522 COUNTY ROAD 300 SOUTH E , ELIZABETHTOWN , IN","IN",7,17,2004,-85.70121,39.160065
"BARTHOLOMEW ","20522 CR 300 S E , ELIZABETHTOWN , IN","IN",4,21,2005,-85.70121,39.160065
"BARTHOLOMEW ","20522 EAST CR 300 S , ELIZABETHTOWN , IN","IN",4,2,2006,-85.70121,39.160065
"BARTHOLOMEW ","306 LORNEY STREET , ELIZABETHTOWN , IN","IN",4,20,2006,-85.815453,39.134925
"BARTHOLOMEW ","20780 CR 850 N E , HOPE , IN","IN",4,7,2004,-85.694881,39.327658
"BARTHOLOMEW ","746 VINE DR , HOPE , IN","IN",9,21,2005,-85.772752,39.305195
"BARTHOLOMEW ","19501 EAST 500 N , HOPE , IN","IN",8,10,2006,-85.7101,39.276166
"BARTHOLOMEW ","155  MEADOW PLACE  , HOPE , IN","IN",12,20,2012,-85.768569,39.290282
"BARTHOLOMEW ","1373 CR 950 S. W , JONESVILLE , IN","IN",2,10,2004,-85.907884,39.061855
"BARTHOLOMEW ","309 MARKET ST , JONESVILLE , IN","IN",10,14,2004,-85.889882,39.06013
"BARTHOLOMEW ","2111 TYLER ROAD , TAYLORSVILLE , IN","IN",3,18,2006,-85.953645,39.287588
"BARTHOLOMEW ","9841 5TH STREET , TAYLORSVILLE , IN","IN",11,15,2006,-85.952228,39.29874
"BENTON ","307 OLD US 41 S 3 , BOSWELL , IN","IN",11,4,2004,-87.379053,40.549537
"BENTON ","7595 EAST 400 N , FOWLER , IN","IN",9,15,2007,-87.180625,40.664063
"BENTON ","2198 CR 1100 E S , OTTERBEIN , IN","IN",4,11,2004,-87.114696,40.574378
"BENTON ","403 EAST MCCONNEL STREET  , OXFORD , IN","IN",11,9,2012,-85.830743,40.811364
"BLACKFORD ","105 NORTH 400 EAST, HARTFORD , IN","IN",3,7,2013,-85.295344,40.451238
"BLACKFORD ","504 CHESTNUT E , HARTFORD CITY , IN","IN",10,1,2005,-85.36266,40.4494
"BLACKFORD ","212 EAST KICKAPOO STREET  , HARTFORD CITY , IN","IN",4,28,2013,-85.366154,40.4538
"BLACKFORD ","707 EAST COMMERCIAL STREET  , HARTFORD CITY , IN","IN",5,16,2013,-85.361646,40.448685
"BLACKFORD ","219 EAST 8TH, HARTFORD CITY , IN","IN",8,2,2013,-85.36625,40.436786
"BLACKFORD ","4084  N WILLMAN ROAD  , HARTFORD CITY , IN","IN",8,22,2013,-85.328876,40.390999
"BLACKFORD ","621 NORTH STANDART OIL BOULEVARD 33 , MONTPELIER , IN","IN",2,3,2013,-85.287912,40.552581
"BLACKFORD ","432 EAST HIGH STREET  , MONTPELIER , IN","IN",8,26,2013,-85.273016,40.554058
"BOONE ","5161 MID JAMESTOWN RD , JAMESTOWN , IN","IN",1,31,2004,-85.014572,41.74445
"BOONE ","303 DICK W ST , LEBANON , IN","IN",2,18,2004,-85.706977,40.047395
"BOONE ","610 EAST SOUTH STREET , LEBANON , IN","IN",12,20,2005,-86.462393,40.046485
"BOONE ","227 INDIANAPOLIS AVENUE , LEBANON , IN","IN",6,1,2007,-86.46329,40.045789
"BOONE ","619 EAST ASH STREET  , LEBANON , IN","IN",10,9,2012,-86.46271,40.039819
"BOONE ","118 SOUTH WEST STREET , THORNTOWN , IN","IN",9,4,2007,-86.609493,40.128788
"BROWN ","8669 RICHARTS RD , MORGANTOWN , IN","IN",5,7,2004,-86.205756,39.322387
"BROWN ","2301 DEPPERMAN RD , MORGANTOWN , IN","IN",1,5,2006,-86.210375,39.292325
"BROWN ","431  GATESVILLE ROAD  , MORGANTOWN , IN","IN",7,17,2013,-86.239728,39.263857
"BROWN ","1217 SR 135 S , NASHVILLE , IN","IN",1,21,2005,-86.192807,39.175741
"BROWN ","1787 LUCAS HOLLOW RD , NASHVILLE , IN","IN",2,22,2005,-86.125577,39.221529
"BROWN ","5228 GRAVEL CREEK RD , NASHVILLE , IN","IN",10,15,2005,-86.226731,39.115484
"BROWN ","4023  YELLOWWOOD ROAD  , NASHVILLE , IN","IN",4,10,2013,-86.319633,39.172951
"BROWN ","7808 BROCKS LANE , NINEVEH , IN","IN",9,26,2008,-86.147318,39.304893
"BROWN ","7654  FORD RIDGE ROAD  , NINEVEH , IN","IN",7,5,2012,-86.155804,39.297837
"CARROLL ","2314 WEST 1200 N , BURNETTSVILLE , IN","IN",3,27,2007,-86.568272,40.721737
"CARROLL ","6349 550 E N , CAMDEN , IN","IN",2,7,2004,-86.121701,40.462541
"CARROLL ","3387 BREWER N ST , DELPHI , IN","IN",2,26,2004,-86.686381,40.596028
"CARROLL ","3565 COUNTY ROAD 500 NORTH W , DELPHI , IN","IN",5,6,2004,-86.619835,40.510563
"CARROLL ","3270 CR 900 N E , DELPHI , IN","IN",5,2,2005,-86.586982,40.677943
"CARROLL ","10793 WEST CR 400 N , DELPHI , IN","IN",5,17,2006,-86.72894,40.605496
"CARROLL ","319 EAST FRANKLIN STREET , DELPHI , IN","IN",5,31,2007,-86.672207,40.58797
"CARROLL ","517 KENDRICK , FLORA , IN","IN",10,11,2007,-86.026799,40.769386
"CASS ","6041 MARKET S ST , GEORGETOWN , IN","IN",1,12,2004,-86.261704,40.761448
"CASS ","6754 GEORGETOWN W RD , LOGANSPORT , IN","IN",1,13,2004,-86.500735,40.741386
"CASS ","932 STANLEY STREET , LOGANSPORT , IN","IN",4,4,2004,-86.357868,40.774589
"CASS ","100 HAMMON ST , LOGANSPORT , IN","IN",7,3,2004,-86.383682,40.744879
"CASS ","500 MARKET W ST 3 , LOGANSPORT , IN","IN",7,3,2004,-86.31845,40.757244
"CASS ","908 6TH N ST , LOGANSPORT , IN","IN",7,7,2004,-86.36547,40.760446
"CASS ","200 1/2 MIAMI E ST , LOGANSPORT , IN","IN",7,31,2004,-86.369455,40.757734
"CASS ","211 OTTAWA W ST , LOGANSPORT , IN","IN",10,29,2004,-86.372685,40.757449
"CASS ","1709 CR 275 NORTH W , LOGANSPORT , IN","IN",5,10,2005,-86.418836,40.739989
"CASS ","515 BURLINGTON AVE , LOGANSPORT , IN","IN",6,28,2005,-86.369056,40.743849
"CASS ","380 EAST 500 S , LOGANSPORT , IN","IN",1,30,2006,-86.391476,40.692363
"CASS ","314 BARRON STREET , LOGANSPORT , IN","IN",2,24,2006,-86.375779,40.751196
"CASS ","5632 NORTH SR 25 , LOGANSPORT , IN","IN",7,27,2006,-86.325917,40.846672
"CASS ","942 GARFIELD AVENUE , LOGANSPORT , IN","IN",8,16,2006,-86.380553,40.737787
"CASS ","207 WEST LINDEN AVENUE , LOGANSPORT , IN","IN",9,26,2006,-86.371528,40.755793
"CASS ","2549 EAST 525 , LOGANSPORT , IN","IN",2,6,2007,-86.327618,40.841153
"CASS ","348 NORTH HILLCREST DRIVE , LOGANSPORT , IN","IN",10,26,2007,-86.372915,40.768293
"CASS ","611 15TH STREET , LOGANSPORT , IN","IN",11,30,2007,-86.349737,40.752866
"CASS ","1025 20TH STREET , LOGANSPORT , IN","IN",2,24,2008,-86.341099,40.749473
"CASS ","1730  WOODLAWN AVENUE  , LOGANSPORT , IN","IN",5,10,2010,-86.345288,40.747365
"CASS ","1933  ERIE AVENUE  , LOGANSPORT , IN","IN",1,29,2013,-86.341655,40.746739
"CASS ","1621 EAST BROADWAY 3, LOGANSPORT , IN","IN",2,3,2013,-86.349056,40.756831
"CASS ","515 EAST LINDEN, LOGANSPORT , IN","IN",4,6,2013,-86.364415,40.758652
"CASS ","2917 NORTH INDIAN CREEK ROAD  , LOGANSPORT , IN","IN",4,8,2013,-86.387331,40.808153
"CASS ","500  1/2 HELM STREET  , LOGANSPORT , IN","IN",4,25,2013,-86.375155,40.749488
"CASS ","830  18TH STREET  , LOGANSPORT , IN","IN",5,1,2013,-86.344669,40.751455
"CASS ","319  DAY, LOGANSPORT , IN","IN",5,2,2013,-86.370842,40.747403
"CASS ","700  E. MARKET, LOGANSPORT , IN","IN",5,2,2013,-86.361241,40.753592
"CASS ","106  E CLINTON STREET  , LOGANSPORT , IN","IN",5,17,2013,-86.373838,40.736085
"CASS ","1931  HIGH STREET  , LOGANSPORT , IN","IN",5,29,2013,-86.345217,40.759842
"CASS ","286  TERPSTRA, LOGANSPORT , IN","IN",7,16,2013,-86.369414,40.792482
"CASS ","517  19TH, LOGANSPORT , IN","IN",7,26,2013,-86.344283,40.755161
"CASS ","1119  BROADWAY ENTRADA 1 , LOGANSPORT , IN","IN",8,12,2013,-86.356225,40.755597
"CASS ","5458  COONHUNTERS ROAD  , LOGANSPORT , IN","IN",8,27,2013,-86.268671,40.756868
"CASS ","9956 EAST CHURCH STREET , NEW WAVERLY , IN","IN",3,5,2008,-86.396067,39.516188
"CASS ","29 MAIN ST , ONWARD , IN","IN",7,4,2005,-86.194824,40.695115
"CASS ","29 NORTH MAIN STREET , ONWARD , IN","IN",2,8,2006,-86.194824,40.695115
"CASS ","10582 RIVER E RD , PERU , IN","IN",4,4,2004,-86.165635,40.742047
"CASS ","318 CHICAGO S , ROYAL CENTER , IN","IN",5,16,2005,-86.502181,40.866536
"CLARK ","23205 NICHOLSON KNOB RD , BORDEN , IN","IN",2,15,2005,-85.985703,38.433591
"CLARK ","22916 NICHOLSON KNOB , BORDEN , IN","IN",5,5,2005,-85.985241,38.434868
"CLARK ","14914  BEYL ROAD  , BORDEN , IN","IN",2,20,2013,-85.799171,38.477818
"CLARK ","4706 BLUE RIDGE , CHARLESTOWN , IN","IN",9,23,2004,-85.509069,38.491109
"CLARK ","1015 HARRY HUGHES RD , CHARLESTOWN , IN","IN",1,21,2005,-85.682725,38.49848
"CLARK ","4507 TUNNEL MILL RD , CHARLESTOWN , IN","IN",5,5,2005,-85.604306,38.489385
"CLARK ","1470 BROADWAY 127 , CLARKSVILLE , IN","IN",11,1,2004,-85.755883,38.321043
"CLARK ","2321 BROOKWOOD DRIVE , CLARKSVILLE , IN","IN",3,28,2006,-85.778914,38.327993
"CLARK ","147 NORTH OAK STREET , CLARKSVILLE , IN","IN",12,29,2007,-85.759865,38.287447
"CLARK ","313  LAKEVIEW DRIVE  , CLARKSVILLE , IN","IN",7,23,2012,-85.750396,38.351212
"CLARK ","413 EAST CARTER AVENUE  , CLARKSVILLE , IN","IN",3,10,2013,-85.762333,38.300112
"CLARK ","200  HOMESTEAD DRIVE  , CLARKSVILLE , IN","IN",8,14,2013,-85.754558,38.286398
"CLARK ","1310 MT. ZION RD 7 , HENRYVILLE , IN","IN",2,22,2004,-85.775024,38.537206
"CLARK ","305 FRONT N ST , HENRYVILLE , IN","IN",3,8,2005,-85.767398,38.54577
"CLARK ","339 VEST RD , HENRYVILLE , IN","IN",10,26,2005,-85.770901,38.535163
"CLARK ","1821  OLD STATE ROAD  , HENRYVILLE , IN","IN",2,19,2013,-85.757101,38.571364
"CLARK ","1319 UTICA SELLERSBURG , JEFFERSONVILLE , IN","IN",8,13,2005,-85.66557,38.333096
"CLARK ","3909 UTICA SELLERSBURG ROAD , JEFFERSONVILLE , IN","IN",9,22,2008,-85.703899,38.352877
"CLARK ","4805  NEW CHAPEL ROAD  , JEFFERSONVILLE , IN","IN",4,5,2009,-85.702295,38.347577
"CLARK ","3105  CLEARSTREAM WAY  , JEFFERSONVILLE , IN","IN",5,24,2013,-85.741295,38.312907
"CLARK ","824  SANDRA DRIVE Q , JEFFERSONVILLE , IN","IN",7,2,2013,-85.719075,38.29416
"CLARK ","208 EBENEZER CHURCH ROAD , MEMPHIS , IN","IN",4,25,2008,-85.763953,38.481941
"CLARK ","18411 MICHIGAN RD , NABB , IN","IN",11,4,2004,-85.612712,38.556832
"CLARK ","638 GEORGIAN AVE , SELLERSBURG , IN","IN",12,1,2004,-85.766337,38.401085
"CLARK ","2122  JEFFERSON BOULEVARD  , SELLERSBURG , IN","IN",1,26,2013,-85.762526,38.36421
"CLAY ","601 CENTRAL W , BRAZIL , IN","IN",7,13,2004,-87.134616,39.525639
"CLAY ","7940 CR 650 W N , BRAZIL , IN","IN",4,19,2005,-87.071154,39.480429
"CLAY ","6578 WEST U.S. HWY 40 , BRAZIL , IN","IN",2,16,2008,-87.232441,39.499599
"CLAY ","  LOT 48 LAKE BRAZILIAN EST, BRAZIL , IN","IN",11,9,2012,-87.194552,39.485825
"CLAY ","1002 NORTH MCGUIRE STREET  , BRAZIL , IN","IN",12,19,2012,-87.139081,39.529769
"CLAY ","10814 WEST ST , CARBON , IN","IN",7,9,2004,-87.522515,39.221815
"CLAY ","911 MAIN S ST , CLAY CITY , IN","IN",1,6,2004,-87.112718,39.275229
"CLAY ","8703 SOUTH CR 50 W , CLAY CITY , IN","IN",1,29,2008,-87.118822,39.259994
"CLAY ","13273 RAILROAD STREET , COALMONT , IN","IN",1,9,2007,-87.118895,39.522346
"CLAY ","6422 EAST COULSON, COALMONT , IN","IN",7,15,2013,-87.23095,39.19414
"CLAY ","3045 EAST COUNTY ROAD 300 S, CORY , IN","IN",3,23,2013,-87.165717,39.344413
"CLAY ","4248 CR 1275 S. W , JASONVILLE , IN","IN",1,24,2004,-87.186934,39.203007
"CLINTON ","6150 EAST CR 400 N , BOYLESTON , IN","IN",3,21,2006,-86.390996,40.344829
"CLINTON ","7227 NORTH CR 830 ROAD , FOREST , IN","IN",1,5,2007,-86.351774,40.391771
"CLINTON ","256 EAST N ST , FRANKFORT , IN","IN",3,5,2005,-85.846504,40.26367
"CLINTON ","1710 CR 880 W S , FRANKFORT , IN","IN",7,11,2005,-86.67088,40.264319
"CLINTON ","1463 EAST CLINTON STREET , FRANKFORT , IN","IN",2,5,2006,-86.495941,40.280669
"CLINTON ","1051 WEST JEFFERSON STREET , FRANKFORT , IN","IN",4,10,2006,-86.522639,40.284315
"CLINTON ","809 SOUTH 1ST , FRANKFORT , IN","IN",4,12,2006,-86.514274,40.274096
"CLINTON ","563Q WEST PARIS STREET , FRANKFORT , IN","IN",5,19,2006,-86.517993,40.287065
"CLINTON ","713 STONERIDGE DRIVE , FRANKFORT , IN","IN",5,8,2007,-86.486367,40.2865
"CLINTON ","801 WEST BOONE STREET , FRANKFORT , IN","IN",9,8,2007,-86.520456,40.276921
"CLINTON ","5TH EAST NORTH STREET  , FRANKFORT , IN","IN",7,4,2012,-86.519302,40.276021
"CLINTON ","560  1/2 WASHINGTON AVENUE  , FRANKFORT , IN","IN",12,8,2012,-86.508324,40.281644
"CLINTON ","307 EAST WALNUT STREET  , FRANKFORT , IN","IN",3,14,2013,-86.49664,40.279789
"CLINTON ","705 NORTH COLUMBIA STREET  , FRANKFORT , IN","IN",6,26,2013,-86.513244,40.286289
"CLINTON ","655  GLENDALE DRIVE  , FRANKFORT , IN","IN",8,13,2013,-86.505628,40.275129
"CLINTON ","301 NORTH CLAY STREET  , FRANKFORT , IN","IN",8,25,2013,-86.50714,40.28273
"CLINTON ","300 NORTH 2ND STREET  , LAFAYETTE , IN","IN",3,21,2013,-86.895485,40.42001
"CRAWFORD ","9098 WEST SR 64 , BIRDSEYE , IN","IN",5,15,2008,-86.645747,38.333229
"CRAWFORD ","9098 WEST SR 64 , BIRDSEYE , IN","IN",10,24,2008,-86.645747,38.333229
"CRAWFORD ","1788 COUNTY RD 1050 SOUTH W , ENGLISH , IN","IN",3,3,2004,-86.489916,38.402442
"CRAWFORD ","162 NORTH MAIN STREET  , MARENGO , IN","IN",5,11,2010,-86.343451,38.36931
"CRAWFORD ","1336 NORTH DEPOT HILL ROAD  , MARENGO , IN","IN",4,18,2013,-86.337852,38.353018
"CRAWFORD ","14740 GREENE ST , MILLTOWN , IN","IN",8,15,2004,-87.265737,41.486866
"CRAWFORD ","8725 EAST SPEED ROAD , MILLTOWN , IN","IN",7,28,2006,-86.294926,38.34327
"CRAWFORD ","3117 ALLSTOT W RD , TASWELL , IN","IN",1,9,2004,-86.556358,38.359476
"CRAWFORD ","3414 STATE ROAD 64 W , TASWELL , IN","IN",7,24,2004,-86.54084,38.332627
"CRAWFORD ","1245 SOUTH MONTGOMERY ROAD , TASWELL , IN","IN",3,15,2007,-86.578802,38.323259
"CRAWFORD ","3696 WEST SR 64 , TASWELL , IN","IN",6,11,2008,-86.545481,38.334866
"DAVIESS ","1015 EAST STREET , ELNORA , IN","IN",7,14,2008,-87.078233,38.877316
"DAVIESS ","11679  E N FIRST STREET  , LOOGOOTEE , IN","IN",4,25,2013,-86.911605,38.672872
"DAVIESS ","CR 800 E 105 , MONTGOMERY , IN","IN",11,30,2005,-85.654381,39.800625
"DAVIESS ","55 EAST MAPLE STREET  , MONTGOMERY , IN","IN",4,5,2013,-85.940731,39.783345
"DAVIESS ","408 MAPLE ST , ODON , IN","IN",3,26,2004,-86.994326,38.845451
"DAVIESS ","14071 NORTH CR 800 E , ODON , IN","IN",2,9,2006,-86.911626,38.904078
"DAVIESS ","11711 EAST 975 N , ODON , IN","IN",5,21,2008,-86.985748,38.797849
"DAVIESS ","10788 NORTH SR 57 , PLAINVILLE , IN","IN",8,15,2006,-86.403024,39.679756
"DAVIESS ","114 MARLATT , PLAINVILLE , IN","IN",3,22,2007,-87.154011,38.803599
"DAVIESS ","201 13TH SE ST , WASHINGTON , IN","IN",1,1,2004,-87.16142,38.654958
"DAVIESS ","114 SYCAMORE ST , WASHINGTON , IN","IN",12,19,2004,-87.176745,38.653661
"DAVIESS ","105 SUNDALE TRAILER COURT , WASHINGTON , IN","IN",1,19,2005,-87.155636,38.652616
"DAVIESS ","301 MERIDIAN N ST , WASHINGTON , IN","IN",3,16,2005,-87.175542,38.659545
"DAVIESS ","625 WALNUT W , WASHINGTON , IN","IN",3,17,2005,-87.168845,38.658601
"DAVIESS ","1573 CR 150 N W , WASHINGTON , IN","IN",10,4,2005,-87.195842,38.677947
"DAVIESS ","803 VANTREES STREET , WASHINGTON , IN","IN",10,29,2005,-87.185336,38.6577
"DAVIESS ","214 OAK GROVE ROAD , WASHINGTON , IN","IN",11,3,2005,-87.201088,38.659529
"DAVIESS ","1806 VINCENNES AVENUE , WASHINGTON , IN","IN",3,14,2006,-87.198051,38.660315
"DAVIESS ","701 SOUTH MERIDIAN STREET , WASHINGTON , IN","IN",3,17,2006,-87.175587,38.650456
"DAVIESS ","805 JEFFERSON #2 STREET , WASHINGTON , IN","IN",9,21,2007,-85.65916,38.18719
"DAVIESS ","504 POPLAR STREET , WASHINGTON , IN","IN",7,31,2008,-87.206897,38.661372
"DAVIESS ","727 SOUTHWEST 6TH STREET , WASHINGTON , IN","IN",9,19,2008,-87.181902,38.648857
"DAVIESS ","900 NORTH MERIDIAN STREET APT 48 , WASHINGTON , IN","IN",10,18,2012,-87.175629,38.664691
"DAVIESS ","17  CORONADO DRIVE  , WASHINGTON , IN","IN",2,5,2013,-87.166136,38.666003
"DAVIESS ","902  E WALNUT STREET  , WASHINGTON , IN","IN",5,17,2013,-87.165075,38.658668
"DEARBORN ","10557 US 50 ROAD , DILLSBORO , IN","IN",10,21,2006,-85.025114,39.020364
"DEARBORN ","9531 DEARBORN N RD , GUILFORD , IN","IN",4,7,2005,-84.994218,39.233991
"DEARBORN ","334 OBERTING RD , LAWRENCEBURG , IN","IN",2,11,2004,-84.827641,39.144704
"DEARBORN ","3179 WOODS RD , LAWRENCEBURG , IN","IN",6,4,2004,-84.878926,39.201422
"DEARBORN ","21976 SALT FORK RD , LAWRENCEBURG , IN","IN",9,5,2005,-84.876159,39.189527
"DEARBORN ","2586 MEYER ROAD , LAWRENCEBURG , IN","IN",1,26,2006,-84.879508,39.105019
"DEARBORN ","1537  FAIRWAY DRIVE 101 , LAWRENCEBURG , IN","IN",12,17,2012,-84.848798,39.155761
"DEARBORN ","1156 SPARKS RD , WEST HARRISON , IN","IN",2,18,2005,-84.83681,39.377848
"DEARBORN ","27541 LONGNECKER ROAD , WEST HARRISON , IN","IN",7,10,2006,-84.871682,39.273962
"DECATUR ","317 1/2 DAVIES ST , GREENSBURG , IN","IN",1,29,2004,-85.487262,39.329444
"DECATUR ","7712 480 SOUTH W , GREENSBURG , IN","IN",2,9,2004,-85.499268,39.349148
"DECATUR ","532 WASHINGTON E ST , GREENSBURG , IN","IN",4,26,2004,-85.477268,39.337823
"DECATUR ","409 IRELAND N ST , GREENSBURG , IN","IN",5,14,2004,-85.48901,39.333006
"DECATUR ","9346 COUNTY ROAD 50 NORTH W , GREENSBURG , IN","IN",5,25,2004,-85.655839,39.341946
"DECATUR ","240 WARREN N ST , GREENSBURG , IN","IN",9,8,2004,-85.473324,39.338226
"DECATUR ","2329 BROADWAY N ST 118 , GREENSBURG , IN","IN",1,17,2005,-85.484568,39.359533
"DECATUR ","3399 CR 500 N E , GREENSBURG , IN","IN",5,14,2005,-85.535319,39.467434
"DECATUR ","901 SHERIDAN W ST , GREENSBURG , IN","IN",5,20,2005,-85.496386,39.342928
"DECATUR ","2584 SOUTH 700 W , GREENSBURG , IN","IN",7,7,2006,-85.612418,39.297099
"DECATUR ","973 SOUTH LAKE MCCOY DRIVE , GREENSBURG , IN","IN",6,14,2007,-85.399459,39.324425
"DECATUR ","20 WEST CR 650 S ROAD  , GREENSBURG , IN","IN",4,8,2009,-85.479643,39.432563
"DECATUR ","1420 SOUTH C.R. 1050 WEST ROAD  , GREENSBURG , IN","IN",1,4,2010,-85.677706,39.305388
"DECATUR ","1435  DANIEL DRIVE  , GREENSBURG , IN","IN",11,21,2012,-85.501964,39.354997
"DECATUR ","638  PARK DRIVE LOT 11 , GREENSBURG , IN","IN",12,18,2012,-85.492386,39.32922
"DECATUR ","407 EAST NORTH STREET  , GREENSBURG , IN","IN",5,7,2013,-85.478993,39.338762
"DECATUR ","405 MAPLE CT , SAINT PAUL , IN","IN",8,27,2004,-85.633023,39.431892
"DECATUR ","110 NORTH WEBSTER STREET , SAINT PAUL , IN","IN",5,1,2006,-85.628931,39.42802
"DECATUR ","10518 1200 S W , WESTPORT , IN","IN",10,21,2004,-85.499268,39.349148
"DECATUR ","207 WILLIAMSON N RD B1 , WESTPORT , IN","IN",3,3,2005,-85.576789,39.176794
"DECATUR ","204 EAST MULBERRY STREET , WESTPORT , IN","IN",11,19,2007,-85.574453,39.176845
"DECATUR ","8000 SOUTH BASE ROAD  , WESTPORT , IN","IN",1,14,2010,-85.478955,39.219237
"DECATUR ","6226 WEST CR 1100 SOUTH ROAD  , WESTPORT , IN","IN",1,18,2010,-85.598671,39.175522
"DECATUR ","13500 SOUTH STATE ROUTE 3, WESTPORT , IN","IN",2,3,2010,-85.630836,39.138831
"DECATUR ","8620 EAST 1400 SOUTH, WESTPORT , IN","IN",10,17,2012,-85.674091,39.130992
"DEKALB ","1893 CR 8 , ASHLEY , IN","IN",9,3,2008,-85.105106,41.497156
"DEKALB ","202 EAST STATE STREET  , ASHLEY , IN","IN",5,21,2010,-85.06382,41.527104
"DEKALB ","3587 SR 327 , AUBURN , IN","IN",1,25,2004,-85.140852,41.399031
"DEKALB ","607 PETERSON , AUBURN , IN","IN",4,5,2004,-85.07695,41.370682
"DEKALB ","513 9TH E ST , AUBURN , IN","IN",10,26,2004,-85.049817,41.365858
"DEKALB ","5019 CR 50 RD , AUBURN , IN","IN",1,3,2006,-84.954742,41.347706
"DEKALB ","210 CEDAR S ST , AUBURN , IN","IN",1,16,2006,-85.036431,41.359816
"DEKALB ","211 EAST 17TH STREET , AUBURN , IN","IN",7,28,2006,-85.054301,41.361437
"DEKALB ","202 WEST 8TH STREET , AUBURN , IN","IN",7,30,2006,-85.057124,41.366431
"DEKALB ","317 WEST FIRST STREET , AUBURN , IN","IN",6,1,2008,-85.058928,41.37006
"DEKALB ","511 NORTH CEDAR STREET 2 , AUBURN , IN","IN",6,10,2008,-85.054749,41.369175
"DEKALB ","112 WEST THIRD STREET B , AUBURN , IN","IN",10,6,2008,-85.056055,41.369172
"DEKALB ","108 EAST 11TH STREET  , AUBURN , IN","IN",6,11,2010,-85.055701,41.364821
"DEKALB ","514 NORTH INDIANA STREET  , AUBURN , IN","IN",10,27,2012,-85.061949,41.37009
"DEKALB ","1623  PENNSYLVANIA AVENUE  , AUBURN , IN","IN",11,14,2012,-85.069025,41.355418
"DEKALB ","344  9TH STREET  , AUBURN , IN","IN",12,23,2012,-85.059737,41.36584
"DEKALB ","342  9TH STREET  , AUBURN , IN","IN",12,23,2012,-85.059682,41.365841
"DEKALB ","1117  IRENE STREET  , AUBURN , IN","IN",12,24,2012,-85.076105,41.373598
"DEKALB ","605 MAIN E ST 7 , BUTLER , IN","IN",1,2,2004,-84.863603,41.429836
"DEKALB ","5098 CR 75A , BUTLER , IN","IN",5,2,2005,-84.843084,41.349301
"DEKALB ","409 NORTH BROADWAY, BUTLER , IN","IN",10,15,2012,-84.871371,41.433083
"DEKALB ","116 EAST WILLOW STREET  , BUTLER , IN","IN",11,11,2012,-84.870974,41.426185
"DEKALB ","518 N RANDOLPH STREET 39815 , GARRETT , IN","IN",2,17,2004,-85.135697,41.355392
"DEKALB ","4930 COUNTY ROAD 7 , GARRETT , IN","IN",6,4,2004,-85.155638,41.348181
"DEKALB ","1005 QUINCY W , GARRETT , IN","IN",4,5,2005,-85.11949,41.351487
"DEKALB ","68 STARLINE DRIVE , GARRETT , IN","IN",1,20,2008,-85.402203,40.215951
"DEKALB ","918 WEST KING 2 , GARRETT , IN","IN",3,2,2008,-85.146745,41.35033
"DEKALB ","1100 SOUTH LEE STREET  , GARRETT , IN","IN",5,6,2010,-85.133182,41.340667
"DEKALB ","80  ARBOR DRIVE  , GARRETT , IN","IN",12,19,2012,-85.135032,41.364625
"DEKALB ","1401 EAST KING STREET  , GARRETT , IN","IN",4,28,2013,-85.123773,41.350517
"DEKALB ","318  N WALSH STREET 2 , GARRETT , IN","IN",8,13,2013,-85.131914,41.351977
"DEKALB ","5983  COUNTY  64 ROAD  , SPENCERVILLE , IN","IN",5,30,2010,-84.956554,41.267814
"DEKALB ","615 WALNUT W ST , WATERLOO , IN","IN",11,9,2004,-85.141954,39.645764
"DEKALB ","380 SOUTH OAK STREET , WATERLOO , IN","IN",1,29,2008,-85.023643,41.429119
"DEKALB ","670 EAST UNION STREET CR8 , WATERLOO , IN","IN",10,18,2008,-85.016346,41.433623
"DEKALB ","670 EAST UNION70 STREET  , WATERLOO , IN","IN",2,2,2013,-85.024723,41.433202
"DEKALB ","220 EAST UNION, WATERLOO , IN","IN",6,1,2013,-85.018394,41.433305
"DEKALB ","330 NORTH OAK, WATERLOO , IN","IN",8,26,2013,-85.023641,41.429628
"DELAWARE ","355 WEST JACKSON STREET , ALBANY , IN","IN",7,10,2008,-85.240501,40.304819
"DELAWARE ","128 NORTH PLUM STREET  , EATON , IN","IN",6,27,2013,-85.364205,40.342326
"DELAWARE ","301  N CENTER STREET  , EATON , IN","IN",7,4,2013,-85.356667,40.34373
"DELAWARE ","405 HUTCHINSON S ST , MUNCIE , IN","IN",12,16,2004,-85.412718,40.190662
"DELAWARE ","1400 STOCKPORT N DR , MUNCIE , IN","IN",1,27,2005,-85.455457,40.181104
"DELAWARE ","501 SOUTH MOUND STREET , MUNCIE , IN","IN",2,21,2006,-85.39432,40.189932
"DELAWARE ","2213 EAST MEMORIAL, MUNCIE , IN","IN",7,3,2012,-85.404386,40.178348
"DELAWARE ","3908 EAST 28TH STREET  , MUNCIE , IN","IN",7,30,2012,-85.37182,40.161826
"DELAWARE ","211 NORTH JEFFERSON STREET  , MUNCIE , IN","IN",10,2,2012,-85.384345,40.1946
"DELAWARE ","2109 NORTH NEW YORK AVENUE  , MUNCIE , IN","IN",10,7,2012,-85.401267,40.211855
"DELAWARE ","319 EAST 7TH STREET  , MUNCIE , IN","IN",10,23,2012,-85.383971,40.182867
"DELAWARE ","1800 NORTH 19TH STREET  , MUNCIE , IN","IN",11,11,2012,-85.365945,40.17108
"DELAWARE ","1338 EAST JACKSON STREET  , MUNCIE , IN","IN",11,21,2012,-85.371794,40.192638
"DELAWARE ","1525 NORTH RIBBLE, MUNCIE , IN","IN",12,16,2012,-85.360905,40.181512
"DELAWARE ","3600 EAST 29TH STREET  , MUNCIE , IN","IN",12,24,2012,-85.348751,40.15868
"DELAWARE ","3109 NORTH HACKLEY STREET  , MUNCIE , IN","IN",12,24,2012,-85.377243,40.19752
"DELAWARE ","1301 EAST 8TH STREET  , MUNCIE , IN","IN",1,11,2013,-85.372463,40.182179
"DELAWARE ","1103  E 17TH STREET  , MUNCIE , IN","IN",1,16,2013,-85.370638,40.173178
"DELAWARE ","425 NORTH PROUD STREET  , MUNCIE , IN","IN",1,22,2013,-85.395475,40.190888
"DELAWARE ","2701 NORTH MULBERRY STREET  , MUNCIE , IN","IN",1,27,2013,-85.385108,40.203316
"DELAWARE ","305  E 22ND STREET  , MUNCIE , IN","IN",2,13,2013,-85.384057,40.168201
"DELAWARE ","2529  N ELGIN STREET 5 , MUNCIE , IN","IN",2,16,2013,-85.365598,40.214923
"DELAWARE ","1801 NORTH ELM STREET 1 , MUNCIE , IN","IN",3,7,2013,-85.380255,40.209985
"DELAWARE ","2102 NORTH BILTMORE STREET  , MUNCIE , IN","IN",3,11,2013,-85.3523,40.200148
"DELAWARE ","807 EAST 15TH STREET  , MUNCIE , IN","IN",3,15,2013,-85.378233,40.175319
"DELAWARE ","2111 NORTH ELM STREET  , MUNCIE , IN","IN",3,21,2013,-85.380104,40.211786
"DELAWARE ","401 EAST 8TH STREET  , MUNCIE , IN","IN",4,3,2013,-85.383,40.181953
"DELAWARE ","415 EAST ADAMS, MUNCIE , IN","IN",4,15,2013,-85.382801,40.191819
"DELAWARE ","2912 NORTH ELM STREET  , MUNCIE , IN","IN",4,20,2013,-85.383078,40.217148
"DELAWARE ","2732 NORTH N HOYTE AVENUE  , MUNCIE , IN","IN",5,21,2013,-85.407891,40.17049
"DELAWARE ","2912 NORTH ELM STREET  , MUNCIE , IN","IN",6,28,2013,-85.383078,40.217148
"DELAWARE ","1805 EAST 16TH STREET  , MUNCIE , IN","IN",7,7,2013,-85.36624,40.174323
"DELAWARE ","1901 NORTH MILTON STREET  , MUNCIE , IN","IN",7,11,2013,-85.392181,40.210439
"DELAWARE ","2103 NORTH GRANT, MUNCIE , IN","IN",7,27,2013,-85.373814,40.176253
"DELAWARE ","822 NORTH WOLFE STREET  , MUNCIE , IN","IN",8,5,2013,-85.370504,40.200141
"DELAWARE ","1412  MEMORIAL AVENUE  , MUNCIE , IN","IN",8,12,2013,-85.402369,40.178353
"DUBOIS ","2593 SR 162 E , CELESTINE , IN","IN",8,30,2004,-86.864261,38.238709
"DUBOIS ","11793 SOUTH COUNTY ROAD 720 WEST, HOLLAND , IN","IN",1,9,2010,-87.044611,38.206889
"DUBOIS ","102 FOURTH E ST , HUNTINGBURG , IN","IN",5,1,2004,-86.960982,38.296143
"DUBOIS ","611 FIFTH ST , HUNTINGBURG , IN","IN",7,31,2004,-86.949843,38.297471
"DUBOIS ","1104 VAN BUREN N ST , HUNTINGBURG , IN","IN",12,9,2004,-86.951674,38.304262
"DUBOIS ","659 SIETZ ST , JASPER , IN","IN",5,13,2004,-86.917121,38.486928
"DUBOIS ","311 EAST 9TH, JASPER , IN","IN",11,14,2012,-86.928104,38.39358
"ELKHART ","2725 CASSOPOLIS ST , ELKHART , IN","IN",5,3,2004,-85.972953,41.722386
"ELKHART ","52353 COUNTY ROAD 17 , ELKHART , IN","IN",5,4,2004,-85.888472,41.730377
"ELKHART ","910 MARION W ST , ELKHART , IN","IN",12,5,2004,-85.983233,41.679829
"ELKHART ","51913 DOWNEY ST , ELKHART , IN","IN",5,16,2005,-85.959217,41.740084
"ELKHART ","54642 CR 101 , ELKHART , IN","IN",5,17,2005,-86.037518,41.699417
"ELKHART ","54327 BALDWIN CT , ELKHART , IN","IN",7,27,2005,-85.957621,41.705127
"ELKHART ","29634 CR 2 , ELKHART , IN","IN",10,18,2005,-86.034816,41.753516
"ELKHART ","51935 NORTH FAWN MEADOWS AVENUE , ELKHART , IN","IN",3,3,2006,-85.952264,41.757627
"ELKHART ","724 WEST BRISTOL STREET , ELKHART , IN","IN",6,20,2006,-85.988763,41.702692
"ELKHART ","2614 WARREN STREET , ELKHART , IN","IN",7,15,2006,-85.943102,41.66043
"ELKHART ","1650 CEDAR STREET , ELKHART , IN","IN",10,8,2006,-85.999501,41.689562
"ELKHART ","509 EAST MARION STREET , ELKHART , IN","IN",10,11,2006,-85.968213,41.68428
"ELKHART ","1303 WILDFLOWER AVENUE , ELKHART , IN","IN",10,12,2006,-86.020227,41.701316
"ELKHART ","2035 FRANCES AVENUE , ELKHART , IN","IN",2,13,2007,-85.963067,41.66783
"ELKHART ","2937 ARBUTUS , ELKHART , IN","IN",2,23,2007,-86.021364,41.699906
"ELKHART ","25759 MODRELL AVENUE , ELKHART , IN","IN",3,23,2007,-85.961224,41.706526
"ELKHART ","1536 SOUTH MAIN STREET , ELKHART , IN","IN",4,16,2007,-85.959859,41.672914
"ELKHART ","24710 RICE STREET , ELKHART , IN","IN",5,24,2007,-85.946393,41.68519
"ELKHART ","742 WEST BRISTOL STREET , ELKHART , IN","IN",7,2,2007,-85.988507,41.702693
"ELKHART ","54188 SOUTHWOOD DRIVE , ELKHART , IN","IN",7,16,2007,-85.999308,41.70678
"ELKHART ","824 DENVER STREET , ELKHART , IN","IN",9,17,2007,-85.942719,41.68106
"ELKHART ","30025 ORIOLE AVENUE , ELKHART , IN","IN",10,5,2007,-86.041902,41.651417
"ELKHART ","28803 LARK STREET , ELKHART , IN","IN",10,18,2007,-86.020829,41.734963
"ELKHART ","27415 CR 24 , ELKHART , IN","IN",2,8,2008,-85.99279,41.648858
"ELKHART ","30955 OLD U.S. HWY 20 , ELKHART , IN","IN",2,16,2008,-85.926389,41.677492
"ELKHART ","56286 BURR AVENUE , ELKHART , IN","IN",3,22,2008,-86.005582,41.675875
"ELKHART ","26364 LAKEVIEW DRIVE , ELKHART , IN","IN",4,4,2008,-85.973973,41.74397
"ELKHART ","2208 PLEASANT PLAIN AVENUE , ELKHART , IN","IN",7,21,2008,-85.955624,41.665427
"ELKHART ","1203 SOUTH CASSOPOLIS STREET , ELKHART , IN","IN",8,6,2008,-85.971814,41.698098
"ELKHART ","54349 WILSON STREET , ELKHART , IN","IN",9,4,2008,-85.949841,41.704931
"ELKHART ","164 SOUTH SHORE DRIVE , ELKHART , IN","IN",10,13,2008,-85.987324,41.681914
"ELKHART ","130 NORTH 2ND STREET B1 , ELKHART , IN","IN",10,16,2008,-85.975242,41.687511
"ELKHART ","24866 BUDDY STREET , ELKHART , IN","IN",11,12,2008,-85.944654,41.722342
"ELKHART ","1926  BELMONT AVENUE  , ELKHART , IN","IN",4,19,2009,-85.950147,41.669569
"ELKHART ","1900  MINNIE STREET  , ELKHART , IN","IN",1,5,2010,-85.943179,41.661715
"ELKHART ","57817  COUNTY ROAD 105, ELKHART , IN","IN",1,30,2010,-85.994483,41.655026
"ELKHART ","513 WEST CLEVELAND AVENUE  , ELKHART , IN","IN",4,10,2010,-85.974004,41.671724
"ELKHART ","3338 SOUTH PLEASANT PLAIN AVENUE A , ELKHART , IN","IN",7,2,2010,-85.955539,41.6515
"ELKHART ","2523  EDDY STREET  , ELKHART , IN","IN",7,2,2012,-85.945528,41.661441
"ELKHART ","23995  SUNNYSIDE AVENUE  , ELKHART , IN","IN",11,12,2012,-85.926271,41.642891
"ELKHART ","425 EAST FRANKLIN STREET 1 , ELKHART , IN","IN",11,14,2012,-85.969498,41.684871
"ELKHART ","26219  COUNTY RD. 4, ELKHART , IN","IN",12,5,2012,-85.970421,41.73885
"ELKHART ","626  FREMONT STREET  , ELKHART , IN","IN",5,11,2013,-85.986348,41.677529
"ELKHART ","1668  TOLEDO ROAD  , ELKHART , IN","IN",5,28,2013,-85.939628,41.677685
"ELKHART ","2701  RIDGEWOOD DRIVE UNIT E , ELKHART , IN","IN",6,20,2013,-85.958248,41.659439
"ELKHART ","1820  FIELDHOUSE AVENUE  , ELKHART , IN","IN",7,6,2013,-85.997506,41.666135
"ELKHART ","1144  MIDDLEBURY STREET  , ELKHART , IN","IN",7,9,2013,-85.949962,41.681311
"ELKHART ","230 EAST JACKSON BOULEVARD  , ELKHART , IN","IN",7,28,2013,-85.976031,41.686764
"ELKHART ","2624  DECAMP AVENUE  BOX 31 , ELKHART , IN","IN",4,24,2014,-85.957998,41.660191
"ELKHART ","305 QUEEN ST , GOSHEN , IN","IN",10,12,2004,-85.837988,41.596235
"ELKHART ","60248 FAIRLANE AVENUE , GOSHEN , IN","IN",11,18,2007,-85.891971,41.620145
"ELKHART ","1811 WESTPLAINS DRIVE A1 , GOSHEN , IN","IN",2,15,2008,-85.85977,41.593602
"ELKHART ","815 SOUTH 9TH STREET  , GOSHEN , IN","IN",1,11,2010,-85.826658,41.576803
"ELKHART ","1503  WEST AVENUE  , GOSHEN , IN","IN",1,13,2010,-85.854987,41.585644
"ELKHART ","15666  COUNTY ROAD 44, GOSHEN , IN","IN",2,5,2010,-85.763779,41.509178
"ELKHART ","621 NORTH MAIN STREET  , GOSHEN , IN","IN",4,28,2010,-85.834751,41.594442
"ELKHART ","505 NORTH CHICAGO AVENUE  , GOSHEN , IN","IN",5,11,2010,-85.842863,41.589016
"ELKHART ","607 NORTH MAIN STREET  , GOSHEN , IN","IN",10,30,2012,-85.834733,41.593673
"ELKHART ","60390  FENMORE, GOSHEN , IN","IN",1,1,2013,-85.89095,41.618334
"ELKHART ","712 NORTH 10TH STREET  , GOSHEN , IN","IN",1,23,2013,-85.824799,41.577851
"ELKHART ","911 NORTH 6TH STREET  , GOSHEN , IN","IN",2,28,2013,-85.831509,41.597201
"ELKHART ","29634 CR 2 , GRANGER , IN","IN",11,15,2007,-86.035353,41.753444
"ELKHART ","418 NORTH MAIN STREET , MIDDLEBURY , IN","IN",3,13,2007,-85.695425,41.691991
"ELKHART ","12452 BONNIE LANE , MIDDLEBURY , IN","IN",9,19,2007,-85.707006,41.72466
"ELKHART ","52771  YORKSHIRE DRIVE  , MIDDLEBURY , IN","IN",1,9,2010,-85.711964,41.728913
"ELKHART ","455  E INDIANA AVENUE  , NAPPANEE , IN","IN",2,13,2013,-85.997005,41.437161
"ELKHART ","18805 MEADOW FLOWER DRIVE , NEW PARIS , IN","IN",1,9,2008,-85.825173,41.493291
"FAYETTE ","3048 225 W N , CONNERSVILLE , IN","IN",8,9,2005,-84.903971,39.847691
"FAYETTE ","2357 EAST CR 475 S , CONNERSVILLE , IN","IN",3,13,2006,-85.093621,39.572347
"FAYETTE ","711 BEECH STREET , CONNERSVILLE , IN","IN",8,7,2006,-85.14831,39.644701
"FAYETTE ","311 EAST 32ND STREET  , CONNERSVILLE , IN","IN",4,7,2013,-85.132123,39.67372
"FAYETTE ","1506  CONWELL STREET  , CONNERSVILLE , IN","IN",8,22,2013,-85.129104,39.650109
"FAYETTE ","803  OAK STREET  , CONNERSVILLE , IN","IN",8,26,2013,-85.147215,39.645686
"FLOYD ","1917 CANAL LN , GEORGETOWN , IN","IN",3,1,2004,-85.96623,38.301188
"FLOYD ","8188 SENECA DR , GEORGETOWN , IN","IN",6,4,2004,-86.026907,38.318158
"FLOYD ","1755  KEPLEY, GEORGETOWN , IN","IN",7,19,2013,-85.975592,38.297524
"FLOYD ","3592 BRADFORD E RD , GREENVILLE , IN","IN",3,20,2004,-86.058137,38.367795
"FLOYD ","100 FISCHER DR , NEW ALBANY , IN","IN",4,27,2004,-85.82949,38.300906
"FLOYD ","2024 MARKET E ST , NEW ALBANY , IN","IN",7,16,2004,-85.798935,38.29434
"FLOYD ","149 VILLAGE E DR , NEW ALBANY , IN","IN",8,12,2004,-85.842953,38.318694
"FLOYD ","2381 CRAIG COOPER RD , NEW ALBANY , IN","IN",9,7,2004,-85.892358,38.249455
"FLOYD ","830 9TH W ST , NEW ALBANY , IN","IN",1,14,2005,-85.838895,38.287851
"FLOYD ","1816 MARKET E , NEW ALBANY , IN","IN",1,17,2005,-85.803673,38.29221
"FLOYD ","1409 VINE ST , NEW ALBANY , IN","IN",2,17,2005,-85.829997,38.296878
"FLOYD ","1004 MAIN W ST , NEW ALBANY , IN","IN",3,3,2005,-85.833199,38.278949
"FLOYD ","512 FENWICK DR , NEW ALBANY , IN","IN",5,4,2005,-85.834957,38.304935
"FLOYD ","291 ERNI AVENUE , NEW ALBANY , IN","IN",3,10,2006,-85.827663,38.29895
"FLOYD ","1418 CULBERTSON AVENUE , NEW ALBANY , IN","IN",3,16,2006,-85.812418,38.293807
"FLOYD ","711 WEST MARKET STREET , NEW ALBANY , IN","IN",7,13,2006,-85.831146,38.281317
"FLOYD ","911 EAST MARKET STREET , NEW ALBANY , IN","IN",7,19,2006,-85.814146,38.287645
"FLOYD ","3811 CHAPEL LANE , NEW ALBANY , IN","IN",4,27,2007,-85.799586,38.370712
"FLOYD ","338 EAST 16TH STREET , NEW ALBANY , IN","IN",9,21,2007,-85.808033,38.290884
"FLOYD ","174 CHERRY STREET C , NEW ALBANY , IN","IN",12,22,2007,-85.829059,38.290809
"FLOYD ","216 EAST 13TH STREET 1 , NEW ALBANY , IN","IN",3,30,2008,-85.809512,38.287991
"FLOYD ","1406 LOCUST STREET 1 , NEW ALBANY , IN","IN",3,31,2008,-85.814698,38.296739
"FLOYD ","3943  DOUGLAS AVENIDA  , NEW ALBANY , IN","IN",1,25,2013,-85.800837,38.347464
"FLOYD ","  1 316 CULBERTSON AVENUE  , NEW ALBANY , IN","IN",5,19,2013,-85.823155,38.289752
"FLOYD ","812 SOUTHWEST, NEW ALBANY , IN","IN",5,31,2013,-85.370909,39.906938
"FLOYD ","2032  CULBERTSON AVENUE  , NEW ALBANY , IN","IN",7,16,2013,-85.803427,38.298735
"FLOYD ","70  RIVERSIDE DRIVE 70 , NEW ALBANY , IN","IN",8,31,2013,-85.797537,38.291144
"FOUNTAIN ","407 NORTH 5TH STREET  , ATTICA , IN","IN",1,18,2013,-87.245794,40.295732
"FOUNTAIN ","387 NORTH STATE ROAD 341, HILLSBORO , IN","IN",2,12,2013,-87.14862,40.112158
"FOUNTAIN ","304 2ND N ST , KINGMAN , IN","IN",1,8,2004,-87.277705,39.970461
"FOUNTAIN ","1672 LAKE HIDEWAY W RD , KINGMAN , IN","IN",10,28,2004,-87.34093,39.996793
"FOUNTAIN ","189 EAST ST RD 234, KINGMAN , IN","IN",12,3,2012,-87.279121,39.967423
"FOUNTAIN ","10384 MELON N RD , TANGIER , IN","IN",9,29,2004,-87.375842,39.917449
"FOUNTAIN ","200 LIBERTY ST , VEEDERSBURG , IN","IN",3,26,2004,-87.251093,40.11312
"FRANKLIN ","6128  PIPE CREEK ROAD  , BATESVILLE , IN","IN",2,9,2013,-85.131477,39.386285
"FRANKLIN ","9090 SR1 , BROOKVILLE , IN","IN",3,29,2004,-85.946885,39.723672
"FRANKLIN ","8126 BIG CEDAR RD LOT 476 , BROOKVILLE , IN","IN",6,20,2004,-84.906854,39.420339
"FRANKLIN ","11149 LITTLE DUCK RD , BROOKVILLE , IN","IN",2,4,2005,-85.148155,39.465774
"FRANKLIN ","12057 LOHREY DR , BROOKVILLE , IN","IN",10,28,2005,-85.023888,39.427285
"FRANKLIN ","11165 US 52 LOT 25 , BROOKVILLE , IN","IN",11,21,2005,-85.005315,39.402346
"FRANKLIN ","10006 WHITCOMB ROAD , BROOKVILLE , IN","IN",12,14,2005,-84.93713,39.437444
"FRANKLIN ","21 WEST 10TH STREET  , BROOKVILLE , IN","IN",1,13,2010,-85.013426,39.425243
"FRANKLIN ","18022  LAUREL ROAD  , CORNETTSVILLE , IN","IN",6,15,2010,-85.117337,39.51942
"FRANKLIN ","27054 US 52 , LAUREL , IN","IN",5,15,2004,-85.284075,39.497633
"FRANKLIN ","25063 VANETTA AVENUE , LAUREL , IN","IN",3,13,2006,-85.235751,39.493924
"FRANKLIN ","9138 LONG BRANCH ROAD , LAUREL , IN","IN",6,16,2006,-85.259731,39.431588
"FRANKLIN ","25001  OLD US HWY 52, LAUREL , IN","IN",5,13,2013,-85.241253,39.487733
"FULTON ","15478 EAST SR 114 , AKRON , IN","IN",10,10,2007,-85.951729,41.010588
"FULTON ","5869 COUNTY ROAD 1000 WEST S , KEWANNA , IN","IN",5,6,2004,-86.333378,40.909805
"FULTON ","7500 200 SOUTH W , KEWANNA , IN","IN",1,12,2005,-86.413837,41.016656
"FULTON ","4622 BOWEN N , LEITERS FORD , IN","IN",6,10,2004,-86.38357,41.123417
"FULTON ","3516 550 S. E , MACY , IN","IN",1,21,2004,-86.884969,40.026295
"FULTON ","6341 BURNS N AVE , MACY , IN","IN",1,21,2004,-86.183532,40.96107
"FULTON ","9224 TROY DR , ROCHESTER , IN","IN",5,5,2004,-86.418842,41.14111
"FULTON ","1337 OLD US 31 , ROCHESTER , IN","IN",7,20,2004,-86.19541,41.038614
"FULTON ","402 PONTIAC ST , ROCHESTER , IN","IN",12,5,2004,-86.218861,41.07059
"FULTON ","502 JEFFERSON ST , ROCHESTER , IN","IN",1,13,2005,-86.21746,41.069424
"FULTON ","9822 100 E S , ROCHESTER , IN","IN",1,10,2006,-85.670426,40.560645
"FULTON ","4122 125 E S , ROCHESTER , IN","IN",1,22,2006,-85.67035,40.560426
"FULTON ","3234 SOUTH CR 650 , ROCHESTER , IN","IN",2,28,2006,-86.270438,41.149605
"FULTON ","4972 EAST 500 N , ROCHESTER , IN","IN",8,23,2006,-86.151214,41.127341
"FULTON ","1602  ELM STREET  , ROCHESTER , IN","IN",1,21,2010,-86.210783,41.055087
"FULTON ","325 WEST 10TH STREET  , ROCHESTER , IN","IN",1,21,2010,-86.21943,41.063965
"FULTON ","311  FULTON AVENUE  , ROCHESTER , IN","IN",4,11,2013,-86.220147,41.071615
"FULTON ","510  JEFFERSON STREET  , ROCHESTER , IN","IN",4,23,2013,-86.217461,41.069333
"FULTON ","2183  E 500 N, ROCHESTER , IN","IN",4,30,2013,-86.196755,41.12762
"FULTON ","923  JACKSON BOULEVARD  , ROCHESTER , IN","IN",5,26,2013,-86.204512,41.062763
"FULTON ","949  PARK STREET  , ROCHESTER , IN","IN",7,27,2013,-86.207888,41.062869
"FULTON ","196  PONTIAC, ROCHESTER , IN","IN",8,14,2013,-86.218781,41.072788
"GIBSON ","1086  SR 57, ELBERFELD , IN","IN",6,17,2010,-87.464667,38.180005
"GIBSON ","404 WOOD E , FRANCISCO , IN","IN",3,17,2005,-87.440844,38.334219
"GIBSON ","2166 SOUTH CR 750 E, FRANCISCO , IN","IN",7,2,2010,-86.750836,40.948642
"GIBSON ","5535 NORTH OLD US 41 , HAZLETON , IN","IN",9,26,2007,-87.573385,38.363994
"GIBSON ","2863 EAST S.R. 56 , HAZLETON , IN","IN",1,27,2008,-87.407513,38.487581
"GIBSON ","2863 EAST SR 56 , HAZLETON , IN","IN",5,12,2008,-87.407513,38.487581
"GIBSON ","214 MORTON W , OAKLAND CITY , IN","IN",1,4,2005,-87.345693,38.334022
"GIBSON ","411 LINCOLN N , OAKLAND CITY , IN","IN",1,22,2005,-87.377737,38.281655
"GIBSON ","527 TRUSSLER W , OAKLAND CITY , IN","IN",2,22,2005,-87.35245,38.332923
"GIBSON ","214 WEST MORTON STREET , OAKLAND CITY , IN","IN",7,23,2006,-87.348539,38.333838
"GIBSON ","830 WEST COLLEGE STREET , OAKLAND CITY , IN","IN",3,4,2007,-87.352641,38.341114
"GIBSON ","214 MORTON AVENUE , OAKLAND CITY , IN","IN",3,10,2007,-87.345693,38.334022
"GIBSON ","10796 EAST CO RD 50 SOUTH , OAKLAND CITY , IN","IN",8,30,2007,-87.270045,38.308009
"GIBSON ","530 WEST TRUSLER STREET , OAKLAND CITY , IN","IN",9,3,2007,-87.352503,38.332772
"GIBSON ","12249 EAST CO RD 100 SOUTH , OAKLAND CITY , IN","IN",10,8,2007,-87.256408,38.312643
"GIBSON ","416 MAIN ST , OWENSVILLE , IN","IN",2,11,2004,-87.69154,38.269073
"GIBSON ","CR 1050 W 495 , OWENSVILLE , IN","IN",8,6,2005,-87.441138,37.991212
"GIBSON ","12900  CAVALIER, OWENSVILLE , IN","IN",8,30,2013,-87.810468,38.227227
"GIBSON ","500 WARNOCK W LOT 3A , PRINCETON , IN","IN",9,2,2004,-87.575598,38.363537
"GIBSON ","SR 64 W RR 3 276 , PRINCETON , IN","IN",2,17,2005,-87.566321,38.355191
"GIBSON ","127 STATE E ST 1D , PRINCETON , IN","IN",3,29,2005,-87.567251,38.35613
"GIBSON ","126 MADISON LOT 1 , PRINCETON , IN","IN",8,21,2005,-87.57097,38.340036
"GIBSON ","500 WARNOCK W LOT A3 , PRINCETON , IN","IN",9,24,2005,-87.575598,38.363537
"GIBSON ","1125 SOUTH STOREMONT AVENUE , PRINCETON , IN","IN",3,19,2006,-87.561587,38.344565
"GIBSON ","123 SOUTH HART STREET , PRINCETON , IN","IN",4,25,2007,-87.568849,38.35504
"GIBSON ","303 WEST WALNUT STREET , PRINCETON , IN","IN",8,14,2007,-87.569982,38.35911
"GIBSON ","1427 NORTH JEFFERSON, PRINCETON , IN","IN",1,11,2013,-87.555496,38.345322
"GIBSON ","221  CHESTNUT  15B , PRINCETON , IN","IN",2,28,2013,-87.898973,37.929685
"GIBSON ","1401 NORTH VIRGIL  APT B , PRINCETON , IN","IN",5,6,2013,-87.574101,38.341415
"GIBSON ","614 LINCOLN STREET , SOMERVILLE , IN","IN",11,4,2006,-87.377716,38.287676
"GRANT ","118 NORTH WALNUT STREET  , FAIRMOUNT , IN","IN",10,11,2012,-85.649427,40.415808
"GRANT ","504  LOCKERBIE PLACE  , FAIRMOUNT , IN","IN",10,29,2012,-85.654035,40.380504
"GRANT ","1421 NORTH BOOTS STREET  , MARION , IN","IN",10,18,2012,-85.660702,40.570326
"GRANT ","514 EAST 7TH STREET  , MARION , IN","IN",10,22,2012,-85.656142,40.555112
"GRANT ","214 EAST 4TH STREET  , MARION , IN","IN",10,23,2012,-85.661117,40.557956
"GRANT ","332 EAST GRANT STREET  , MARION , IN","IN",1,23,2013,-85.655752,40.563276
"GRANT ","1313 NORTH CARROLL STREET  , MARION , IN","IN",1,30,2013,-85.65253,40.57738
"GRANT ","619 WEST 3RD STREET  BOX UNIT 103 , MARION , IN","IN",4,25,2014,-85.665451,40.558737
"GRANT ","957  HOPE B, UPLAND , IN","IN",7,11,2012,-85.493127,40.465604
"GRANT ","319 EAST 6TH STREET  , UPLAND , IN","IN",4,6,2013,-85.647153,40.420914
"GRANT ","282 EAST BERRY AVENUE D , UPLAND , IN","IN",6,25,2013,-85.492465,40.466564
"GREENE ","4747  E. STATE ROAD 58, BLOOMFIELD , IN","IN",12,7,2012,-86.855528,38.919903
"GREENE ","286 NORTH JUDGE STREET  , BLOOMFIELD , IN","IN",12,24,2012,-86.936449,39.030112
"GREENE ","123  COLD SPRINGS ROAD  , BLOOMFIELD , IN","IN",7,29,2013,-86.904398,39.052216
"GREENE ","227  JUDGE STREET  , BLOOMFIELD , IN","IN",8,7,2013,-86.936309,39.029225
"GREENE ","130  E MAIN STREET 13G , BLOOMFIELD , IN","IN",8,28,2013,-84.963046,40.533951
"GREENE ","11145  OVERHILL LANE  , BLOOMINGTON , IN","IN",3,20,2013,-86.501026,39.168254
"GREENE ","6271 WEST CR 1400 S , JASONVILLE , IN","IN",8,24,2008,-87.22694,39.185906
"GREENE ","120 K STREET , LINTON , IN","IN",4,1,2008,-87.16753,39.043986
"GREENE ","241  L STREET  , LINTON , IN","IN",12,11,2012,-87.168482,39.044723
"GREENE ","790 EAST NE STREET  , LINTON , IN","IN",4,27,2013,-87.245855,40.286802
"GREENE ","89 EAST VINCENNES STREET 216 , LINTON , IN","IN",5,25,2013,-87.165117,39.03401
"GREENE ","8245 NORTH SHERFIELD ROAD  , SOLSBERRY , IN","IN",6,28,2010,-86.813299,39.147187
"HAMILTON ","16300 EAST 191 STREET , NOBLESVILLE , IN","IN",11,20,2006,-85.873847,40.067107
"HAMILTON ","415  KINGS LANE  F , NOBLESVILLE , IN","IN",11,1,2012,-85.998492,40.048371
"HAMILTON ","1098  N 8TH STREET  , NOBLESVILLE , IN","IN",12,14,2012,-86.014686,40.047484
"HANCOCK ","123 EICKENBERRY STREET , GREENFIELD , IN","IN",3,16,2006,-85.76582,39.7969
"HANCOCK ","1395 SOUTH COUNTY 150 WEST ROAD , GREENFIELD , IN","IN",7,21,2007,-85.827496,39.765164
"HANCOCK ","121  PIERSON STREET BOX 2 , GREENFIELD , IN","IN",10,16,2015,-85.770289,39.781385
"HARRISON ","7455 SOUTHWEST VALLEY CITY ROAD , CENTRAL , IN","IN",5,1,2006,-86.028827,38.543883
"HARRISON ","8225 RIPPERDAN VALLEY ROAD , CENTRAL , IN","IN",5,20,2008,-86.195201,38.082356
"HARRISON ","4970  NEW AMSTERDAM ROAD  , CENTRAL , IN","IN",8,14,2013,-86.222962,38.09411
"HARRISON ","3100 LOCUST POINT RD , CORYDON , IN","IN",5,12,2004,-86.067836,38.178008
"HARRISON ","2965 DIXIE RD , CORYDON , IN","IN",1,26,2005,-86.212295,38.159943
"HARRISON ","5280 UNION CHAPEL RD , CORYDON , IN","IN",2,11,2005,-86.127372,38.124369
"HARRISON ","90 OLD SR 135 2 , CORYDON , IN","IN",3,11,2005,-86.130333,38.200213
"HARRISON ","215 BIG INDIAN RD , CORYDON , IN","IN",4,12,2005,-86.115682,38.220838
"HARRISON ","541 WALNUT E SR , CORYDON , IN","IN",4,18,2005,-86.119529,38.21201
"HARRISON ","5140 FIVE OAKS ROAD , CORYDON , IN","IN",3,6,2006,-86.224676,38.152764
"HARRISON ","309 BEECH STREET , CORYDON , IN","IN",6,16,2006,-86.123404,38.208088
"HARRISON ","6660 JULIE LANE , CORYDON , IN","IN",6,27,2006,-86.129262,38.104347
"HARRISON ","6905 JULIE LANE , CORYDON , IN","IN",4,4,2007,-86.128884,38.09956
"HARRISON ","4450 MT SOLOMON #30 , CORYDON , IN","IN",8,30,2007,-120.38322,34.83498
"HARRISON ","2439 KANE ROAD , CORYDON , IN","IN",9,27,2007,-86.077027,38.153648
"HARRISON ","930 PFRIMMERS CHAPEL ROAD , CORYDON , IN","IN",1,16,2008,-86.051334,38.213538
"HARRISON ","819 LAKE ROAD , CORYDON , IN","IN",3,17,2008,-86.110365,38.127881
"HARRISON ","2740 SOUTH PLEASANT ROAD , CORYDON , IN","IN",8,18,2008,-86.105164,38.160313
"HARRISON ","2630  WHIPPOORWILL LANE  , CORYDON , IN","IN",1,29,2010,-86.174809,38.162392
"HARRISON ","754  BROWNS LANE  , CORYDON , IN","IN",1,5,2013,-86.111162,38.211874
"HARRISON ","260  SUMMIT VIEW DRIVE 105 , CORYDON , IN","IN",1,20,2013,-86.129873,38.218215
"HARRISON ","163  VALLEY ROAD  , CORYDON , IN","IN",2,27,2013,-86.12428,38.208396
"HARRISON ","8400 DUKES ROAD , DEPAUW , IN","IN",2,23,2008,-86.257813,38.323544
"HARRISON ","8770 LOTTICKS CORNER RD , ELIZABETH , IN","IN",12,9,2004,-85.961901,38.170944
"HARRISON ","7561 SR 111 S , ELIZABETH , IN","IN",6,1,2005,-85.915108,38.089979
"HARRISON ","3955 O'BANNON RD , ELIZABETH , IN","IN",6,22,2005,-85.773533,39.118884
"HARRISON ","5440 MAIN STREET , ELIZABETH , IN","IN",7,21,2006,-86.050863,38.163869
"HARRISON ","2755 DOOLITTLE HILL ROAD , ELIZABETH , IN","IN",7,18,2007,-85.920053,38.16119
"HARRISON ","11460  BRADFORD WOODS ROAD  , GREENVILLE , IN","IN",7,10,2013,-86.059473,38.366751
"HARRISON ","4995 SEVEN SPRINGS RD , LANESVILLE , IN","IN",5,14,2004,-86.10443,38.546977
"HARRISON ","5410 OLD LANESVILLE N RD , LANESVILLE , IN","IN",5,22,2004,-85.992292,38.274259
"HARRISON ","3341  CRANDEL LANESVILLE ROAD  , LANESVILLE , IN","IN",7,18,2013,-85.995346,38.247767
"HARRISON ","9975 VALLEY CITY MAUCKPORT W , MAUCKPORT , IN","IN",2,24,2004,-86.20192,38.02479
"HARRISON ","2380 HWY 11 , MAUCKPORT , IN","IN",8,18,2005,-86.20192,38.02479
"HARRISON ","11210 VALLEY CITY-MAUCKPORT ROAD , MAUCKPORT , IN","IN",5,16,2006,-86.20192,38.02479
"HARRISON ","845 NORTHEAST HANCOCK CHAPEL ROAD , NEW SALISBURY , IN","IN",9,14,2007,-86.108506,38.367021
"HARRISON ","845 HANCOCK CHAPEL ROAD , NEW SALISBURY , IN","IN",5,24,2008,-86.108506,38.367021
"HARRISON ","8230 THORNBURY DRIVE , NEW SALISBURY , IN","IN",9,16,2008,-86.067269,38.320032
"HARRISON ","1606  CEMETERY ROAD  , NEW SALISBURY , IN","IN",12,20,2012,-86.095023,38.338764
"HARRISON ","1767 DOGWOOD ESTATES , PALMYRA , IN","IN",12,5,2004,-87.340933,41.416418
"HENDRICKS ","1040  N. COUNTY 900 E ROAD  , HAGERSTOWN , IN","IN",7,13,2012,-85.213656,39.948958
"HENRY ","203 NORTH VINE STREET  , KENDALLVILLE , IN","IN",1,22,2013,-85.263287,41.436777
"HENRY ","648  LOCUST STREET 3 , MIDDLETOWN , IN","IN",1,22,2013,-85.535334,40.054211
"HENRY ","1914 SHOP AVENUE , NEW CASTLE , IN","IN",12,20,2005,-85.361825,39.930336
"HENRY ","1617 SOUTH MAIN STREET , NEW CASTLE , IN","IN",8,19,2006,-85.370788,39.916735
"HENRY ","722 NORTH 24TH STREET  , NEW CASTLE , IN","IN",12,17,2012,-85.35499,39.93768
"HENRY ","1609  IRVIN STREET  , NEW CASTLE , IN","IN",2,28,2013,-85.373069,39.916825
"HENRY ","2309 NORTH CHERRYWOOD, NEW CASTLE , IN","IN",4,9,2013,-85.366453,39.91049
"HENRY ","330  N 18TH STREET  , NEW CASTLE , IN","IN",4,24,2013,-85.362846,39.933365
"HENRY ","734  N 20TH STREET  , NEW CASTLE , IN","IN",5,8,2013,-85.360743,39.938035
"HENRY ","962 NORTH HILLSBOROR ROAD  , NEW CASTLE , IN","IN",6,20,2013,-85.346361,39.946439
"HENRY ","2206  NORTH AVENUE  , NEW CASTLE , IN","IN",7,15,2013,-85.358479,39.91219
"HENRY ","1605  IRVIN STREET  , NEW CASTLE , IN","IN",8,1,2013,-85.373067,39.916871
"HENRY ","1311  N 17TH STREET  , NEW CASTLE , IN","IN",8,12,2013,-85.363916,39.935144
"HENRY ","1521 EAST 1000 NORTH, RUSHVILLE , IN","IN",5,13,2013,-85.417907,39.758021
"HOWARD ","529 UNCLE TOM ST , GREENTOWN , IN","IN",3,16,2005,-85.96152,40.479917
"HOWARD ","626 WAUGH S , KOKOMO , IN","IN",1,17,2004,-86.12107,40.466149
"HOWARD ","3315 50 S. W , KOKOMO , IN","IN",1,31,2004,-86.120798,40.431832
"HOWARD ","8766 400 NORTH W , KOKOMO , IN","IN",2,3,2004,-86.193509,40.477277
"HOWARD ","5302 ARROWHEAD BLVD , KOKOMO , IN","IN",2,5,2004,-86.124429,40.429202
"HOWARD ","1045 LEEDS S ST , KOKOMO , IN","IN",2,7,2004,-86.142776,40.475588
"HOWARD ","3110 250 E S , KOKOMO , IN","IN",3,19,2004,-86.128816,40.450958
"HOWARD ","270 DIXON N ST , KOKOMO , IN","IN",3,29,2004,-86.124421,40.497341
"HOWARD ","268 US31 S , KOKOMO , IN","IN",4,26,2004,-86.171054,40.506851
"HOWARD ","307 MURDEN E ST , KOKOMO , IN","IN",5,7,2004,-86.16342,40.482168
"HOWARD ","2620 WASHINGTON N , KOKOMO , IN","IN",6,16,2004,-86.061678,40.43698
"HOWARD ","805 MONROE W ST , KOKOMO , IN","IN",7,1,2004,-86.139784,40.491571
"HOWARD ","1216 ALTO E RD , KOKOMO , IN","IN",12,2,2004,-86.145964,40.44022
"HOWARD ","4021 LAFOUNTAIN S ST , KOKOMO , IN","IN",12,20,2004,-86.12729,40.438567
"HOWARD ","212 MURDEN E ST , KOKOMO , IN","IN",2,24,2005,-86.16342,40.482168
"HOWARD ","2833 WAUGH N ST , KOKOMO , IN","IN",3,17,2005,-86.121096,40.464805
"HOWARD ","1041 COLUMBUS BLVD , KOKOMO , IN","IN",3,18,2005,-86.147595,40.495244
"HOWARD ","320 VAILE E ST A , KOKOMO , IN","IN",3,20,2005,-86.128251,40.481571
"HOWARD ","308 MURDEN E , KOKOMO , IN","IN",6,21,2005,-86.16342,40.482168
"HOWARD ","1317 RING CT , KOKOMO , IN","IN",8,9,2005,-86.114157,40.423386
"HOWARD ","326 NORTH W ST , KOKOMO , IN","IN",9,13,2005,-86.120798,40.431832
"HOWARD ","803 SUPERIOR E ST , KOKOMO , IN","IN",10,23,2005,-86.123571,40.485534
"HOWARD ","1312 PURDUM N ST , KOKOMO , IN","IN",10,27,2005,-86.124167,40.498729
"HOWARD ","2369 EAST 50 N , KOKOMO , IN","IN",12,12,2005,-86.081977,40.484117
"HOWARD ","1414 DARBY STREET , KOKOMO , IN","IN",1,29,2006,-86.16391,40.469852
"HOWARD ","308 EAST MULBERRY STREET , KOKOMO , IN","IN",3,2,2006,-86.128708,40.488446
"HOWARD ","715 WEST TAYLOR STREET , KOKOMO , IN","IN",5,9,2006,-86.137909,40.489144
"HOWARD ","1817 SUSSEX COURT , KOKOMO , IN","IN",5,30,2006,-86.171054,40.506851
"HOWARD ","840 HARVEST DRIVE , KOKOMO , IN","IN",8,10,2007,-86.183499,40.482107
"HOWARD ","214 EAST KING STREET , KOKOMO , IN","IN",8,27,2007,-86.129716,40.48006
"HOWARD ","7051/2 EAST WALNUT STREET , KOKOMO , IN","IN",10,9,2007,-86.131241,40.487401
"HOWARD ","1901 SOUTH GOYER ROAD , KOKOMO , IN","IN",1,15,2008,-86.098661,40.465447
"HOWARD ","1347 SOUTH WAUGH STREET , KOKOMO , IN","IN",2,11,2008,-86.120971,40.4709
"HOWARD ","714 WEST JEFFERSON STREET , KOKOMO , IN","IN",3,9,2008,-86.139106,40.490904
"HOWARD ","1502 SOUTH PALTE AVENUE 11 , KOKOMO , IN","IN",4,15,2008,-86.115782,40.469302
"HOWARD ","2317 NORTH JAY STREET , KOKOMO , IN","IN",8,14,2008,-86.123062,40.508373
"HOWARD ","2400 WEST SYCAMORE, KOKOMO , IN","IN",1,14,2010,-86.164957,40.487736
"HOWARD ","3608 SOUTH LAFOUNTAIN STREET  , KOKOMO , IN","IN",1,30,2010,-86.127023,40.445274
"HOWARD ","625 SOUTH MCCANN STREET  , KOKOMO , IN","IN",4,30,2010,-86.141578,40.48056
"HOWARD ","1133 NORTH ARMSTRONG, KOKOMO , IN","IN",7,5,2012,-86.134997,40.496331
"HOWARD ","1719 NORTH WEBSTER, KOKOMO , IN","IN",7,19,2012,-86.136143,40.501899
"HOWARD ","2136  MARK LANE  , KOKOMO , IN","IN",7,25,2012,-86.105787,40.453867
"HOWARD ","1021 SOUTH WASHINGTON STREET  , KOKOMO , IN","IN",7,26,2012,-86.133884,40.475783
"HOWARD ","129 EAST LORDEMAN, KOKOMO , IN","IN",11,24,2012,-86.129694,40.501827
"HOWARD ","1810 NORTH WASHINGTON STREET 9 , KOKOMO , IN","IN",11,29,2012,-86.133666,40.502513
"HOWARD ","1508 NORTH COOPER STREET  , KOKOMO , IN","IN",12,3,2012,-86.112744,40.492549
"HOWARD ","1821 NORTH DELPHOS, KOKOMO , IN","IN",12,30,2012,-86.119051,40.503038
"HOWARD ","611  E TATE STREET  , KOKOMO , IN","IN",2,18,2013,-86.124787,40.500062
"HOWARD ","4705  PAVILION COURT  , KOKOMO , IN","IN",2,23,2013,-86.062859,40.493762
"HOWARD ","1205 NORTH ELIZABETH STREET  , KOKOMO , IN","IN",3,14,2013,-86.114623,40.492529
"HOWARD ","1213 NORTH UNION, KOKOMO , IN","IN",3,18,2013,-86.129869,40.496544
"HOWARD ","1111  E JEFFERSON STREET  , KOKOMO , IN","IN",7,29,2013,-86.119143,40.490969
"HOWARD ","514  ELK DRIVE  BOX 4 , KOKOMO , IN","IN",4,21,2014,-86.1366,40.450706
"HOWARD ","308 CHANDLER W ST , RUSSIAVILLE , IN","IN",6,19,2004,-86.664143,38.32843
"HOWARD ","5612 400 SOUTH W , RUSSIAVILLE , IN","IN",3,12,2005,-86.66416,38.327975
"HOWARD ","3313 500 W S , RUSSIAVILLE , IN","IN",10,27,2005,-86.664332,38.327488
"HUNTINGTON ","400 EAST MONROE STREET  , ANDREWS , IN","IN",3,23,2013,-85.598469,40.856373
"HUNTINGTON ","529 POPLAR STREET , HUNTINGTON , IN","IN",12,12,2006,-85.49846,40.882481
"HUNTINGTON ","607  CLINE STREET  , HUNTINGTON , IN","IN",12,5,2012,-85.500863,40.872651
"HUNTINGTON ","1622  SALAMONIE AVENUE  , HUNTINGTON , IN","IN",12,14,2012,-85.490136,40.866648
"HUNTINGTON ","1727  GRANT, HUNTINGTON , IN","IN",1,1,2013,-85.507902,40.868851
"JACKSON ","1110 OAK W ST , BROWNSTOWN , IN","IN",4,27,2004,-86.054516,38.885692
"JACKSON ","521 EAST WALNUT STREET , BROWNSTOWN , IN","IN",2,1,2008,-86.036802,38.878106
"JACKSON ","1502 EAST 300 NORTH, BROWNSTOWN , IN","IN",4,15,2013,-86.066888,38.920753
"JACKSON ","100 DIXON E ST , CROTHERSVILLE , IN","IN",12,10,2004,-85.841557,38.796239
"JACKSON ","12142 CR 525 S E , CROTHERSVILLE , IN","IN",7,23,2005,-85.81156,38.805819
"JACKSON ","405 MAIN STREET , CROTHERSVILLE , IN","IN",9,22,2007,-85.837392,38.795882
"JACKSON ","5139 SOUTH C.R. 1010 EAST , CROTHERSVILLE , IN","IN",4,27,2008,-85.849693,38.807612
"JACKSON ","4645 COLUMBUS PIKE , FREETOWN , IN","IN",6,25,2004,-86.128703,38.976098
"JACKSON ","650 11496 E W , FREETOWN , IN","IN",11,5,2004,-85.498776,39.350637
"JACKSON ","9736 HOUSTON RD , FREETOWN , IN","IN",1,15,2006,-86.164554,39.049726
"JACKSON ","4645 COLUMBUS PIKE , FREETOWN , IN","IN",4,17,2008,-86.128703,38.976098
"JACKSON ","1964 NORTH C.R. 825 W , NORMAN , IN","IN",12,21,2007,-86.195241,38.965649
"JACKSON ","10058 WEST C.R. 1000 NORTH , NORMAN , IN","IN",8,8,2008,-86.22868,39.019373
"JACKSON ","940 ELM N ST , SEYMOUR , IN","IN",6,9,2004,-85.897337,38.968911
"JACKSON ","401 CHESTNUT N ST 34 , SEYMOUR , IN","IN",6,27,2004,-85.860998,38.88865
"JACKSON ","749 US 31 N , SEYMOUR , IN","IN",10,22,2004,-85.818558,38.889274
"JACKSON ","611 JACKSON PARK S DR B , SEYMOUR , IN","IN",11,3,2004,-85.876228,38.967739
"JACKSON ","3757 CR 1125 N W , SEYMOUR , IN","IN",3,11,2005,-86.114222,39.035318
"JACKSON ","849 ELM N ST , SEYMOUR , IN","IN",3,22,2005,-85.897398,38.967034
"JACKSON ","424 JACKSON PARK N DR , SEYMOUR , IN","IN",7,4,2005,-85.875991,38.964943
"JACKSON ","1225 SEYMORE ST H , SEYMOUR , IN","IN",1,20,2006,-85.887943,38.955012
"JACKSON ","1225 SYCAMORE ROAD , SEYMOUR , IN","IN",1,21,2006,-85.926358,38.9415
"JACKSON ","10418 EAST CR 250 N , SEYMOUR , IN","IN",12,21,2006,-85.991891,38.965038
"JACKSON ","515 3RD STREET 2 , SEYMOUR , IN","IN",11,24,2007,-85.894435,38.958105
"JACKSON ","601 SOUTH BROADWAY STREET , SEYMOUR , IN","IN",1,12,2008,-85.883896,38.952673
"JACKSON ","313 EAST 5TH STREET , SEYMOUR , IN","IN",7,24,2008,-85.887469,38.962972
"JACKSON ","8191 NORTH REDDING ROAD  , SEYMOUR , IN","IN",7,1,2012,-85.864753,39.000688
"JACKSON ","1046  DUTCHMAN LANE  , SEYMOUR , IN","IN",12,18,2012,-85.87402,38.966264
"JACKSON ","1408 NORTH VINE, SEYMOUR , IN","IN",3,6,2013,-85.886291,38.973068
"JACKSON ","984 COATS W RD , VALLONIA , IN","IN",2,9,2005,-86.111383,38.723346
"JACKSON ","4270 WHEELER HOLLOW RD , VALLONIA , IN","IN",6,15,2005,-86.185226,38.777823
"JACKSON ","3289 WEST WHEELER HOLLOW ROAD , VALLONIA , IN","IN",9,25,2006,-86.151033,38.765254
"JACKSON ","3806 WEST WHEELER HOLLOW ROAD , VALLONIA , IN","IN",1,15,2007,-86.164314,38.774143
"JASPER ","132 DOGWOOD , DEMOTTE , IN","IN",2,1,2007,-87.203618,41.203023
"JASPER ","202 CULLEN S ST , RENSSELAER , IN","IN",6,28,2005,-87.149911,40.935713
"JASPER ","828 HARRISON STREET , RENSSELAER , IN","IN",6,27,2006,-87.142754,40.936992
"JASPER ","313 NORTH MILTON STREET  , RENSSELAER , IN","IN",1,4,2010,-87.144418,40.940786
"JASPER ","9312 200 W N , WHEATFIELD , IN","IN",10,14,2004,-87.252463,41.533833
"JAY ","105 EAST WILSON STREET , BRYANT , IN","IN",10,24,2008,-84.963819,40.532911
"JAY ","350 CENTER E ST , DUNKIRK , IN","IN",7,3,2005,-86.50329,40.861483
"JAY ","350 EAST CENTER STREET , DUNKIRK , IN","IN",4,12,2007,-85.206073,40.374028
"JAY ","247 EAST WASHINGTON STREET , DUNKIRK , IN","IN",7,10,2008,-85.208746,40.372399
"JAY ","410 EAST PLEASANT STREET  , PENNVILLE , IN","IN",1,11,2013,-85.144179,40.496215
"JAY ","1704 CR 300 W S , PORTLAND , IN","IN",6,9,2005,-85.038345,40.414201
"JAY ","1027 CREAGOR AVENUE , PORTLAND , IN","IN",7,5,2007,-84.982765,40.442704
"JAY ","446 EAST SEVENTH STREET , PORTLAND , IN","IN",7,5,2007,-84.973116,40.42523
"JAY ","621 EAST MAIN STREET A , PORTLAND , IN","IN",10,23,2007,-84.970114,40.433406
"JAY ","906 NORTH FRANKLIN STREET , PORTLAND , IN","IN",12,7,2007,-84.981351,40.441943
"JAY ","420 NORTH 600 EAST, PORTLAND , IN","IN",11,2,2012,-84.863842,40.446678
"JAY ","120 EAST MCNEIL STREET  , PORTLAND , IN","IN",3,10,2013,-84.977925,40.440638
"JAY ","952  N BRIDGE, PORTLAND , IN","IN",5,22,2013,-84.842293,40.311352
"JAY ","603 EAST RACE STREET  , PORTLAND , IN","IN",6,5,2013,-84.970826,40.437393
"JAY ","924 EAST RACE STREET  , PORTLAND , IN","IN",6,13,2013,-84.966866,40.437638
"JAY ","45 MERIDIAN S ST 2 , REDKEY , IN","IN",5,9,2005,-85.150183,40.393194
"JAY ","510 SOUTH GEORGE STREET , REDKEY , IN","IN",6,2,2008,-85.147504,40.345884
"JAY ","202  CLEVELAND STREET  , REDKEY , IN","IN",1,13,2010,-85.14642,40.344959
"JEFFERSON ","11508 HICKS RIDGE N , CANAAN , IN","IN",5,21,2004,-85.258656,38.906635
"JEFFERSON ","11898 HICKS RIDGE N , CANAAN , IN","IN",3,5,2005,-85.258183,38.902512
"JEFFERSON ","15252 BLAKE W RD , DEPUTY , IN","IN",1,20,2005,-85.670037,38.780563
"JEFFERSON ","15919 250 N W , DEPUTY , IN","IN",2,8,2005,-85.633692,39.005319
"JEFFERSON ","6935 MAIN ST , DUPONT , IN","IN",1,8,2004,-85.518108,38.889327
"JEFFERSON ","3985 CR 500 E S , DUPONT , IN","IN",1,10,2005,-85.5382,38.912217
"JEFFERSON ","500 RAINBOW LN 3B , HANOVER , IN","IN",2,10,2005,-85.473642,38.718225
"JEFFERSON ","40  AMBER WAVES BOULEVARD  , HANOVER , IN","IN",7,21,2012,-85.45373,38.737569
"JEFFERSON ","9618  E BETHEL ROAD  , HANOVER , IN","IN",1,21,2013,-85.921007,39.149867
"JEFFERSON ","3567 WOODSIDE DR LT 13 , MADISON , IN","IN",4,15,2004,-85.456196,38.749504
"JEFFERSON ","1901 ORCHARD ST 1 , MADISON , IN","IN",5,13,2004,-85.401114,38.762013
"JEFFERSON ","130 TAFT DRIVE F , MADISON , IN","IN",9,7,2004,-85.385678,38.780793
"JEFFERSON ","9507 VERNON RIDGE E RD , MADISON , IN","IN",10,18,2004,-85.186624,38.772241
"JEFFERSON ","419 EMMONS ST , MADISON , IN","IN",11,18,2004,-85.452652,38.749527
"JEFFERSON ","1245 WALNUT N ST , MADISON , IN","IN",11,19,2004,-85.37584,38.742497
"JEFFERSON ","1734 BLACKMORE , MADISON , IN","IN",11,24,2004,-85.394167,38.759904
"JEFFERSON ","148 SKYLINE W DR 96 , MADISON , IN","IN",1,3,2005,-85.389685,38.790789
"JEFFERSON ","131 REGATTA CT A , MADISON , IN","IN",3,9,2005,-85.385927,38.781964
"JEFFERSON ","161 TAFT DR D , MADISON , IN","IN",3,24,2005,-85.384985,38.781608
"JEFFERSON ","9507 EAST VERNON RIDGE , MADISON , IN","IN",5,6,2006,-85.212334,38.773023
"JEFFERSON ","7224 WHIPPERWILL ROAD , MADISON , IN","IN",5,22,2006,-85.301251,38.843853
"JEFFERSON ","9838 EAST LITTLE BRUSH FORK ROAD , MADISON , IN","IN",9,13,2006,-85.209559,38.813303
"JEFFERSON ","215 EAST 2ND , MADISON , IN","IN",12,19,2006,-85.377999,38.73506
"JEFFERSON ","704 MULBERRY STREET , MADISON , IN","IN",2,5,2007,-85.378596,38.740011
"JEFFERSON ","3599 WOODSIDE DRIVE , MADISON , IN","IN",6,10,2007,-85.456371,38.750293
"JEFFERSON ","2037 GARDNER LANE , MADISON , IN","IN",6,29,2007,-85.350244,38.751006
"JEFFERSON ","2860 EISENHOWER DRIVE , MADISON , IN","IN",11,13,2007,-85.386918,38.781481
"JEFFERSON ","844 EAST STREET , MADISON , IN","IN",2,21,2008,-85.374469,38.743516
"JEFFERSON ","849 EAST, MADISON , IN","IN",4,26,2010,-85.374471,38.743608
"JEFFERSON ","205 EAST 1ST  1 , MADISON , IN","IN",7,29,2012,-85.378635,38.734217
"JEFFERSON ","2862  WINDRIDGE  6 , MADISON , IN","IN",10,23,2012,-85.38319,38.780951
"JEFFERSON ","2317 NORTH LANIER, MADISON , IN","IN",1,8,2013,-85.413272,38.770136
"JEFFERSON ","210  IVY TECH DRIVE H , MADISON , IN","IN",2,19,2013,-85.385185,38.782394
"JEFFERSON ","3355  AUDUBON ROAD  , MADISON , IN","IN",6,21,2013,-85.907214,39.239024
"JEFFERSON ","150  TAFT DRIVE C , MADISON , IN","IN",7,8,2013,-85.385109,38.780825
"JEFFERSON ","619 WALNUT N ST , NORTH MADISON , IN","IN",12,8,2004,-85.375874,38.738757
"JENNINGS ","750 CR 650 E N , BUTLERVILLE , IN","IN",11,19,2004,-85.492242,38.996967
"JENNINGS ","750 650 E N , BUTLERVILLE , IN","IN",3,9,2005,-85.633692,39.005319
"JENNINGS ","5325 EAST US50, BUTLERVILLE , IN","IN",4,4,2010,-85.486831,39.046146
"JENNINGS ","1435 NORTH CR 750 EAST, BUTLERVILLE , IN","IN",5,12,2013,-85.473057,39.006782
"JENNINGS ","11880 SR 7 E , ELIZABETHTOWN , IN","IN",4,22,2004,-85.791324,39.138584
"JENNINGS ","9508 NORTH PRIVATE ROAD 820 N , ELIZABETHTOWN , IN","IN",7,23,2008,-85.765076,39.104444
"JENNINGS ","200 CR 250 W. S , NORTH VERNON , IN","IN",1,14,2004,-85.660251,38.983076
"JENNINGS ","1850 350 NORTH W , NORTH VERNON , IN","IN",1,20,2004,-85.633692,39.005319
"JENNINGS ","610 CR 250 EAST S , NORTH VERNON , IN","IN",3,1,2004,-85.568362,38.981892
"JENNINGS ","3677 WELLINGTON CT , NORTH VERNON , IN","IN",4,7,2004,-85.676909,39.037485
"JENNINGS ","8466 CR 500W N , NORTH VERNON , IN","IN",11,12,2004,-85.71911,39.057159
"JENNINGS ","4030 CR 500 E S , NORTH VERNON , IN","IN",3,31,2005,-85.684696,38.911562
"JENNINGS ","675 CR 60 S W , NORTH VERNON , IN","IN",4,1,2005,-85.623117,38.976188
"JENNINGS ","1745 CR 150 S E , NORTH VERNON , IN","IN",4,14,2005,-85.579799,38.962999
"JENNINGS ","6485 NORTH CR 5 W , NORTH VERNON , IN","IN",2,11,2006,-85.612645,39.084565
"JENNINGS ","1185 GREENWOOD PLACE , NORTH VERNON , IN","IN",3,13,2006,-85.702832,39.036434
"JENNINGS ","2364 BUCKINGHAM DRIVE , NORTH VERNON , IN","IN",4,9,2006,-85.694431,39.049491
"JENNINGS ","3585 EAST US 50 , NORTH VERNON , IN","IN",9,17,2006,-85.578625,38.993176
"JENNINGS ","780 NORTH CR 650 W , NORTH VERNON , IN","IN",12,16,2006,-85.731559,38.995023
"JENNINGS ","1555 EAST 100 SOUTH , NORTH VERNON , IN","IN",7,5,2007,-85.583572,38.97034
"JENNINGS ","4135 SOUTH C.R. 350 WEST , NORTH VERNON , IN","IN",4,16,2008,-85.677452,38.924163
"JENNINGS ","29 WEST MAIN STREET , NORTH VERNON , IN","IN",5,29,2008,-85.628637,39.003808
"JENNINGS ","23 HIDDEN COVE DRIVE , NORTH VERNON , IN","IN",6,16,2008,-85.646171,39.019857
"JENNINGS ","304 HOOSIER STREET , NORTH VERNON , IN","IN",6,16,2008,-85.626895,39.007756
"JENNINGS ","5575 EAST C.R. 100 NORTH, NORTH VERNON , IN","IN",5,16,2010,-85.538457,39.000112
"JENNINGS ","123  HOOSIER, NORTH VERNON , IN","IN",6,25,2010,-85.629298,39.007981
"JENNINGS ","10605 SOUTH CR 410 W , PARIS CROSSING , IN","IN",5,12,2007,-85.686248,38.829177
"JENNINGS ","7105 CR 500 N. W , SCIPIO , IN","IN",1,16,2004,-85.743314,39.130307
"JENNINGS ","6695 NORTH CR 575 W , SCIPIO , IN","IN",7,27,2006,-85.71978,39.082317
"JENNINGS ","8195 NORTH C.R. 380 WEST , SCIPIO , IN","IN",3,27,2008,-85.686058,39.104569
"JENNINGS ","5 1/2 PIKE N , VERNON , IN","IN",4,25,2004,-85.473863,38.712373
"JENNINGS ","65 WEST WASHINGTON STREET , VERNON , IN","IN",4,10,2006,-85.611142,38.983743
"JENNINGS ","265 BROWN STREET , VERNON , IN","IN",11,20,2007,-85.606166,38.985266
"JENNINGS ","9970 BASE RD , WESTPORT , IN","IN",10,27,2004,-85.611996,39.131344
"JOHNSON ","806 OLD PLANK RD , BARGERSVILLE , IN","IN",10,3,2004,-86.138827,39.5115
"JOHNSON ","ROAD  , BARGERSVILLE , IN","IN",1,25,2010,-86.118119,39.595579
"JOHNSON ","106  1/2 E MAIN CROSS 1 STREET  , EDINBURGH , IN","IN",12,8,2012,-85.966579,39.354289
"JOHNSON ","106  1/2 E MAIN CROSS, EDINBURGH , IN","IN",1,3,2013,-85.952379,39.35463
"JOHNSON ","798 YOUNG ST , FRANKLIN , IN","IN",7,1,2005,-86.047539,39.488149
"JOHNSON ","60 LINCOLN CT , FRANKLIN , IN","IN",7,15,2005,-86.062794,39.501701
"JOHNSON ","2010 CEDAR LANE 3 , FRANKLIN , IN","IN",10,15,2005,-86.068367,39.498717
"JOHNSON ","791 DUANE ST , FRANKLIN , IN","IN",1,13,2006,-86.051029,39.488499
"JOHNSON ","5787 SOUTH CR 700 E , FRANKLIN , IN","IN",9,5,2008,-85.972307,39.393746
"JOHNSON ","599  YANDES STREET  , FRANKLIN , IN","IN",10,10,2012,-86.049859,39.486449
"JOHNSON ","2013 EAST BENJAMIN STREET 3 , FRANKLIN , IN","IN",1,9,2013,-86.019268,39.481649
"JOHNSON ","370  YANDES STREET  , FRANKLIN , IN","IN",8,14,2013,-86.049974,39.484308
"JOHNSON ","843 SMITH VALLEY W RD , GREENWOOD , IN","IN",9,10,2004,-86.125776,39.606176
"JOHNSON ","398 SCHOOLY DR , GREENWOOD , IN","IN",1,28,2005,-86.148608,39.607943
"JOHNSON ","1712  AVERITT ROAD  , GREENWOOD , IN","IN",3,3,2013,-86.120909,39.592134
"JOHNSON ","306 NORTH PLEASANT STREET  , INDIANAPOLIS , IN","IN",3,25,2013,-86.139803,39.754833
"KNOX ","5900 1ST N , BICKNELL , IN","IN",8,26,2004,-87.30779,38.77421
"KNOX ","5392 BICKNELL N RD , BICKNELL , IN","IN",9,20,2004,-87.30779,38.77421
"KNOX ","216 WEST 9TH STREET , BICKNELL , IN","IN",8,4,2008,-87.30779,38.77421
"KNOX ","616  ILLINOIS, BICKNELL , IN","IN",12,13,2012,-87.30779,38.77421
"KNOX ","804 BARR ST , BRUCEVILLE , IN","IN",2,27,2004,-87.413081,38.759806
"KNOX ","5208 NORTH SR 67 , BRUCEVILLE , IN","IN",7,24,2006,-87.414075,38.75672
"KNOX ","4441 EAST ROBINSON, BRUCEVILLE , IN","IN",12,11,2012,-87.390587,38.661448
"KNOX ","9479 SOUTH SR 241 , DECKER , IN","IN",8,30,2006,-87.333107,39.400737
"KNOX ","10687 NORTH JONES GAP ROAD , EDWARDSPORT , IN","IN",2,8,2006,-87.269499,38.832427
"KNOX ","102 EAST SHIPPING STREET  , EDWARDSPORT , IN","IN",12,19,2012,-87.251313,38.812021
"KNOX ","8421 SR 61 , MONROE CITY , IN","IN",1,16,2004,-87.291111,38.534771
"KNOX ","12297 BEECH HILLS E RD , MONROE CITY , IN","IN",3,19,2004,-87.32691,38.538457
"KNOX ","10562 BOB WOLFE N RD , OAKTOWN , IN","IN",1,22,2004,-87.492203,38.830306
"KNOX ","8894 JOSEPH EMISON RD , OAKTOWN , IN","IN",11,13,2004,-87.458192,38.805074
"KNOX ","13614 CHASTAIN N RD , OAKTOWN , IN","IN",1,27,2005,-87.450476,38.87253
"KNOX ","13979 NORTH DELISLE ROAD  , OAKTOWN , IN","IN",7,11,2010,-87.474311,38.878904
"KNOX ","11785 5TH ST , RAGSDALE , IN","IN",4,16,2004,-87.326073,38.745408
"KNOX ","2909 OLD US 41 , VINCENNES , IN","IN",1,11,2004,-87.533507,38.628675
"KNOX ","3773 HART ST , VINCENNES , IN","IN",1,15,2004,-87.500461,38.653037
"KNOX ","259 16TH W ST , VINCENNES , IN","IN",3,12,2004,-87.519367,38.668272
"KNOX ","1993 BALLARD DR , VINCENNES , IN","IN",3,20,2004,-87.533543,38.647002
"KNOX ","1405 MILLER AVE , VINCENNES , IN","IN",3,29,2004,-87.546625,38.65396
"KNOX ","2009 RAMONA DR , VINCENNES , IN","IN",4,29,2004,-87.534965,38.65508
"KNOX ","2019 OLD U.S. 41 S , VINCENNES , IN","IN",6,22,2004,-87.496573,38.704018
"KNOX ","135 EIGHTH N ST , VINCENNES , IN","IN",7,7,2004,-87.526595,38.675941
"KNOX ","1321 3RD N ST 5 , VINCENNES , IN","IN",8,1,2004,-87.519082,38.685357
"KNOX ","1322 BAYOU ST , VINCENNES , IN","IN",9,1,2004,-87.528531,38.667421
"KNOX ","523 10TH S ST , VINCENNES , IN","IN",9,9,2004,-87.531086,38.670985
"KNOX ","20 MINNEAPOLIS E AVE , VINCENNES , IN","IN",10,16,2004,-87.510552,38.693147
"KNOX ","18 MINNEAPOLIS E AVE , VINCENNES , IN","IN",4,17,2005,-87.510542,38.693131
"KNOX ","523 10TH S ST , VINCENNES , IN","IN",4,18,2005,-87.531086,38.670985
"KNOX ","1661 MISSISSIPPI AVE , VINCENNES , IN","IN",6,1,2005,-87.512374,38.683579
"KNOX ","712 12TH N ST , VINCENNES , IN","IN",6,9,2005,-87.519067,38.675339
"KNOX ","1315 15TH S ST 2 , VINCENNES , IN","IN",8,10,2005,-87.510908,38.675426
"KNOX ","117 SHELBY STREET , VINCENNES , IN","IN",1,4,2006,-87.526302,38.68401
"KNOX ","1806 ASH STREET , VINCENNES , IN","IN",3,9,2006,-87.510002,38.672641
"KNOX ","2313 EWING AVENUE , VINCENNES , IN","IN",3,22,2006,-87.545701,38.651953
"KNOX ","1870 HART STREET , VINCENNES , IN","IN",5,24,2006,-87.513932,38.667547
"KNOX ","4334 EAST EVANS STREET , VINCENNES , IN","IN",6,28,2006,-87.460315,38.680332
"KNOX ","1336 SOUTH ANSON ROAD , VINCENNES , IN","IN",8,3,2006,-87.407133,38.664809
"KNOX ","2552 SOUTH HART STREET , VINCENNES , IN","IN",8,21,2006,-87.504901,38.656953
"KNOX ","513 STONEHENGE DRIVE , VINCENNES , IN","IN",8,21,2006,-87.515841,38.669636
"KNOX ","8764 SOUTH DUTCH HINKLE ROAD , VINCENNES , IN","IN",8,27,2006,-87.312781,38.546906
"KNOX ","127 EAST LYNDALE STREET , VINCENNES , IN","IN",9,9,2006,-87.515006,38.688945
"KNOX ","12009 SOUTH BEAL ROAD , VINCENNES , IN","IN",9,14,2006,-87.630289,38.514719
"KNOX ","329 EBERWINE STREET , VINCENNES , IN","IN",9,20,2006,-87.514833,38.69491
"KNOX ","712 NORTH 12TH STREET , VINCENNES , IN","IN",9,24,2006,-87.519067,38.675339
"KNOX ","320 WEST NIBLACK ROAD , VINCENNES , IN","IN",4,18,2007,-87.545977,38.651088
"KNOX ","1424 MCKINLEY AVENUE , VINCENNES , IN","IN",4,26,2007,-87.505208,38.677982
"KNOX ","7790 SOUTH OLD DECKER ROAD , VINCENNES , IN","IN",5,19,2007,-87.513226,38.632822
"KNOX ","292 WEST 16TH STREET , VINCENNES , IN","IN",8,8,2007,-87.519367,38.668272
"KNOX ","1532 SOUTH 6TH ST ROAD , VINCENNES , IN","IN",8,9,2007,-87.545505,38.666024
"KNOX ","80 WEST 15TH , VINCENNES , IN","IN",9,25,2007,-87.535929,38.660677
"KNOX ","131 EAST REEL AVENUE , VINCENNES , IN","IN",10,4,2007,-87.512585,38.68982
"KNOX ","1670 WASHINGTON AVENUE , VINCENNES , IN","IN",12,7,2007,-87.510762,38.682303
"KNOX ","4177 6TH STREET , VINCENNES , IN","IN",1,22,2008,-87.496983,38.693214
"KNOX ","28 WEST SWARTZEL AVENUE 2 , VINCENNES , IN","IN",2,26,2008,-87.515021,38.69105
"KNOX ","1026 NORTH 12TH STREET , VINCENNES , IN","IN",4,2,2008,-87.515993,38.676862
"KNOX ","267 WEST 15TH STREET , VINCENNES , IN","IN",4,9,2008,-87.535929,38.660677
"KNOX ","147 WEST 15TH , VINCENNES , IN","IN",8,12,2008,-87.535929,38.660677
"KNOX ","2818 WASHINGTON AVENUE 13 , VINCENNES , IN","IN",9,16,2008,-87.49377,38.688139
"KNOX ","1614 MENTOR STREET , VINCENNES , IN","IN",10,15,2008,-87.529007,38.662209
"KNOX ","1636  PRAIRIE STREET  , VINCENNES , IN","IN",6,19,2010,-87.52611,38.663626
"KNOX ","2410  OLIPHANT DRIVE  , VINCENNES , IN","IN",10,3,2012,-87.509737,38.698513
"KNOX ","210 NORTH 10TH STREET 3 , VINCENNES , IN","IN",2,20,2013,-87.52444,38.674978
"KNOX ","1207  BROADWAY, VINCENNES , IN","IN",4,3,2013,-87.522611,38.672904
"KNOX ","1205  RITTERSKAMP, VINCENNES , IN","IN",5,16,2013,-87.50519,38.681947
"KNOX ","1811  WABASH STREET  , VINCENNES , IN","IN",8,15,2013,-87.511033,38.672036
"KNOX ","307  E EWING AVENUE  , VINCENNES , IN","IN",8,19,2013,-87.544356,38.652392
"KNOX ","310 OLD US 50 W , WHEATLAND , IN","IN",7,18,2004,-87.309382,38.662469
"KNOX ","520 ADAMS STREET , WHEATLAND , IN","IN",10,10,2006,-87.303039,38.661606
"KOSCIUSKO ","701 SOUTH E 800, CLAYPOOL , IN","IN",5,20,2013,-85.823196,41.115908
"KOSCIUSKO ","11207 NORTH HUMPTY DUMPTY DRIVE , CROMWELL , IN","IN",1,27,2008,-85.666373,41.39759
"KOSCIUSKO ","9462 NORTH SR 19  17 , ETNA GREEN , IN","IN",4,26,2010,-86.001961,41.361335
"KOSCIUSKO ","1829  E MADISON, HOWARD , IN","IN",5,28,2013,-87.369806,39.796803
"KOSCIUSKO ","5456 NORTH 200 E , LEESBURG , IN","IN",6,9,2007,-85.805266,41.314046
"KOSCIUSKO ","5219 E NORTH 500  4 , LEESBURG , IN","IN",6,8,2010,-85.744918,41.307943
"KOSCIUSKO ","308  SMITH STREET  , LEESBURG , IN","IN",1,28,2013,-85.844903,41.329507
"KOSCIUSKO ","72079 STATE ROAD 19 , MILFORD , IN","IN",7,16,2004,-85.863787,41.44883
"KOSCIUSKO ","12373 CREEK BEND DR , MILFORD , IN","IN",7,20,2005,-85.86083,41.412604
"KOSCIUSKO ","203 EAST WILLIAMS STREET 7 , MILFORD , IN","IN",8,8,2008,-85.844477,41.412092
"KOSCIUSKO ","13317 NORTH 700 WEST , NAPPANEE , IN","IN",8,24,2007,-85.982236,41.424022
"KOSCIUSKO ","56 EMS T4 LANE , NORTH WEBSTER , IN","IN",4,16,2008,-85.978162,41.652077
"KOSCIUSKO ","8725 EAST RYERSON ROAD , PIERCETON , IN","IN",10,23,2006,-85.677406,41.18129
"KOSCIUSKO ","4773 SOUTH E 100, PIERCETON , IN","IN",5,1,2010,-85.752582,41.221143
"KOSCIUSKO ","519 HARBOUR LANDING , SYRACUSE , IN","IN",3,24,2004,-85.740734,41.418537
"KOSCIUSKO ","8106 HATCHERY E RD , SYRACUSE , IN","IN",5,27,2004,-85.688981,41.376901
"KOSCIUSKO ","9380 NORTH KOHER ROAD , SYRACUSE , IN","IN",5,31,2006,-85.661655,41.371414
"KOSCIUSKO ","700 WEST BROOKLYN STREET 2 , SYRACUSE , IN","IN",12,20,2007,-85.75697,41.424334
"KOSCIUSKO ","519 TURTLE BAY DRIVE , SYRACUSE , IN","IN",4,5,2008,-85.740457,41.41904
"KOSCIUSKO ","11730 NORTH ELM GROVE DRIVE , SYRACUSE , IN","IN",7,31,2008,-85.677805,41.404884
"KOSCIUSKO ","605 NORTH DOLAN DRIVE , SYRACUSE , IN","IN",8,15,2008,-85.752525,41.425865
"KOSCIUSKO ","9795 EAST CHIKADEE DRIVE , SYRACUSE , IN","IN",10,26,2008,-85.657405,41.373476
"KOSCIUSKO ","10310 NORTH BUTTERMILK DRIVE  , SYRACUSE , IN","IN",10,11,2012,-85.668498,41.385806
"KOSCIUSKO ","916  HANSING STREET  , SYRACUSE , IN","IN",7,13,2013,-85.736628,41.411086
"KOSCIUSKO ","5691 WEST WOODLAND LANE , WARSAW , IN","IN",7,13,2007,-85.748358,41.150387
"KOSCIUSKO ","2509 EAST CENTER STREET 6 , WARSAW , IN","IN",1,25,2010,-85.822643,41.238035
"KOSCIUSKO ","3160  STONEBURNER ROAD 2 , WARSAW , IN","IN",4,10,2010,-85.777536,41.280851
"KOSCIUSKO ","1091 NORTH 400 E, WARSAW , IN","IN",4,19,2010,-85.765683,41.251189
"KOSCIUSKO ","4265 NORTH DEER RUN, WARSAW , IN","IN",5,7,2010,-85.826189,41.295723
"KOSCIUSKO ","33  EMS B60 LANE  , WARSAW , IN","IN",5,18,2010,-85.832634,41.234583
"KOSCIUSKO ","  3699 N 175 EAST 36, WARSAW , IN","IN",10,24,2012,-85.81189,41.288048
"KOSCIUSKO ","2204 EAST MARKET STREET  , WARSAW , IN","IN",10,28,2012,-85.827394,41.236929
"KOSCIUSKO ","106  BOYDSTON, WARSAW , IN","IN",10,31,2012,-85.856901,41.228366
"KOSCIUSKO ","2441 EAST 250 STREET 131 , WARSAW , IN","IN",11,30,2012,-85.796529,41.19873
"KOSCIUSKO ","112 NORTH SCOTT STREET A , WARSAW , IN","IN",2,6,2013,-85.842825,41.238165
"KOSCIUSKO ","213 EAST CENTER  A , WARSAW , IN","IN",7,29,2013,-85.855224,41.238166
"KOSCIUSKO ","3762  OLD 30 ROAD  , WARSAW , IN","IN",7,29,2013,-85.789223,41.223655
"KOSCIUSKO ","5729 NORTH WOODLAND LANE  , WARSAW , IN","IN",8,7,2013,-85.748358,41.149863
"LAGRANGE ","4225 SR 9 N 100 , HOWE , IN","IN",3,13,2005,-85.445803,41.710668
"LAGRANGE ","4285 NORTH SR 9 , HOWE , IN","IN",8,12,2006,-85.425914,41.703662
"LAGRANGE ","7425 NORTH 50 EAST #7 , HOWE , IN","IN",7,12,2007,87.14802,27.23998
"LAGRANGE ","4285 NORTH SR 9 55 , HOWE , IN","IN",6,29,2008,-85.425914,41.703662
"LAGRANGE ","5300 NORTH SR 3 , HOWE , IN","IN",8,25,2008,-85.279915,41.68906
"LAGRANGE ","3145 EAST 695 N , HOWE , IN","IN",10,10,2008,-85.366611,41.742664
"LAGRANGE ","7715 EAST 750 NORTH, HOWE , IN","IN",3,14,2013,-85.279768,41.753635
"LAGRANGE ","205 NURSERY ST , LAGRANGE , IN","IN",11,11,2004,-85.416727,41.651555
"LAGRANGE ","7510 EAST 625 S , LAGRANGE , IN","IN",2,9,2006,-85.286019,41.554745
"LAGRANGE ","4020 EAST 175 N , LAGRANGE , IN","IN",10,1,2006,-85.34906,41.670631
"LAGRANGE ","701 HAWPATCH STREET , LAGRANGE , IN","IN",11,22,2006,-85.420921,41.638115
"LAGRANGE ","400 NORTH WALNUT STREET 2 , LAGRANGE , IN","IN",12,3,2007,-85.415421,41.646839
"LAGRANGE ","4985 EAST US 20, LAGRANGE , IN","IN",5,2,2009,-85.331441,41.642274
"LAGRANGE ","2880 EAST 050 NORTH, LAGRANGE , IN","IN",5,7,2013,-84.970228,41.650166
"LAGRANGE ","6270 EAST 250 NORTH , MONGO , IN","IN",2,19,2008,-85.287306,41.678176
"LAGRANGE ","7855 NORTH 1050 E , ORLAND , IN","IN",10,18,2007,-85.225383,41.755577
"LAGRANGE ","8200 1150 W N , SHIPSHEWANA , IN","IN",7,18,2005,-85.838593,41.591203
"LAGRANGE ","2775 NORTH 910 W , SHIPSHEWANA , IN","IN",5,22,2006,-85.601523,41.680543
"LAGRANGE ","5885 NORTH 1080 WEST , SHIPSHEWANA , IN","IN",9,28,2007,-85.635925,41.724177
"LAGRANGE ","7620 NORTH 900 W , SHIPSHEWANA , IN","IN",3,12,2008,-85.602171,41.74989
"LAGRANGE ","7985 NORTH 1200 WEST ROAD , SHIPSHEWANA , IN","IN",5,30,2008,-85.656412,41.599914
"LAGRANGE ","6550 WEST 600 N, SHIPSHEWANA , IN","IN",5,26,2010,-85.553997,41.727136
"LAGRANGE ","10650 NORTH 555 W, SHIPSHEWANA , IN","IN",6,12,2013,-85.567362,41.67572
"LAGRANGE ","6530 SOUTH CR 900 EAST, SOUTH MILFORD , IN","IN",4,30,2009,-85.650395,39.233419
"LAGRANGE ","7430 SOUTH SR3, SOUTH MILFORD , IN","IN",5,30,2010,-85.80801,41.212666
"LAGRANGE ","3910 SOUTH 1175 E, STROH , IN","IN",5,27,2010,-85.199991,41.586699
"LAGRANGE ","335 EAST NORTH STREET , TOPEKA , IN","IN",9,20,2007,-85.535805,41.541326
"LAGRANGE ","215  MICHIGAN STREET  , TOPEKA , IN","IN",8,10,2013,-85.5406,41.534288
"LAGRANGE ","1230 690 S E , WOLCOTTVILLE , IN","IN",8,16,2005,-85.510097,41.322027
"LAGRANGE ","131 NORTH MAIN STREET , WOLCOTTVILLE , IN","IN",3,29,2006,-85.366596,41.526422
"LAGRANGE ","9695 SOUTH 800 , WOLCOTTVILLE , IN","IN",8,30,2006,-85.242941,41.526538
"LAGRANGE ","7125 SOUTH 200 E HIGHWAY , WOLCOTTVILLE , IN","IN",10,31,2006,-85.386315,41.538736
"LAGRANGE ","103 NORTH 2ND STREET 2 , WOLCOTTVILLE , IN","IN",6,3,2008,-85.368966,41.525964
"LAGRANGE ","655 EAST 800 S LOT 18 , WOLCOTTVILLE , IN","IN",6,14,2008,-85.314256,41.526173
"LAGRANGE ","8980 EAST 500 S , WOLCOTTVILLE , IN","IN",9,30,2008,-85.253329,41.570157
"LAGRANGE ","9315 EAST 535 S CIRCLE  , WOLCOTTVILLE , IN","IN",1,18,2010,-85.250444,41.56566
"LAGRANGE ","206  BOOTH STREET  , WOLCOTTVILLE , IN","IN",7,22,2012,-85.368725,41.53134
"LAGRANGE ","11990 EAST 650 S LOT 11, WOLCOTTVILLE , IN","IN",10,28,2012,-85.286364,41.547678
"LAGRANGE ","  3600 N 600 EAST, WOLCOTTVILLE , IN","IN",4,1,2013,-85.309264,41.59082
"LAKE ","3912 WEST 113TH AVENUE , CROWN POINT , IN","IN",7,21,2006,-87.382189,41.413125
"LAKE ","776 EAST SOUTH STREET , CROWN POINT , IN","IN",2,15,2007,-87.355494,41.413042
"LAKE ","7207 NEW JERSEY AVE , HAMMOND , IN","IN",8,31,2005,-87.437986,41.582563
"LAKE ","8250 LOUISIANA ST , MERRILLVILLE , IN","IN",3,24,2004,-87.319774,41.46874
"LAKE ","2007 89TH E AVE , MERRILLVILLE , IN","IN",4,27,2005,-87.311477,41.456493
"LAPORTE ","410  LINCOLNWAY STREET 5 , LAPORTE , IN","IN",1,27,2010,-86.717626,41.61301
"LAPORTE ","1083 EAST STATE  2 408 ROAD  , LAPORTE , IN","IN",1,20,2013,-86.677002,41.595805
"LAPORTE ","10303 US 12 NE , MICHIGAN CITY , IN","IN",4,3,2004,-86.805923,41.756437
"LAPORTE ","207 MAY , MICHIGAN CITY , IN","IN",2,21,2005,-86.897701,41.70295
"LAPORTE ","5310 600 WEST N , MICHIGAN CITY , IN","IN",2,26,2005,-87.250316,41.530607
"LAPORTE ","8115  EASTLAND DRIVE  , MICHIGAN CITY , IN","IN",4,29,2013,-86.915355,41.677682
"LAWRENCE ","1315 F ST , BEDFORD , IN","IN",8,19,2005,-86.478481,38.864097
"LAWRENCE ","1615 5TH STREET , BEDFORD , IN","IN",9,15,2006,-86.492564,38.874344
"LAWRENCE ","1306 F STREET , BEDFORD , IN","IN",3,13,2007,-86.478329,38.864169
"LAWRENCE ","267  GREENHILL ROAD  , BEDFORD , IN","IN",10,13,2012,-86.558351,38.91099
"LAWRENCE ","1806  30TH STREET 3 , BEDFORD , IN","IN",1,8,2013,-86.497127,38.84533
"LAWRENCE ","2624  R STREET  , BEDFORD , IN","IN",1,10,2013,-86.49651,38.849967
"LAWRENCE ","525  SKYLINE, BEDFORD , IN","IN",1,15,2013,-86.515196,38.844555
"LAWRENCE ","624  DONICA CHURCH ROAD  , BEDFORD , IN","IN",4,17,2013,-86.479538,38.940574
"LAWRENCE ","2625  R STREET  , BEDFORD , IN","IN",6,8,2013,-86.49666,38.849966
"LAWRENCE ","66  PATRICIA LANE  , BEDFORD , IN","IN",7,16,2013,-86.352985,38.838056
"LAWRENCE ","1553 MOTO CROSS ROAD , MITCHELL , IN","IN",3,8,2006,-86.514155,38.775612
"LAWRENCE ","513 SOUTH 5TH STREET , MITCHELL , IN","IN",4,10,2006,-86.469209,38.728225
"LAWRENCE ","619 CURRY STREET , MITCHELL , IN","IN",6,11,2008,-86.474647,38.724564
"LAWRENCE ","205  MISSISSIPPI STREET  , MITCHELL , IN","IN",6,15,2013,-86.46681,38.733384
"LAWRENCE ","11711 EAST 975 N , ODON , IN","IN",5,11,2008,-86.985748,38.797849
"LAWRENCE ","704  WALNUT STREET D , OOLITIC , IN","IN",3,6,2013,-86.522184,38.894953
"LAWRENCE ","1771  STATE ROAD 158, WILLIAMS , IN","IN",1,13,2010,-86.648803,38.856519
"LAWRENCE ","289  DOGWOOD ACRES, WILLIAMS , IN","IN",7,16,2013,-86.600578,38.771215
"MADISON ","1141 NORTH PARK AVENUE 64 , ALEXANDRIA , IN","IN",6,5,2010,-85.67581,40.26282
"MADISON ","112 NORTH HARRISON STREET 6 , ALEXANDRIA , IN","IN",10,4,2012,-85.67581,40.26282
"MADISON ","  625 1/2 E ADAMS STREET STREET  , ALEXANDRIA , IN","IN",11,13,2012,-85.67581,40.26282
"MADISON ","809 NORTH MINNESOTA AVENUE  , ALEXANDRIA , IN","IN",2,6,2013,-85.67581,40.26282
"MADISON ","  709 1/2 N CLINTON ST, ALEXANDRIA , IN","IN",3,7,2013,-85.67581,40.26282
"MADISON ","2427 VAN VUSKIAK , ANDERSON , IN","IN",6,21,2004,-85.620652,40.07123
"MADISON ","429 WHEELER AVENUE , ANDERSON , IN","IN",10,21,2008,-85.673027,40.104605
"MADISON ","1040  MAIN STREET  , ANDERSON , IN","IN",6,11,2010,-85.678115,40.105697
"MADISON ","1040  ALBRAMBA, ANDERSON , IN","IN",7,4,2012,-85.766164,40.141033
"MADISON ","1312 EAST 7TH STREET  , ANDERSON , IN","IN",7,9,2012,-85.663545,40.108997
"MADISON ","1425  PEARL STREET  , ANDERSON , IN","IN",10,3,2012,-85.674386,40.101932
"MADISON ","1807  BROWN STREET  , ANDERSON , IN","IN",10,5,2012,-85.682504,40.098405
"MADISON ","51  LEISURE LANE  , ANDERSON , IN","IN",10,15,2012,-85.704736,40.07716
"MADISON ","1911 EAST 45TH STREET  , ANDERSON , IN","IN",10,20,2012,-85.656693,40.069434
"MADISON ","827  DEWEY ENTRADA  , ANDERSON , IN","IN",10,21,2012,-85.70631,40.107677
"MADISON ","2755 EAST 12TH STREET  , ANDERSON , IN","IN",10,26,2012,-85.674334,40.104136
"MADISON ","403  VINEYARD, ANDERSON , IN","IN",11,5,2012,-85.683867,40.129857
"MADISON ","4203  BROWN STREET  , ANDERSON , IN","IN",11,19,2012,-85.684515,40.072823
"MADISON ","884 EAST HARTMAN ROAD  , ANDERSON , IN","IN",12,2,2012,-85.668023,40.149841
"MADISON ","1207  E. 29TH STREET  , ANDERSON , IN","IN",12,6,2012,-85.664429,40.087368
"MADISON ","220 EAST 4TH STREET  , ANDERSON , IN","IN",12,12,2012,-85.673433,40.111902
"MADISON ","2912  CENTRAL STREET  , ANDERSON , IN","IN",12,16,2012,-85.676756,40.087162
"MADISON ","217 EAST 15TH STREET  , ANDERSON , IN","IN",1,8,2013,-85.676269,40.101114
"MADISON ","4403  RIDGEVIEW ROAD  , ANDERSON , IN","IN",1,8,2013,-85.706279,40.054102
"MADISON ","2809  MORTON STREET  , ANDERSON , IN","IN",1,21,2013,-85.686097,40.088139
"MADISON ","1807  BROWN STREET  , ANDERSON , IN","IN",1,23,2013,-85.682504,40.098405
"MADISON ","705 EAST 6TH STREET  , ANDERSON , IN","IN",1,29,2013,-85.670401,40.109841
"MADISON ","1613  DEWEY STREET  , ANDERSON , IN","IN",2,4,2013,-85.706206,40.099875
"MADISON ","1212  PEARL STREET 209 , ANDERSON , IN","IN",2,14,2013,-85.674257,40.104035
"MADISON ","2428 EAST 38TH STREET  , ANDERSON , IN","IN",2,21,2013,-85.623961,40.076652
"MADISON ","1425 EAST 3RD STREET  , ANDERSON , IN","IN",2,25,2013,-85.651978,40.113101
"MADISON ","2702  FOUNTAIN STREET  , ANDERSON , IN","IN",3,9,2013,-85.709535,40.088897
"MADISON ","2608  CHIPPEWA DRIVE  , ANDERSON , IN","IN",3,12,2013,-85.673494,40.143232
"MADISON ","1813  MORTON STREET  , ANDERSON , IN","IN",3,28,2013,-85.686346,40.098181
"MADISON ","503  CENTRAL AVENUE  , ANDERSON , IN","IN",4,8,2013,-85.670526,40.11089
"MADISON ","1604  MORTON STREET  , ANDERSON , IN","IN",4,8,2013,-85.68616,40.10004
"MADISON ","2610  MORTON STREET  , ANDERSON , IN","IN",4,18,2013,-85.685962,40.089946
"MADISON ","2418  MELODY LANE  , ANDERSON , IN","IN",4,25,2013,-85.650731,40.139698
"MADISON ","210  PEAR STREET  , ANDERSON , IN","IN",4,26,2013,-86.362065,40.191238
"MADISON ","129  SUZI LANE  , ANDERSON , IN","IN",5,8,2013,-85.648984,40.093133
"MADISON ","721 EAST FIFTH STREET  , ANDERSON , IN","IN",5,15,2013,-85.670273,40.110838
"MADISON ","4020  SOMERSET DRIVE  , ANDERSON , IN","IN",5,16,2013,-85.621392,40.139554
"MADISON ","61  LEISURE LANE  , ANDERSON , IN","IN",5,30,2013,-85.704129,40.077935
"MADISON ","2128  CENTRAL AVENUE  , ANDERSON , IN","IN",7,18,2013,-85.676717,40.095176
"MADISON ","2435  JACKSON STREET  , ANDERSON , IN","IN",8,13,2013,-85.68053,40.091556
"MADISON ","1805 EAST 24TH STREET  , ANDERSON , IN","IN",8,30,2013,-85.661865,40.092352
"MADISON ","1920 A N ST B , ELWOOD , IN","IN",4,5,2005,-85.836463,40.278959
"MADISON ","2606 NORTH P STREET  , ELWOOD , IN","IN",1,8,2013,-85.827767,40.262614
"MADISON ","2005  N Q. STREET  , ELWOOD , IN","IN",4,19,2013,-85.835648,40.261494
"MADISON ","232  N 12TH STREET  , ELWOOD , IN","IN",5,8,2013,-85.84635,40.278502
"MADISON ","4  LINCOLN CIRCLE  , ELWOOD , IN","IN",5,16,2013,-85.816833,40.269587
"MADISON ","1019 NORTH 11TH STREET  , ELWOOD , IN","IN",8,9,2013,-85.847626,40.286254
"MADISON ","712 EAST 3RD STREET  , MUNCIE , IN","IN",12,18,2012,-85.379592,40.186195
"MADISON ","231 1/2 STATE E , PENDLETON , IN","IN",4,6,2004,-85.745651,40.002476
"MARION ","2204  ALBANY 1/2 STREET  , BEECH GROVE , IN","IN",12,5,2012,-86.413075,39.429564
"MARION ","9055 WEST CRAWFORDSVILLE , CLERMONT , IN","IN",12,31,2005,-86.322576,39.815851
"MARION ","3061 BENTWOOD DR 2B , INDIANAPOLIS , IN","IN",2,6,2004,-86.213598,39.904602
"MARION ","1367 SILVER , INDIANAPOLIS , IN","IN",2,23,2004,-86.178843,39.748241
"MARION ","1930 PARKER N , INDIANAPOLIS , IN","IN",3,18,2004,-86.113351,39.875983
"MARION ","6802 BITTERSWEET , INDIANAPOLIS , IN","IN",3,19,2004,-85.94327,39.881801
"MARION ","3705 VALLEY LAKE DR , INDIANAPOLIS , IN","IN",4,2,2004,-86.102644,39.641924
"MARION ","1029 BLAINE AVE , INDIANAPOLIS , IN","IN",6,10,2004,-86.188561,39.753917
"MARION ","3330 MERIDIAN N ST 212 , INDIANAPOLIS , IN","IN",12,22,2004,-86.15719,39.863715
"MARION ","5206 MANN RD , INDIANAPOLIS , IN","IN",6,23,2005,-86.243531,39.690555
"MARION ","1162 (B) ENGLISH AVE , INDIANAPOLIS , IN","IN",10,4,2005,-86.139122,39.759721
"MARION ","2104 SOUTH DELAWARE , INDIANAPOLIS , IN","IN",3,13,2006,-86.155511,39.739291
"MARION ","2422 NORTH DEARBORN , INDIANAPOLIS , IN","IN",5,13,2006,-86.112034,39.802281
"MARION ","2330 SOUTH VILLA AVENUE , INDIANAPOLIS , IN","IN",5,23,2006,-86.126046,39.7389
"MARION ","3336 SOUTH RYBOLT AVENUE , INDIANAPOLIS , IN","IN",10,10,2006,-86.232171,39.714268
"MARION ","1117 HEATHERWOOD DRIVE , INDIANAPOLIS , IN","IN",3,28,2007,-86.273255,39.750609
"MARION ","511 EAST TROY AVENUE  , INDIANAPOLIS , IN","IN",1,28,2010,-86.148719,39.72254
"MARION ","9625 EAST 30TH STREET  , INDIANAPOLIS , IN","IN",1,3,2013,-85.997885,39.811439
"MARION ","542 NORTH EASTERN, INDIANAPOLIS , IN","IN",3,29,2013,-86.117935,39.775175
"MARION ","10109 PEAR TREE LANE , LAWRENCE , IN","IN",2,24,2006,-85.989722,39.849992
"MARSHALL ","106 WALNUT ST , ARGOS , IN","IN",3,21,2004,-86.254137,41.237186
"MARSHALL ","15709 LILAC ROAD , ARGOS , IN","IN",5,9,2006,-86.280115,41.249482
"MARSHALL ","8115 NORTH 20C , ARGOS , IN","IN",10,15,2008,-86.322671,41.183095
"MARSHALL ","5663  18TH ROAD  , ARGOS , IN","IN",1,14,2013,-86.225134,41.204459
"MARSHALL ","13117  HICKORY ROAD  , ARGOS , IN","IN",2,11,2013,-86.192605,41.286916
"MARSHALL ","17177  KENILWORTH, ARGOS , IN","IN",5,6,2013,-86.254391,41.227642
"MARSHALL ","17177  KENILWORTH ROAD  , ARGOS , IN","IN",7,18,2013,-86.254391,41.227642
"MARSHALL ","4515  WEST SHORE DRIVE 2 , BREMEN , IN","IN",7,27,2012,-86.229844,41.416365
"MARSHALL ","421 NORTH EAST STREET  , BREMEN , IN","IN",5,19,2013,-86.143566,41.449047
"MARSHALL ","20841 STATE ROAD 8 RD , CULVER , IN","IN",5,5,2004,-86.462633,41.287628
"MARSHALL ","7970 COUNTRY BREEZE E. W DR , CULVER , IN","IN",9,1,2004,-86.445291,41.171172
"MARSHALL ","12699 SR 17 , CULVER , IN","IN",10,27,2004,-86.415035,41.292447
"MARSHALL ","12665 SR 17 1/2 , CULVER , IN","IN",1,31,2005,-86.41496,41.292939
"MARSHALL ","301 CALE ST C2 , LA PAZ , IN","IN",2,23,2004,-86.306618,41.453373
"MARSHALL ","209  MAIN STREET  , LA PAZ , IN","IN",1,15,2010,-86.309264,41.458782
"MARSHALL ","20985 12TH W RD , PLYMOUTH , IN","IN",1,23,2004,-86.375695,41.299422
"MARSHALL ","308 PLUM N ST , PLYMOUTH , IN","IN",12,8,2004,-86.312599,41.337581
"MARSHALL ","1012 WASHINGTON W ST , PLYMOUTH , IN","IN",12,16,2004,-86.31994,41.3414
"MARSHALL ","5205 QUEEN N RD , PLYMOUTH , IN","IN",9,12,2005,-86.377136,41.40142
"MARSHALL ","20733 12TH W RD , PLYMOUTH , IN","IN",9,27,2005,-86.375695,41.299422
"MARSHALL ","1711 RITTER W ST , PLYMOUTH , IN","IN",10,11,2005,-86.331063,41.344688
"MARSHALL ","115 SHALLEY DRIVE , PLYMOUTH , IN","IN",12,30,2005,-86.309947,41.348182
"MARSHALL ","19194 LINCOLN HIGHWAY , PLYMOUTH , IN","IN",3,8,2006,-86.428707,41.360804
"MARSHALL ","10975 HAWTHORN ROAD , PLYMOUTH , IN","IN",3,22,2006,-86.202534,41.317922
"MARSHALL ","19361 WEST LINCOLN HIGHWAY , PLYMOUTH , IN","IN",6,23,2006,-86.431373,41.360613
"MARSHALL ","909 NORTH WALNUT STREET , PLYMOUTH , IN","IN",9,3,2006,-86.312544,41.347281
"MARSHALL ","15431 WEST 9TH ROAD , PLYMOUTH , IN","IN",11,14,2006,-86.276196,41.343215
"MARSHALL ","15580 WEST 12TH ROAD , PLYMOUTH , IN","IN",1,2,2007,-86.413079,41.302731
"MARSHALL ","20733 12TH ROAD , PLYMOUTH , IN","IN",4,26,2007,-86.424675,41.2953
"MARSHALL ","904 NORTH MICHIGAN STREET , PLYMOUTH , IN","IN",10,2,2008,-86.309942,41.347422
"MARSHALL ","626 MINER STREET , PLYMOUTH , IN","IN",10,9,2008,-86.304977,41.334805
"MARSHALL ","425 LAKE AVENUE 4 , PLYMOUTH , IN","IN",11,2,2008,-86.312893,41.338364
"MARSHALL ","222.5 WEST LAPORTE STREET  , PLYMOUTH , IN","IN",1,11,2010,-86.323903,41.339563
"MARSHALL ","310  SKYLANE DRIVE 1F , PLYMOUTH , IN","IN",1,21,2010,-86.312927,41.360302
"MARSHALL ","326  PENNSYLVANIA AVENUE  , PLYMOUTH , IN","IN",2,6,2010,-86.30546,41.33835
"MARSHALL ","1711  RITTER STREET  , PLYMOUTH , IN","IN",10,4,2012,-86.331063,41.344688
"MARSHALL ","1001  LAKE AVENUE 1/2 , PLYMOUTH , IN","IN",12,17,2012,-86.282786,41.435009
"MARSHALL ","1420  E MADISON STREET 24 , PLYMOUTH , IN","IN",2,13,2013,-86.325452,41.344157
"MARSHALL ","1008 NORTH PLUM, PLYMOUTH , IN","IN",3,7,2013,-86.313728,41.348269
"MARSHALL ","1112  N. MICHIGAN AVENUE  , PLYMOUTH , IN","IN",4,2,2013,-86.310185,41.349301
"MARSHALL ","308 EAST WASHINGTON STREET  , PLYMOUTH , IN","IN",4,9,2013,-86.305227,41.341905
"MARSHALL ","313 EAST WASHINGTON STREET  , PLYMOUTH , IN","IN",4,30,2013,-86.305163,41.341908
"MARSHALL ","713  OAK HILL AVENUE  , PLYMOUTH , IN","IN",5,12,2013,-86.316991,41.330952
"MARSHALL ","228  ELLIOT STREET  , PLYMOUTH , IN","IN",6,14,2013,-86.308131,41.348861
"MARSHALL ","712 NORTH 4TH STREET  , PLYMOUTH , IN","IN",7,22,2013,-86.317624,41.345235
"MARTIN ","702 SOUTHWEST SECOND STREET 1 , LOOGOOTEE , IN","IN",5,22,2004,-86.888379,38.822556
"MARTIN ","700 JACKSON STREET , LOOGOOTEE , IN","IN",2,15,2005,-86.921432,38.671136
"MARTIN ","1354 OLD SCHOOL ROAD , LOOGOOTEE , IN","IN",3,16,2006,-86.899388,38.558139
"MARTIN ","105 EAST WASHINGTON STREET , LOOGOOTEE , IN","IN",11,16,2006,-86.919501,38.672149
"MARTIN ","13368 CR 550 S , LOOGOOTEE , IN","IN",11,20,2006,-85.160406,39.206717
"MARTIN ","301 NORTH FIRST STREET  , LOOGOOTEE , IN","IN",2,12,2013,-86.915852,38.677386
"MARTIN ","304  SHERIDAN STREET  , LOOGOOTEE , IN","IN",7,11,2013,-86.917781,38.673936
"MARTIN ","903 NORTH MAIN STREET  , SHOALS , IN","IN",1,11,2010,-86.786986,38.669571
"MARTIN ","15510 NORTH STATE ROAD 450, SHOALS , IN","IN",4,23,2013,-86.806608,38.722113
"MIAMI ","2794 1150 SOUTH W , BUNKER HILL , IN","IN",2,3,2004,-85.089736,39.561313
"MIAMI ","125 BROADWAY E , BUNKER HILL , IN","IN",5,26,2004,-86.101829,40.660104
"MIAMI ","171 EAST 3RD STREET LOT 24 , BUNKER HILL , IN","IN",3,23,2013,-86.101539,40.66648
"MIAMI ","305 COMMERCE W , MACY , IN","IN",6,21,2004,-86.127225,40.959106
"MIAMI ","1955 EAST 1050 STREET  , MIAMI , IN","IN",12,17,2012,-86.107966,40.613983
"MIAMI ","829 MAIN W ST 101 , PERU , IN","IN",2,10,2004,-86.092846,40.744775
"MIAMI ","1603 STATE ROAD 19 N 17 , PERU , IN","IN",6,6,2004,-86.049968,40.788309
"MIAMI ","2843 HILLTOP DR , PERU , IN","IN",10,9,2004,-86.100054,40.723266
"MIAMI ","407 ADAMS ST , PERU , IN","IN",5,27,2005,-86.058472,40.764632
"MIAMI ","347 HARRISON AVE , PERU , IN","IN",6,3,2005,-86.060538,40.769943
"MIAMI ","325 COLUMBIA ST , PERU , IN","IN",6,16,2005,-86.062476,40.76254
"MIAMI ","410 2ND W ST , PERU , IN","IN",8,22,2005,-85.986392,40.653946
"MIAMI ","233 3RD E ST , PERU , IN","IN",10,1,2005,-86.090417,40.74436
"MIAMI ","701 EGYPT HILL W , PERU , IN","IN",10,16,2005,-86.083342,40.74102
"MIAMI ","1081 CANAL W ST , PERU , IN","IN",10,21,2005,-86.101412,40.744039
"MIAMI ","85 EAST WARREN STREET , PERU , IN","IN",11,19,2005,-86.062713,40.748968
"MIAMI ","778 NORTH WAYNE STREET , PERU , IN","IN",12,14,2005,-86.063155,40.77068
"MIAMI ","82 EAST FRANKLIN STREET , PERU , IN","IN",4,27,2006,-86.06305,40.750141
"MIAMI ","18 EAST FRANKLIN STREET , PERU , IN","IN",8,20,2006,-86.064959,40.749247
"MIAMI ","330 JACKSON AVENUE , PERU , IN","IN",1,26,2007,-86.061523,40.768232
"MIAMI ","2943 WEST 300 S LOT 8 , PERU , IN","IN",5,16,2007,-86.12468,40.721428
"MIAMI ","2880 WEST 560 S , PERU , IN","IN",6,15,2007,-86.127792,40.683998
"MIAMI ","213 EAST 3RD STREET , PERU , IN","IN",9,9,2007,-86.062066,40.755629
"MIAMI ","4650 WEST OLD STOONE ROAD , PERU , IN","IN",10,19,2007,-86.161533,40.746114
"MIAMI ","235 PEARCY LANE , PERU , IN","IN",2,18,2008,-86.072463,40.739933
