"COUNTY","FullAddress","STATE","Month","Date","Year","lon","lat"
"ALGER ","801  PROSPECT STREET 4 , MUNISING , MI","MI",1,5,2014,-86.6460615,46.4021662
"ALGER ","721 WEST SUPERIOR STREET  , MUNISING , MI","MI",2,7,2014,-86.6637981,46.4151401
"ALLEGAN ","899 CYPRESS , ALLEGAN , MI","MI",2,7,2004,-85.850294,42.5484411
"ALLEGAN ","4359 108TH , ALLEGAN , MI","MI",2,12,2004,-85.8760706,42.4782031
"ALLEGAN ","3504 BABYLON ROAD , ALLEGAN , MI","MI",4,8,2004,-85.8911057,42.5543573
"ALLEGAN ","426 RIVER RD , ALLEGAN , MI","MI",5,20,2004,-85.8486967,42.5356661
"ALLEGAN ","2598 30TH , ALLEGAN , MI","MI",6,24,2004,-85.8434786,42.6097489
"ALLEGAN ","2744 32ND , ALLEGAN , MI","MI",7,13,2004,-85.861184,42.4331844
"ALLEGAN ","4334 110TH , ALLEGAN , MI","MI",9,6,2004,-85.9157049,42.491703
"ALLEGAN ","4266 SWAN LAKE DR , ALLEGAN , MI","MI",10,5,2004,-85.9650279,42.4631097
"ALLEGAN ","95 26TH , ALLEGAN , MI","MI",10,12,2004,-85.7976342,42.4269201
"ALLEGAN ","1114 44TH ST , ALLEGAN , MI","MI",11,21,2004,-85.9747992,42.5025957
"ALLEGAN ","586 KAYWOOD , ALLEGAN , MI","MI",1,18,2005,-85.6494976,42.4594619
"ALLEGAN ","2029 36TH , ALLEGAN , MI","MI",8,30,2005,-85.8983921,42.5671362
"ALLEGAN ","765 26TH , ALLEGAN , MI","MI",8,30,2005,-85.7984767,42.476004
"ALLEGAN ","103 GRANT STREET , ALLEGAN , MI","MI",9,6,2005,-85.864743,42.5279397
"ALLEGAN ","2428 38TH , ALLEGAN , MI","MI",9,6,2005,-85.9189631,42.5958905
"ALLEGAN ","44 WESLER DRIVE , ALLEGAN , MI","MI",1,24,2006,-85.8659652,42.4289694
"ALLEGAN ","1308 JENNINGS COURT , ALLEGAN , MI","MI",2,3,2006,-85.8280904,42.514818
"ALLEGAN ","3173 102ND , ALLEGAN , MI","MI",8,4,2006,-85.8543093,42.4347738
"ALLEGAN ","132ND AVENUE  , ALLEGAN , MI","MI",4,2,2009,-85.8126712,42.6531102
"ALLEGAN ","189  33RD STREET  , ALLEGAN , MI","MI",5,19,2009,-85.8662196,42.517503
"ALLEGAN ","2611  BASELINE ROAD  , ALLEGAN , MI","MI",4,16,2010,-85.8435888,42.4251231
"ALLEGAN ","2611  BASELINE ROAD  , ALLEGAN , MI","MI",4,16,2010,-85.8435888,42.4251231
"ALLEGAN ","1206 EAST VILLAGE DRIVE  , ALLEGAN , MI","MI",5,1,2010,-85.8224714,42.5089988
"ALLEGAN ","745  GRAND STREET  , ALLEGAN , MI","MI",5,7,2010,-85.8344195,42.5334746
"ALLEGAN ","3735  ADVENT LAKE ROAD  , ALLEGAN , MI","MI",7,12,2010,-85.9078732,42.4834709
"ALLEGAN ","1835  LINCOLN ROAD  , ALLEGAN , MI","MI",8,24,2010,-85.8875958,42.5526604
"ALLEGAN ","400 NORTH MAIN STREET  , ALLEGAN , MI","MI",11,26,2010,-85.8453147,42.5347571
"ALLEGAN ","2346  33RD STREET  , ALLEGAN , MI","MI",1,20,2011,-85.8697389,42.587463
"ALLEGAN ","103  GRANT STREET , ALLEGAN , MI","MI",1,10,2012,-85.864743,42.5279397
"ALLEGAN ","4353  118TH AVENUE  , ALLEGAN , MI","MI",11,2,2012,-85.9722007,42.5532371
"ALLEGAN ","540  36TH STREET  , ALLEGAN , MI","MI",12,13,2012,-85.8960732,42.4586911
"ALLEGAN ","950  37TH STREET  , ALLEGAN , MI","MI",5,15,2013,-85.9058315,42.4883105
"ALLEGAN ","1248  WELLS ROAD  , ALLEGAN , MI","MI",6,5,2013,-85.8117901,42.5107362
"ALLEGAN ","2323  28TH STREET  , ALLEGAN , MI","MI",6,16,2013,-85.8206608,42.5891865
"ALLEGAN ","2179  NELSON LANE  , ALLEGAN , MI","MI",11,10,2013,-85.8091118,42.5094375
"ALLEGAN ","4009  112TH AVENUE  , ALLEGAN , MI","MI",12,14,2013,-85.9366184,42.5063542
"ALLEGAN ","2933  108TH AVENUE  , ALLEGAN , MI","MI",3,2,2014,-85.8297198,42.4784154
"ALLEGAN ","4117  MONROE ROAD  , ALLEGAN , MI","MI",3,7,2014,-85.9460452,42.542509
"ALLEGAN ","500  STREETER AVENUE  BOX 26 , ALLEGAN , MI","MI",6,24,2014,-85.8553031,42.5291989
"ALLEGAN ","228  JAMES STREET , ALLEGAN , MI","MI",3,10,2015,-85.859342,42.526252
"ALLEGAN ","225  RIVERFRONT DRIVE , ALLEGAN , MI","MI",3,14,2015,-85.8505639,42.5272322
"ALLEGAN ","2933  108TH AVENUE , ALLEGAN , MI","MI",7,2,2015,-85.8297198,42.4784154
"ALLEGAN ","4359  108TH AVENUE , ALLEGAN , MI","MI",9,23,2015,-85.9700622,42.4768336
"ALLEGAN ","215  DONALD DRIVE , ALLEGAN , MI","MI",10,13,2015,-85.8625421,42.4360612
"ALLEGAN ","215  DONALD DRIVE , ALLEGAN , MI","MI",10,15,2015,-85.8625421,42.4360612
"ALLEGAN ","1739  39th STREET , ALLEGAN , MI","MI",3,2,2016,-85.9268353,42.5435713
"ALLEGAN ","3940  24TH STREET  , DORR , MI","MI",7,3,2012,-85.7809466,42.7044113
"ALLEGAN ","2198  BLUESTAR HIGHWAY 1 , FENNVILLE , MI","MI",9,6,2012,-86.210427,42.5777325
"ALLEGAN ","2346  54TH STREET , FENNVILLE , MI","MI",12,23,2014,-86.0754203,42.5901003
"ALLEGAN ","1713  51ST STREET , FENNVILLE , MI","MI",4,7,2015,-86.04394,42.5438264
"ALLEGAN ","5575  113TH AVENUE , FENNVILLE , MI","MI",12,8,2015,-86.0891325,42.5138006
"ALLEGAN ","131  WESLER DRIVE  , GOBLES , MI","MI",4,29,2010,-85.8660313,42.4289961
"ALLEGAN ","3053  BASELINE ROAD  , GOBLES , MI","MI",7,22,2011,-85.8491947,42.421003
"ALLEGAN ","42ND STREET  , HAMILTON , MI","MI",4,3,2009,-85.9572389,42.6956504
"ALLEGAN ","4728  RABBIT RIVER DRIVE BOX 3 , HAMILTON , MI","MI",2,18,2015,-86.0019515,42.6673526
"ALLEGAN ","863  LINCOLN STREET 7 , HOLLAND , MI","MI",5,23,2013,-86.0764647,42.7485252
"ALLEGAN ","287 WEST 40TH STREET B 212 , HOLLAND , MI","MI",3,3,2014,-86.1198311,42.7615767
"ALLEGAN ","1473 BIG LAKE DRIVE , HOPKINS , MI","MI",5,5,2008,-85.6892757,42.5623569
"ALLEGAN ","16TH  120TH, HOPKINS , MI","MI",4,6,2009,-85.7603024,42.6236425
"ALLEGAN ","3681  28TH STREET  , HOPKINS , MI","MI",7,29,2010,-85.8199608,42.6707434
"ALLEGAN ","920 118TH , MARTIN , MI","MI",8,27,2005,-85.6259993,42.5520108
"ALLEGAN ","1912 PLEASANT VIEW , MARTIN , MI","MI",2,12,2006,-85.6848808,42.5610196
"ALLEGAN ","1200  BLOCK 115TH AVENUE  , MARTIN , MI","MI",4,13,2009,-85.662227,42.5243429
"ALLEGAN ","1266 JAMES STREET , MUSKEGON , MI","MI",5,20,2008,-86.2123408,43.2433161
"ALLEGAN ","30 16TH S , OTSEGO , MI","MI",1,19,2004,-85.7007322,42.4230066
"ALLEGAN ","399 OAKS CROSSING , OTSEGO , MI","MI",5,11,2004,-85.6680995,42.4488238
"ALLEGAN ","1007 19TH , OTSEGO , MI","MI",8,24,2004,-85.730495,42.4923159
"ALLEGAN ","571 LINCOLN , OTSEGO , MI","MI",2,24,2005,-85.7299642,42.4604312
"ALLEGAN ","349 S. 16TH , OTSEGO , MI","MI",6,29,2005,-85.7005423,42.4472516
"ALLEGAN ","424 MORELL , OTSEGO , MI","MI",3,3,2006,-85.690633,42.4558051
"ALLEGAN ","1866 116TH , OTSEGO , MI","MI",4,28,2006,-85.7196109,42.537014
"ALLEGAN ","325 HERITAGE LANE , OTSEGO , MI","MI",7,15,2006,-85.6769817,42.444209
"ALLEGAN ","571 LINCOLN ROAD , OTSEGO , MI","MI",8,10,2006,-85.7299642,42.4604312
"ALLEGAN ","460 21ST , OTSEGO , MI","MI",9,14,2006,-85.7371633,42.4540863
"ALLEGAN ","512 LAWRENCE STREET , OTSEGO , MI","MI",4,8,2008,-85.6886917,42.4499682
"ALLEGAN ","113 SOUTH FAIR STREET  , OTSEGO , MI","MI",1,30,2010,-85.6954098,42.4600964
"ALLEGAN ","538 EAST HAMMOND STREET  , OTSEGO , MI","MI",4,16,2010,-85.6884849,42.4541976
"ALLEGAN ","1362 EAST M89  LOT 103 , OTSEGO , MI","MI",8,25,2010,-85.7741363,42.4423512
"ALLEGAN ","304 EAST HAMMOND STREET #2 , OTSEGO , MI","MI",1,4,2012,-78.8892089,36.024479
"ALLEGAN ","982  16TH STREET  , OTSEGO , MI","MI",1,18,2012,-85.7010484,42.4836377
"ALLEGAN ","2004  112TH STREET , OTSEGO , MI","MI",6,13,2012,-85.7420608,42.5086678
"ALLEGAN ","347  LINCOLN STREET  , OTSEGO , MI","MI",10,4,2012,-85.7043734,42.4560895
"ALLEGAN ","1362  M-89 HIGHWAY 112 , OTSEGO , MI","MI",3,12,2014,-85.6783506,42.4501039
"ALLEGAN ","337  LINCOLN STREET , OTSEGO , MI","MI",8,19,2015,-85.7037366,42.4559634
"ALLEGAN ","305 RIVERVIEW DR , PLAINWELL , MI","MI",2,4,2004,-85.5854072,42.4269481
"ALLEGAN ","722 BRITTANY , PLAINWELL , MI","MI",6,28,2004,-85.6397384,42.4732384
"ALLEGAN ","305 RIVERVIEW DR , PLAINWELL , MI","MI",9,28,2004,-85.5854072,42.4269481
"ALLEGAN ","15101 BURCHETT RD , PLAINWELL , MI","MI",10,7,2004,-85.6489035,42.4400357
"ALLEGAN ","12728 BONIFACE PT , PLAINWELL , MI","MI",12,16,2004,-85.5370951,42.4973401
"ALLEGAN ","305 RIVERVIEW DR , PLAINWELL , MI","MI",1,4,2005,-85.5854072,42.4269481
"ALLEGAN ","722 BRITTANY ST , PLAINWELL , MI","MI",5,2,2005,-85.6397384,42.4732384
"ALLEGAN ","982 RICHELIEU , PLAINWELL , MI","MI",5,2,2005,-85.639115,42.4709064
"ALLEGAN ","1232 KEITH ST , PLAINWELL , MI","MI",6,24,2005,-85.6647565,42.4485998
"ALLEGAN ","1044 MARSH ROAD , PLAINWELL , MI","MI",8,8,2005,-85.5592678,42.4953069
"ALLEGAN ","497 RIVERVIEW , PLAINWELL , MI","MI",5,20,2006,-85.5925478,42.4291733
"ALLEGAN ","147 SOUTH SHERWOOD STREET , PLAINWELL , MI","MI",6,8,2006,-85.6347377,42.442265
"ALLEGAN ","947 RICHELIEU , PLAINWELL , MI","MI",7,14,2008,-85.6388564,42.4694829
"ALLEGAN ","674 WEST BRIDGE STREET  , PLAINWELL , MI","MI",4,13,2010,-85.6545029,42.4426937
"ALLEGAN ","14895 SOUTH DOSTER ROAD , PLAINWELL , MI","MI",12,21,2014,-85.5434573,42.4336625
"ALLEGAN ","227  ROBIN STREET , PLAINWELL , MI","MI",7,29,2015,-85.6579916,42.4406083
"ALLEGAN ","5531 104TH ST , PULLMAN , MI","MI",5,26,2004,-86.0841656,42.4477592
"ALLEGAN ","102ND AVENUE  , PULLMAN , MI","MI",4,7,2009,-87.6317758,41.7088935
"ALLEGAN ","551  56TH STREET , PULLMAN , MI","MI",10,9,2011,-86.0902876,42.4587282
"ALLEGAN ","963  52 STREET  , PULLMAN , MI","MI",3,8,2014,-86.0517678,42.4890931
"ALLEGAN ","545  55TH STREET , PULLMAN , MI","MI",8,11,2015,-86.0805036,42.45939
"ALLEGAN ","122ND AVENUE  , SHELBYVILLE , MI","MI",4,7,2009,-85.595723,42.5813944
"ALLEGAN ","7TH STREET  , SHELBYVILLE , MI","MI",4,7,2009,-85.6126021,42.5997997
"ALLEGAN ","187 66TH STREET , SOUTH HAVEN , MI","MI",8,8,2005,-86.1875653,42.4325124
"ALLEGAN ","416 131ST STREET , WAYLAND , MI","MI",10,4,2006,-85.585566,42.6449755
"ALLEGAN ","3539  7TH STREET  , WAYLAND , MI","MI",3,7,2011,-85.6139436,42.6780413
"ALLEGAN ","3607  GARDEN STREET  , WAYLAND , MI","MI",5,2,2013,-85.6471971,42.6824147
"ALLEGAN ","  13TH ST NEAR 129TH AVE , WAYLAND , MI","MI",8,10,2015,-85.5836311,42.6305046
"ALPENA ","201 SOUTH 12TH AVENUE 1 , ALPENA , MI","MI",2,13,2014,-83.4461247,45.0713
"ALPENA ","226 E crapo STREET , ALPENA , MI","MI",3,9,2016,-83.4446176,45.0534371
"ALPENA ","2249  2nd STREET , LACHINE , MI","MI",3,10,2016,-83.7193159,45.0768323
"BARAGA ","627 N 3rd TERRACE , L'ANSE , MI","MI",2,12,2016,-88.4441465,46.7643812
"BARRY ","8020 DAY ROAD , BELLEVUE , MI","MI",2,20,2008,-85.1318855,42.4382224
"BARRY ","3231 CLOVERDALE RD , CLOVERDALE , MI","MI",6,9,2005,-85.4032408,42.543093
"BARRY ","7495 CEDAR CREEK RD , DELTON , MI","MI",10,23,2004,-85.3275042,42.5439443
"BARRY ","6305 TIGERLILY , DELTON , MI","MI",7,1,2005,-85.488763,42.5606349
"BARRY ","6491 LINDSEY RD , DELTON , MI","MI",7,2,2005,-85.5043762,42.5621257
"BARRY ","10995 SHELP LAKE DR , DELTON , MI","MI",12,2,2005,-85.5035596,42.5070364
"BARRY ","6305 TIGER LILY DR , DELTON , MI","MI",12,20,2005,-85.488763,42.5606349
"BARRY ","11922  COBB ROAD  , DELTON , MI","MI",7,6,2010,-85.3444134,42.4774548
"BARRY ","6642  WREVER LANE  , DELTON , MI","MI",7,6,2010,-85.4082292,42.4998539
"BARRY ","7757  GUERNSEY LAKE ROAD  , DELTON , MI","MI",9,14,2010,-85.444767,42.544832
"BARRY ","6425  KELLER ROAD  , DELTON , MI","MI",11,9,2011,-85.4137093,42.5596254
"BARRY ","4067 SOUTH SHORE DRIVE , DELTON , MI","MI",12,12,2014,-85.3662706,42.5578384
"BARRY ","11492  SPRAGUE ROAD , DELTON , MI","MI",3,12,2015,-85.4203782,42.4855534
"BARRY ","11175  EAST SHORE ROAD , DELTON , MI","MI",5,8,2015,-85.4168236,42.4897295
"BARRY ","8558 GURD RD , DOWLING , MI","MI",4,19,2005,-85.3177671,42.530532
"BARRY ","2940 LAWRENCE RD , HASTINGS , MI","MI",11,26,2004,-85.2315214,42.5660563
"BARRY ","1295 STARR SCHOOL RD , HASTINGS , MI","MI",1,12,2005,-85.2708329,42.6363482
"BARRY ","302 THORN E ST , HASTINGS , MI","MI",1,29,2005,-85.2846532,42.6514838
"BARRY ","3846 SOUTH M-43 HIGHWAY  , HASTINGS , MI","MI",1,13,2011,-85.2907794,42.7097765
"BARRY ","420 EAST MADISON STREET , HASTINGS , MI","MI",12,2,2011,-85.2824506,42.6423463
"BARRY ","1607 EAST DOWLING ROAD  , HASTINGS , MI","MI",8,26,2012,-85.2355178,42.5224922
"BARRY ","1966  YECKLEY ROAD  , HASTINGS , MI","MI",4,7,2013,-85.3306098,42.6313032
"BARRY ","317 EAST STATE STREET  , HASTINGS , MI","MI",6,13,2013,-85.2837952,42.6486855
"BARRY ","602 EAST GREEN STREET  , HASTINGS , MI","MI",6,21,2013,-85.2799118,42.6459453
"BARRY ","55  SUNDAGO PARK  , HASTINGS , MI","MI",7,3,2013,-85.1957708,42.6250643
"BARRY ","210 NORTH PARK STREET  , HASTINGS , MI","MI",8,17,2013,-85.2922213,42.6502115
"BARRY ","317 EAST BOND STREET  , HASTINGS , MI","MI",11,20,2013,-85.2837962,42.6432621
"BARRY ","403 SOUTH JEFFERSON STREET , HASTINGS , MI","MI",12,15,2014,-85.2875323,42.6458986
"BARRY ","15467 RICH LANE , HICKORY CORNERS , MI","MI",9,17,2008,-85.4400613,42.4281447
"BARRY ","14565  KELLOGG SCHOOL ROAD , HICKORY CORNERS , MI","MI",7,18,2014,-85.3760338,42.4410861
"BARRY ","  MCCANN\IRVING ROAD , MIDDLEVILLE , MI","MI",8,19,2015,-85.4429967,42.70114
"BARRY ","201  LINCOLN STREET , MIDDLEVILLE , MI","MI",11,16,2015,-85.4600598,42.7173623
"BARRY ","107 NORTH MAIN STREET  , NASHVILLE , MI","MI",5,13,2011,-85.0935482,42.6034537
"BARRY ","409  LENTZ STREET  , NASHVILLE , MI","MI",7,6,2013,-85.0861316,42.6062537
"BARRY ","844  SHERMAN, NASHVILLE , MI","MI",9,27,2013,-85.0819,42.6034669
"BARRY ","11545 W KINSEL HIGHWAY , NASHVILLE , MI","MI",8,15,2015,-85.0619516,42.5963652
"BARRY ","11321 9 MILE ROAD , PLAINWELL , MI","MI",12,12,2008,-85.509272,42.5496483
"BARRY ","11321  9 MILE ROAD  , PLAINWELL , MI","MI",4,2,2009,-85.509272,42.5496483
"BARRY ","12372  SUNSET CIRCLE  , PLAINWELL , MI","MI",8,14,2011,-85.5310811,42.4878177
"BARRY ","11604  PEACH TREE STREET  , PLAINWELL , MI","MI",1,18,2014,-85.536975,42.4995844
"BARRY ","6583 BOULTER RD , SHELBYVILLE , MI","MI",12,5,2005,-85.6372413,42.5941998
"BARRY ","7120 MARSH RD , SHELBYVILLE , MI","MI",12,5,2005,-85.5190122,42.5521817
"BARRY ","4268 WEST JOY ROAD , SHELBYVILLE , MI","MI",12,8,2014,-85.5393513,42.590691
"BARRY ","129924  RISON DRIVE  , WAYLAND , MI","MI",6,23,2010,-85.5418029,42.6364779
"BAY ","1003 FLORENCE E ST 2 , BAY CITY , MI","MI",10,2,2004,-83.8958869,43.6075807
"BAY ","4059  DAYBROOK DRIVE , BAY CITY , MI","MI",12,4,2014,-83.9198599,43.6221118
"BENZIE ","4  SEASONS ROAD  , BENZONIA , MI","MI",12,12,2013,-86.0921516,44.5913649
"BENZIE ","5626 THOMPSONVILLE S RD , THOMPSONVILLE , MI","MI",7,9,2004,-85.9381556,44.5474248
"BENZIE ","5660 THOMPSONVILLE S RD , THOMPSONVILLE , MI","MI",10,6,2004,-85.9381331,44.546897
"BERRIEN ","478 GARY AVE , BENTON HARBOR , MI","MI",4,11,2004,-86.464791,42.080087
"BERRIEN ","3398 RIVERSIDE ROAD , BENTON HARBOR , MI","MI",9,10,2007,-86.388803,42.1734269
"BERRIEN ","438 MILLBURG DRIVE , BENTON HARBOR , MI","MI",11,11,2007,-86.335277,42.115577
"BERRIEN ","2699 SOUTH M-139 HIGHWAY 140 , BENTON HARBOR , MI","MI",5,9,2009,-86.434576,42.070769
"BERRIEN ","4739  NORTH STREET  , BENTON HARBOR , MI","MI",7,21,2010,-86.3424998,42.1237542
"BERRIEN ","2390 EAST EUCLID AVENUE  , BENTON HARBOR , MI","MI",8,15,2012,-86.401133,42.14299
"BERRIEN ","2026  HATCH STREET  , BENTON HARBOR , MI","MI",8,24,2012,-86.410862,42.133331
"BERRIEN ","573  MIDWAY  2 , BENTON HARBOR , MI","MI",8,27,2012,-86.4186782,42.1241087
"BERRIEN ","846 N BENTON CENTER ROAD , BENTON HARBOR , MI","MI",9,12,2015,-86.3811659,42.129703
"BERRIEN ","9240 JERICHO RD , BRIDGMAN , MI","MI",9,18,2005,-86.534118,41.951243
"BERRIEN ","803 NORTH RED BUD TRAIL , BUCHANAN , MI","MI",7,26,2007,-86.3581873,41.8352901
"BERRIEN ","609 WEST 4TH STREET 28 , BUCHANAN , MI","MI",10,11,2007,-86.3742914,41.8326352
"BERRIEN ","2980 OAK FOREST ROAD , BUCHANAN , MI","MI",6,16,2008,-86.3872028,41.7665459
"BERRIEN ","406 WEST ROE STREET , BUCHANAN , MI","MI",7,18,2008,-86.369219,41.826154
"BERRIEN ","1005  VICTORY STREET , BUCHANAN , MI","MI",1,1,2012,-86.355724,41.837509
"BERRIEN ","105  FULTON , BUCHANAN , MI","MI",3,1,2015,-86.3605811,41.8350555
"BERRIEN ","5632 JILL ANNE DRIVE , COLOMA , MI","MI",4,25,2007,-86.321757,42.173361
"BERRIEN ","4241 EAST THAR ROAD , COLOMA , MI","MI",9,29,2008,-86.355694,42.2012069
"BERRIEN ","5394  PAW PAW LAKE ROAD  , COLOMA , MI","MI",4,1,2010,-86.2872098,42.2083916
"BERRIEN ","5949 NORTH COLOMA ROAD  , COLOMA , MI","MI",4,13,2010,-86.301326,42.2193206
"BERRIEN ","7180  ARIES LANE  , COLOMA , MI","MI",6,15,2011,-86.3581105,42.2416505
"BERRIEN ","7142  ARIES LANE , COLOMA , MI","MI",10,19,2011,-86.3584952,42.2413026
"BERRIEN ","6275  CENTRAL AVENUE 3 , COLOMA , MI","MI",10,25,2012,-86.373973,42.225911
"BERRIEN ","6220  APPLE STREET  , EAU CLAIRE , MI","MI",11,21,2010,-86.306427,41.986295
"BERRIEN ","5534  PARKWAY DRIVE  , EAU CLAIRE , MI","MI",12,12,2010,-86.323981,42.075959
"BERRIEN ","5582  TOUSLEY DRIVE  , EAU CLAIRE , MI","MI",1,3,2011,-86.322845,42.076869
"BERRIEN ","7076  BEAVER DRIVE , EAU CLAIRE , MI","MI",8,22,2015,-86.2867179,41.984889
"BERRIEN ","1010 FERRY STREET , NILES , MI","MI",9,24,2007,-86.2474189,41.831489
"BERRIEN ","1027 HERBERT , NILES , MI","MI",9,7,2008,-86.227782,41.817427
"BERRIEN ","301 17TH STREET C , NILES , MI","MI",11,14,2008,-86.2342369,41.830722
"BERRIEN ","902  OAK STREET  , NILES , MI","MI",7,21,2010,-86.24902,41.826706
"BERRIEN ","904  SYCAMORE STREET  , NILES , MI","MI",12,2,2011,-86.2488893,41.8305547
"BERRIEN ","1101.5  CEDAR STREET  , NILES , MI","MI",7,25,2012,-86.246487,41.829125
"BERRIEN ","1610 N 5TH STREET , NILES , MI","MI",4,1,2015,-86.25156,41.843675
"BERRIEN ","1610 N 5TH STREET , NILES , MI","MI",6,16,2015,-86.25156,41.843675
"BERRIEN ","3156  DETROIT ROAD , NILES , MI","MI",3,9,2016,-86.1308101,41.854268
"BERRIEN ","819  HIGHLAND AVENUE  , SAINT JOSEPH , MI","MI",7,24,2012,-86.483495,42.085637
"BERRIEN ","3101 RIVER RD 09 , SODUS , MI","MI",9,8,2004,-86.3958951,42.0606558
"BERRIEN ","604 WEST JOHN REERR ROAD , STEVENSVILLE , MI","MI",12,8,2006,-86.5194654,42.014487
"BERRIEN ","604 WEST JOHN BEERS ROAD , STEVENSVILLE , MI","MI",4,19,2007,-86.4675522,42.009063
"BERRIEN ","5355 M-140 N , WATERVLIET , MI","MI",10,5,2004,-86.244556,42.207523
"BRANCH ","603 STONEY POINT DRIVE , BRISTOL , MI","MI",12,30,2008,-85.6023643,44.3148443
"BRANCH ","273 WEST SOUTHERN ROAD , BRONSON , MI","MI",7,24,2006,-85.0935593,41.7819923
"BRANCH ","1167 HOLLOW ROAD , BRONSON , MI","MI",5,30,2007,-85.2705951,41.8683417
"BRANCH ","529 WEST CHICAGO ROAD , BRONSON , MI","MI",12,19,2008,-85.1430541,41.8963197
"BRANCH ","602 SOUTH PARHAM ROAD  , BRONSON , MI","MI",5,13,2009,-85.1650219,41.8250556
"BRANCH ","438 NORTH WALKER STREET  , BRONSON , MI","MI",8,30,2010,-85.1964576,41.8762936
"BRANCH ","216  BUCAHANON STREET  , BRONSON , MI","MI",2,7,2011,-85.1935742,41.8749666
"BRANCH ","216  BUCAHANON STREET  , BRONSON , MI","MI",2,7,2011,-85.1935742,41.8749666
"BRANCH ","1163  HOLLOW ROAD , BRONSON , MI","MI",10,7,2014,-85.2691532,41.8676273
"BRANCH ","232 NASH II RD , COLDWATER , MI","MI",8,15,2005,-85.0005215,41.9403263
"BRANCH ","343 PARADINE RD ` , COLDWATER , MI","MI",1,13,2006,-85.0121127,41.8511522
"BRANCH ","330 WEST PEARL STREET #8 , COLDWATER , MI","MI",11,2,2007,-97.3957119,28.6682278
"BRANCH ","125 EAST WASHINGTON STREET , COLDWATER , MI","MI",12,29,2007,-84.9964631,41.9372571
"BRANCH ","57 DIVISION STREET , COLDWATER , MI","MI",3,7,2008,-85.0009198,41.9384839
"BRANCH ","196 NORTH ANGOLA ROAD 2 , COLDWATER , MI","MI",4,7,2008,-85.0049588,41.9030078
"BRANCH ","647 JONESVILLE ROAD , COLDWATER , MI","MI",4,8,2008,-84.9478947,41.985565
"BRANCH ","89 SMITH STREET , COLDWATER , MI","MI",4,8,2008,-84.9917216,41.9449851
"BRANCH ","382 NORTH FREMONT ROAD , COLDWATER , MI","MI",6,2,2008,-84.9319452,41.8571527
"BRANCH ","247 EAST WASHINGTON STREET , COLDWATER , MI","MI",9,7,2008,-84.9916078,41.9365713
"BRANCH ","200 EAST GARFIELD ROAD 232 , COLDWATER , MI","MI",10,30,2008,-85.039546,41.9271989
"BRANCH ","243 WEST CHICAGO STREET 2 , COLDWATER , MI","MI",11,23,2008,-85.011203,41.9421599
"BRANCH ","30 PINE TREE LANE G , COLDWATER , MI","MI",12,27,2008,-84.9860339,41.9351108
"BRANCH ","204  HENRY STREET  , COLDWATER , MI","MI",2,3,2012,-85.0156126,41.9443778
"BRANCH ","134 WEST COLON ROAD B , COLDWATER , MI","MI",2,18,2012,-85.0652474,41.943541
"BRANCH ","156 WEST CLARKE AVENUE  , COLDWATER , MI","MI",6,18,2012,-85.0069574,41.9518587
"BRANCH ","531  ROCKY RIDGE DRIVE  , COLDWATER , MI","MI",10,5,2013,-84.9732006,41.7813005
"BRANCH ","330 S MICHIGAN AVENUE , COLDWATER , MI","MI",1,8,2015,-84.9760504,41.9240313
"BRANCH ","675  JO JO LANE , COLDWATER , MI","MI",8,9,2015,-84.9590881,41.8142607
"BRANCH ","938  HEIGHTS DRIVE  , COLON , MI","MI",8,24,2010,-85.2767552,42.0144845
"BRANCH ","1057 PAUL RD , MONTGOMERY , MI","MI",5,24,2004,-84.8724345,41.7818201
"BRANCH ","202 SOUTH MAIN STREET , MONTGOMERY , MI","MI",9,15,2006,-84.803878,41.7762402
"BRANCH ","1045 GROVE RD , QUINCY , MI","MI",11,3,2004,-84.8734203,41.8341948
"BRANCH ","2580 PIERCE ROAD , QUINCY , MI","MI",7,21,2006,-84.8160263,41.8896391
"BRANCH ","563 SOUTH RAY QUINCY ROAD , QUINCY , MI","MI",8,31,2007,-84.8820128,41.8306556
"BRANCH ","1004  ANNIN ROAD  , QUINCY , MI","MI",2,27,2010,-84.8839868,42.0365538
"BRANCH ","420  RIDGE ROAD , QUINCY , MI","MI",7,19,2015,-84.9127474,41.9425361
"BRANCH ","363 CHIPPEWA CIRCLE , SHERWOOD , MI","MI",6,6,2006,-83.1514798,42.4411302
"BRANCH ","849 VOGEL DRIVE , SHERWOOD , MI","MI",6,9,2008,-85.2548973,42.0140457
"BRANCH ","360 CHIPPEWA CIRCLE DRIVE , SHERWOOD , MI","MI",7,21,2008,-83.1514798,42.4411302
"BRANCH ","1022 DUNKS ROAD , SHERWOOD , MI","MI",7,22,2008,-85.2080798,42.0305009
"BRANCH ","862  VAN WARMER ROAD , SHERWOOD , MI","MI",12,13,2011,-85.2003176,42.0061527
"BRANCH ","1169 NORTH MARSHALL , TEKONSHA , MI","MI",11,7,2007,-85.0011309,42.0485512
"BRANCH ","494  HERRICKSVILL E, TEKONSHA , MI","MI",12,13,2010,-84.9831835,42.0584903
"BRANCH ","2015 TACOMA DR , UNION CITY , MI","MI",10,7,2005,-85.1897268,42.0429325
"BRANCH ","213  CREEK ROAD  , UNION CITY , MI","MI",1,25,2011,-85.0814946,42.0133224
"BRANCH ","437  CHAD LANE , UNION CITY , MI","MI",10,16,2014,-85.1360882,42.0667135
"CALHOUN ","834  IRWIN AVENUE , ALBION , MI","MI",11,9,2015,-84.7684626,42.2375526
"CALHOUN ","304 AVENUE A S , ATHENS , MI","MI",2,20,2006,-85.2340859,42.0864517
"CALHOUN ","189 SWEDISH ST , BATTLE CREEK , MI","MI",3,10,2004,-85.2364092,42.358696
"CALHOUN ","596 WESTBROOK , BATTLE CREEK , MI","MI",10,1,2004,-85.128313,42.3247155
"CALHOUN ","51 MOTT STREET , BATTLE CREEK , MI","MI",12,18,2007,-85.1698917,42.3100588
"CALHOUN ","51 MOTT , BATTLE CREEK , MI","MI",2,5,2008,-85.1698917,42.3100588
"CALHOUN ","5533 EAST PARADISE ROAD , BATTLE CREEK , MI","MI",9,5,2008,-85.1874353,42.2283324
"CALHOUN ","274 BORDEN DRIVE , BATTLE CREEK , MI","MI",11,15,2008,-85.171836,42.3440077
"CALHOUN ","925 NORTHEAST CAPITAL AVENUE , BATTLE CREEK , MI","MI",11,15,2008,-85.1555043,42.3339395
"CALHOUN ","135  KELWOOD, BATTLE CREEK , MI","MI",9,8,2013,-85.2155726,42.2940376
"CALHOUN ","100  FOSTER AVENUE , BATTLE CREEK , MI","MI",12,21,2014,-85.2036846,42.303641
"CALHOUN ","319  NEWTOWN AVENUE , BATTLE CREEK , MI","MI",2,5,2015,-85.2843135,42.2795234
"CALHOUN ","133  ELDRED STREET , BATTLE CREEK , MI","MI",6,2,2015,-85.2029947,42.3083055
"CALHOUN ","200  SUMMER STREET , BATTLE CREEK , MI","MI",7,10,2015,-85.2086707,42.3056943
"CALHOUN ","131 N BROADWAY BOULEVARD , BATTLE CREEK , MI","MI",7,15,2015,-85.2409263,42.3516899
"CALHOUN ","77  MILLER STREET , BATTLE CREEK , MI","MI",8,4,2015,-85.232701,42.3474247
"CALHOUN ","25  TAYLOR AVENUE , BATTLE CREEK , MI","MI",8,6,2015,-85.2311665,42.354072
"CALHOUN ","220  LAUREL DRIVE , BATTLE CREEK , MI","MI",8,14,2015,-85.164436,42.3329847
"CALHOUN ","23  KELLOGG STREET , BATTLE CREEK , MI","MI",8,23,2015,-85.2309355,42.3523912
"CALHOUN ","113 N WABASH STREET , BATTLE CREEK , MI","MI",8,21,2015,-85.1654847,42.3274351
"CALHOUN ","53  MARJORIE STREET , BATTLE CREEK , MI","MI",11,6,2015,-85.1617319,42.3080576
"CALHOUN ","56  TRAVERSE STREET , BATTLE CREEK , MI","MI",12,10,2015,-85.1591811,42.3247038
"CALHOUN ","743  VANBUREN STREET , BATTLE CREEK , MI","MI",12,10,2015,-85.2081274,42.3312775
"CALHOUN ","131 N broadway BOULEVARD , BATTLE CREEK , MI","MI",12,30,2015,-85.2409263,42.3516899
"CALHOUN ","24  Magnolia AVENUE , BATTLE CREEK , MI","MI",2,1,2016,-85.1580958,42.3262354
"CALHOUN ","107  Lathrop AVENUE , BATTLE CREEK , MI","MI",2,17,2016,-85.1672707,42.3083625
"CALHOUN ","336  country club BOULEVARD , BATTLE CREEK , MI","MI",3,3,2016,-85.1923022,42.2829265
"CALHOUN ","8229 M S DR , BURLINGTON , MI","MI",6,6,2004,-85.1354495,42.1566766
"CALHOUN ","1977 S DR S , FULTON , MI","MI",1,5,2006,-85.2534403,42.1110621
"CALHOUN ","430 BYRON S ST 130 , HOMER , MI","MI",2,3,2006,-84.8025618,42.141824
"CALHOUN ","315 WEST EVERETT STREET , HOMER , MI","MI",1,20,2008,-84.8126172,42.1441221
"CALHOUN ","430 S BYRON STREET , HOMER , MI","MI",12,4,2015,-84.8025618,42.141824
"CALHOUN ","254 REYNOLDS ROAD , SPRINGFIELD , MI","MI",12,18,2007,-85.2157887,42.3141899
"CALHOUN ","463 NORTH 25TH STREET  , SPRINGFIELD , MI","MI",2,6,2011,-85.2255406,42.326142
"CALHOUN ","463 NORTH 25TH STREET  , SPRINGFIELD , MI","MI",2,6,2011,-85.2255406,42.326142
"CALHOUN ","221  KIRKWOOD AVENUE  , SPRINGFIELD , MI","MI",7,22,2012,-85.2282187,42.3130598
"CALHOUN ","1145  HARMONIA ROAD LOT#30 , SPRINGFIELD , MI","MI",2,10,2014,-85.2456688,42.3325877
"CALHOUN ","2229 19 1/2 MILE RD , TEKONSHA , MI","MI",4,22,2004,-84.9095223,42.1024106
"CALHOUN ","1169 MARSHALL ROAD , TEKONSHA , MI","MI",1,25,2006,-84.9874457,42.0875735
"CALHOUN ","300 TURTLE LAKE ROAD , UNION CITY , MI","MI",10,8,2007,-85.1235506,42.1143083
"CALHOUN ","536  10 1/2 MILE ROAD  , UNION CITY , MI","MI",3,21,2014,-85.1489696,42.1212341
"CASS ","19866 CHAIN LAKE ST , CASSOPOLIS , MI","MI",9,30,2004,-85.9506175,41.8611286
"CASS ","20151 BULHAND ROAD , CASSOPOLIS , MI","MI",4,17,2007,-85.9830263,41.8323765
"CASS ","19124  NORTHROP STREET  , CASSOPOLIS , MI","MI",5,15,2009,-85.9363649,41.8682397
"CASS ","65668  BRICK CHURCH ROAD  , CASSOPOLIS , MI","MI",2,22,2010,-86.0057537,41.8444752
"CASS ","20151  BULLHAND STREET BOX APT. #5 , CASSOPOLIS , MI","MI",9,19,2015,-77.4587239,38.9016401
"CASS ","127 N OKEEFE STREET , CASSOPOLIS , MI","MI",3,4,2016,-86.0100136,41.9122791
"CASS ","24218 MAIN W ST , DOWAGIAC , MI","MI",8,30,2004,-86.0344291,42.0548834
"CASS ","54018 M 51 N , DOWAGIAC , MI","MI",11,2,2004,-86.1075155,42.013474
"CASS ","25259 70TH STREET , DOWAGIAC , MI","MI",9,27,2007,-86.0550684,42.0286188
"CASS ","62296 ANDERSON ROAD , DOWAGIAC , MI","MI",3,13,2008,-86.127347,41.8941767
"CASS ","305 WOODEN AVENUE , DOWAGIAC , MI","MI",8,9,2008,-86.1230001,41.9860448
"CASS ","210 SOUTH PAUL STREET , DOWAGIAC , MI","MI",11,29,2008,-86.1219939,41.9819357
"CASS ","520  MAIN STREET  , DOWAGIAC , MI","MI",1,11,2010,-86.1149057,41.9844471
"CASS ","206  THIRD AVENUE  , DOWAGIAC , MI","MI",12,6,2013,-86.1091105,41.9740925
"CASS ","52698  LINDBERG DRIVE , DOWAGIAC , MI","MI",2,5,2015,-86.1086228,41.9842123
"CASS ","206  OAK STREET BOX APT A , DOWAGIAC , MI","MI",4,1,2015,-86.1086228,41.9842123
"CASS "," N 509 1/2 FRONT STREET , DOWAGIAC , MI","MI",10,7,2015,-86.1072744,41.989495
"CASS ","318 E Division STREET , DOWAGIAC , MI","MI",1,7,2016,-86.1032056,41.983578
"CASS ","420 E Railroad STREET , DOWAGIAC , MI","MI",1,7,2016,-86.0996496,41.989619
"CASS ","26939  Corwin , DOWAGIAC , MI","MI",2,18,2016,-86.087507,42.0631682
"CASS ","19311 US 12 LOT 38 , EDWARDSBURG , MI","MI",8,24,2004,-85.940336,41.7689576
"CASS ","68782 CLAIRE STREET , EDWARDSBURG , MI","MI",5,8,2007,-86.0925437,41.7996637
"CASS ","17476 STARBRICK STREET , EDWARDSBURG , MI","MI",9,1,2007,-85.906198,41.7808397
"CASS ","69369 CASSOPOLIS ROAD , EDWARDSBURG , MI","MI",8,22,2008,-85.9740735,41.7929508
"CASS ","27532  MAY STREET  , EDWARDSBURG , MI","MI",4,20,2010,-86.1022191,41.7821183
"CASS ","26967  US 12, EDWARDSBURG , MI","MI",3,6,2014,-86.0874379,41.7972916
"CASS ","19250  STATE LINE ROAD BOX 67 , EDWARDSBURG , MI","MI",6,14,2015,-86.0808384,41.7956038
"CASS ","10838 BORN ST , JONES , MI","MI",3,22,2005,-85.7770077,41.9256523
"CASS ","14251 EAST CHAPEL HILL STREET , JONES , MI","MI",9,28,2006,-85.8430188,41.8092708
"CASS ","55234 DAY RD , MARCELLUS , MI","MI",5,27,2005,-85.7418899,41.9946148
"CASS ","393 EAST MAIN STREET , MARCELLUS , MI","MI",1,14,2008,-85.8084675,42.0269553
"CASS ","50346 SHELDON CREEK ROAD , MARCELLUS , MI","MI",5,30,2008,-85.7774967,42.0682379
"CASS ","13784 WATERSTRADT STREET , MARCELLUS , MI","MI",6,18,2008,-85.8342984,41.9980869
"CASS ","16924 FINCH ROAD , MARCELLUS , MI","MI",11,26,2008,-85.8863627,42.0441455
"CASS ","19175  CHURCH STREET  , MARCELLUS , MI","MI",10,16,2013,-85.9383435,42.0123445
"CASS ","2658 ALANE COURT , NILES , MI","MI",7,15,2007,-86.1800252,41.8580314
"CASS ","61001 INDIAN LAKE ROAD , NILES , MI","MI",10,2,2008,-86.2105506,41.9130926
"CASS ","29112  FOLLMER STREET  , NILES , MI","MI",9,11,2010,-86.1376386,41.7968641
"CASS ","69611 SUNSET BOULEVARD 1 , UNION , MI","MI",9,15,2005,-85.823746,41.7889856
"CASS ","69728 UNION STREET , UNION , MI","MI",7,18,2007,-85.8671017,41.7843705
"CASS ","61482 DONALD ROAD , VANDALIA , MI","MI",5,9,2007,-85.898535,41.9046892
"CASS ","18016 WOOD STREET , VANDALIA , MI","MI",5,14,2007,-85.9155512,41.9160825
"CASS ","16819  WILLIAMSVILLE STREET  , VANDALIA , MI","MI",12,5,2013,-85.866765,41.8695813
"CASS ","16340  DUTCH SETTLEMENT STREET , VANDALIA , MI","MI",12,3,2014,-85.8833231,41.9837501
"CASS ","76063 SOUTH RIVER ROAD  , WHITE PIGEON , MI","MI",1,12,2014,-85.7957932,41.7592359
"CHEBOYGAN ","1127  MACKINAW AVENUE  , CHEBOYGAN , MI","MI",4,4,2013,-84.483762,45.6523355
"CHEBOYGAN ","5844  MAPLE STREET  , WOLVERINE , MI","MI",7,16,2010,-84.606729,45.2743309
"CHIPPEWA ","639  MYRTLE ELLIOTT CIRCLE BOX 3 , [Unspecified] , MI","MI",11,10,2015,-85.6023643,44.3148443
"CHIPPEWA ","2309  ANDARY AVENIDA  , SAULT STE MARIE , MI","MI",1,9,2014,-84.4063935,46.4864176
"CLARE ","128 EAST 4TH STREET  , CLARE , MI","MI",11,12,2011,-84.7675061,43.8187624
"CLARE ","3845 LAPHAM ROAD , HARRISON , MI","MI",2,23,2006,-84.8195093,44.0418893
"CLARE ","2805 HAYES ROAD , HARRISON , MI","MI",10,12,2006,-84.7300497,44.0301187
"CLARE ","7486 EAST TOWNLINE LAKE ROAD , HARRISON , MI","MI",6,3,2008,-84.7024711,44.0320423
"CLARE ","1970  JILL-JANET ROAD  , HARRISON , MI","MI",9,11,2012,-84.8084393,44.0565875
"CLARE ","8085 MCKINLEY AVENUE , LAKE , MI","MI",8,8,2006,-86.132917,44.6623357
"CLARE ","11140  DEBBIE DEE ROAD  , LAKE , MI","MI",5,7,2013,-85.6023643,44.3148443
"CLINTON ","12655 WEST GRAND RIVER, EAGLE , MI","MI",12,14,2010,-84.771921,42.8043723
"CLINTON ","1505 NORTH ST. CLAIR ROAD  , OVID , MI","MI",10,26,2012,-84.4452946,43.0081919
"CLINTON ","609  MORTON STREET LOT16 , SAINT JOHNS , MI","MI",7,23,2012,-84.5662968,42.9944462
"CLINTON ","410  WIGHT STREET 3 , SAINT JOHNS , MI","MI",3,18,2014,-84.5574894,42.9973523
"CLINTON ","605  STATE STREET , SAINT JOHNS , MI","MI",2,24,2015,-84.5659764,43.0014168
"CLINTON ","5087 W CENTERLINE ROAD , SAINT JOHNS , MI","MI",10,21,2015,-84.6234264,42.9433209
"CLINTON ","314 N CLINTON AVENUE BOX 3 , SAINT JOHNS , MI","MI",11,13,2015,-84.5591521,43.001143
"DELTA ","309 S 9TH STREET BOX 3 , ESCANABA , MI","MI",2,1,2015,-87.0645801,45.7452466
"DELTA ","1723 N 3RD AVENUE BOX 4 , ESCANABA , MI","MI",8,12,2015,-87.0645801,45.7452466
"DICKINSON ","501  PEWABIC STREET , IRON MOUNTAIN , MI","MI",10,2,2014,-88.0542249,45.827562
"DICKINSON ","703 WEST BROWN STREET , IRON MOUNTAIN , MI","MI",10,25,2014,-88.0750439,45.8213018
"EATON ","712 CLINTON S ST , CHARLOTTE , MI","MI",2,22,2005,-84.839793,42.5526759
"EATON ","833 5 POINT W HWY , CHARLOTTE , MI","MI",4,28,2005,-84.852671,42.5096211
"EATON ","402 WEST STODDARD STREET , CHARLOTTE , MI","MI",2,9,2007,-84.8399533,42.5666864
"EATON ","3338  CARLISLE HIGHWAY  , CHARLOTTE , MI","MI",12,23,2010,-84.9018723,42.5535991
"EATON ","421  MERRITT STREET G , CHARLOTTE , MI","MI",11,12,2011,-84.8266699,42.5574921
"EATON ","4208 SOUTH STINE ROAD  , CHARLOTTE , MI","MI",2,23,2012,-84.8950759,42.5097755
"EATON ","228  VAN LIEU STREET  , CHARLOTTE , MI","MI",11,12,2012,-84.8358211,42.5636478
"EATON ","221 WEST HENRY STREET , CHARLOTTE , MI","MI",6,7,2014,-84.8383151,42.5585282
"EATON ","437 N SHELDON STREET , CHARLOTTE , MI","MI",4,15,2015,-84.8387417,42.5694594
"EATON ","407 W HARRIS AVENUE , CHARLOTTE , MI","MI",5,27,2015,-84.8399551,42.564932
"EATON ","1263  STEWART ROAD , CHARLOTTE , MI","MI",6,17,2015,-84.7682926,42.5532131
"EATON ","633  Prairie STREET , CHARLOTTE , MI","MI",2,21,2016,-84.8296023,42.5545391
"EATON ","211 E HENRY STREET , CHARLOTTE , MI","MI",3,1,2016,-84.8342957,42.5586508
"EATON ","8745  JUSTONIAN WAY , DIMONDALE , MI","MI",1,5,2015,-84.6658573,42.6592919
"EATON ","159  hawthorne DRIVE , DIMONDALE , MI","MI",12,25,2015,-84.6637724,42.6622277
"EATON ","8230 SPICERVILLE E HWY , EATON RAPIDS , MI","MI",2,25,2005,-84.6753155,42.4944166
"EATON EATON RAPIDS ","8023  SPICERVILLE HIGHWAY , , MI","MI",1,10,2015,-84.9738145,42.4954267
"EATON LANSING ","521  CHANTICLEER CIRCLE  , , MI","MI",8,30,2011,-84.6281581,42.7282036
"EATON LANSING ","7077  WILLIAMS ROAD  , , MI","MI",7,11,2012,-84.6227091,42.6703584
"EATON LANSING ","1111  ELMWOOD ROAD  BOX 3047 , , MI","MI",4,24,2014,-85.6023643,44.3148443
"EATON MULLIKEN ","190  A & B CHARLOTTE  A , , MI","MI",8,3,2010,21.3117465,43.7259347
"EATON OLIVET ","3807 W Bellevue HIGHWAY , , MI","MI",1,6,2016,-84.9131712,42.4512411
"EATON SPRINGPORT ","2705 EAST BUTTERFIELD, , MI","MI",2,8,2011,-84.7863817,42.4361923
"EATON SPRINGPORT ","2705 EAST BUTTERFIELD, , MI","MI",2,8,2011,-84.7863817,42.4361923
"EATON VERMONTVILLE ","875 LINDEN STREET , , MI","MI",5,22,2007,-84.4726075,42.7365927
"EATON VERMONTVILLE ","10320 WEST VERMONTVILLE HIGHWAY , , MI","MI",4,4,2009,-85.0448075,42.6310602
"EMMET BATTLE CREEK ","135  WATTS, , MI","MI",9,14,2010,-84.3710563,42.2529552
"EMMET PETOSKEY ","1317  CRESTVIEW STREET APT 30 , , MI","MI",2,3,2013,-86.1408954,42.7655263
"GENESEE BURTON ","4155  FENTON ROAD 24 , , MI","MI",4,7,2011,-83.6927334,42.969789
"GENESEE BURTON ","1450  WELLS STREET , , MI","MI",8,7,2015,-83.676143,42.978526
"GENESEE BURTON ","2050 E MCLEAN AVENUE , , MI","MI",10,6,2015,-83.670636,42.969135
"GENESEE BURTON ","3055  KLEINPELL STREET , , MI","MI",12,23,2015,-83.646181,42.987733
"GENESEE BURTON ","4153  Columbine AVENUE , , MI","MI",1,6,2016,-83.665635,42.970335
"GENESEE BURTON ","2107  brady AVENUE , , MI","MI",3,14,2016,-83.66847,42.966008
"GENESEE CLIO ","7061 VIENNA W RD 31 , , MI","MI",9,21,2005,-83.8164736,43.177074
"GENESEE DAVISON ","7318  RIVER ROCK , , MI","MI",11,3,2015,-86.9978409,46.0771636
"GENESEE FLINT ","1151 WEST PRINCETON AVENUE , , MI","MI",12,7,2006,-83.699797,43.085503
"GENESEE FLINT ","1549 EAST ATHERTON STREET  , , MI","MI",9,18,2010,-83.649956,42.989569
"GENESEE FLINT ","3030 EAST HEMPHILL  209 , , MI","MI",8,7,2011,-83.6522091,42.9815825
"GENESEE FLINT ","338  ALLENDALE PLACE , , MI","MI",1,12,2012,-83.72704,43.012298
"GENESEE FLINT ","2701  BRANCH STREET 118 , , MI","MI",1,24,2012,-83.652184,43.039548
"GENESEE FLINT ","5130 EAST BOULEVARD ROAD  , , MI","MI",4,16,2013,-83.6600626,43.061764
"GENESEE FLINT ","1369 WEST PRINCETON AVENIDA  , , MI","MI",4,23,2013,-83.707969,43.085502
"GENESEE FLINT ","2477  HAETHERLY AVENUE  , , MI","MI",8,1,2013,-85.6023643,44.3148443
"GENESEE FLINT ","3249  DAKOTA AVENUE , , MI","MI",10,26,2014,-83.645786,43.041901
"GENESEE FLINT ","1577  COACHLIGHT COURT , , MI","MI",12,1,2014,-83.7590941,43.0045545
"GENESEE FLINT ","2730  EPISOLN TRAIL , , MI","MI",6,12,2015,-83.654985,43.059022
"GENESEE FLINT ","1348 W GENESEE AVENUE , , MI","MI",8,13,2015,-83.9593281,43.4353037
"GENESEE FLINT ","937 S BALLENGER ROAD , , MI","MI",8,12,2015,-83.732947,43.005825
"GENESEE FLINT ","2010  THOM , , MI","MI",8,17,2015,-83.663696,43.04332
"GENESEE FLINT ","937 S BALLENGER HIGHWAY , , MI","MI",11,19,2015,-83.732947,43.005825
"GENESEE FLINT ","3738  PITKIN , , MI","MI",12,7,2015,-83.63853,43.030733
"GENESEE FLINT ","1025  Darling STREET , , MI","MI",2,16,2016,-83.736733,43.0037019
"GENESEE FLINT ","1425  Waldman AVENUE , , MI","MI",3,19,2016,-83.6997109,42.988816
"GENESEE MOUNT MORRIS ","4148 W 54TH STREET , , MI","MI",4,15,2015,-83.7603059,43.1078048
"GENESEE MOUNT MORRIS ","7010 N LEWIS ROAD , , MI","MI",10,20,2015,-83.6767841,43.1053936
"GENESEE MOUNT MORRIS ","11009 S SAGINAW , , MI","MI",12,1,2015,-83.6346011,42.9313974
"GENESEE MOUNT MORRIS ","6452  LEWIS ROAD , , MI","MI",2,16,2016,-83.676592,43.102908
"GENESEE MOUNT MORRIS ","G5360  Detroit STREET , , MI","MI",3,12,2016,-83.142645,42.2912143
"GENESEE RICHFIELD CENTER ","4390 NORTH IRISH  549 , , MI","MI",12,10,2010,-83.5576202,43.0735562
"GLADWIN BEAVERTON ","110 WEST KNOX STREET 403 , , MI","MI",8,25,2011,-84.4851396,43.8813525
"GLADWIN GLADWIN ","435 CEDAR E AVE , , MI","MI",1,2,2005,-84.4822479,43.9807901
"GLADWIN GLADWIN ","5276  ROSE LANE  , , MI","MI",9,14,2011,-83.6131677,43.0782066
"GLADWIN GLADWIN ","1020  MCCLURE ROAD , , MI","MI",11,12,2015,-84.4079292,44.0379712
"GOGEBIC IRONWOOD ","719 FLORENCE , , MI","MI",4,6,2006,-84.1420572,43.2910592
"GOGEBIC IRONWOOD ","228 WEST AYER STREET 1 , , MI","MI",5,8,2013,-90.1726497,46.4533505
"GOGEBIC IRONWOOD ","229 SOUTH MANSFIELD STREET UPPER , , MI","MI",5,9,2013,-90.1634983,46.4549819
"GOGEBIC IRONWOOD ","114 S MANSFIELD STREET , , MI","MI",3,10,2016,-83.6345739,42.2374849
"GRAND TRAVERSE TRAVERSE CITY ","804 SOUTH UNION STREET  , , MI","MI",3,25,2014,-84.599778,42.2497692
"GRATIOT ","2421 NORTH ELY HIGHWAY  , ALMA , MI","MI",8,1,2013,-84.7002487,43.326007
"GRATIOT ","221  SOUTH STREET , ITHACA , MI","MI",10,18,2014,-84.6052886,43.2889566
"GRATIOT ","221 E SOUTH STREET , ITHACA , MI","MI",10,14,2015,-84.6052886,43.2889566
"GRATIOT ","4313 WEST BIRMINGHAM ROAD  , LANSING , MI","MI",9,4,2013,-84.5555347,42.732535
"GRATIOT ","2242  MCGREGOR ROAD  , SAINT LOUIS , MI","MI",5,17,2011,-90.7141116,38.7553883
"GRATIOT ","1312 WEST MADISON ROAD  , SAINT LOUIS , MI","MI",11,7,2011,-84.6331831,43.4223296
"GRATIOT ","210 SOUTH LINCOLN STREET , SAINT LOUIS , MI","MI",12,10,2011,-84.6014005,43.4059922
"GRATIOT ","303  DEVON DRIVE  , SAINT LOUIS , MI","MI",1,6,2012,-84.6221964,43.4056881
"GRATIOT ","302 SOUTH DELAWARE STREET C , SAINT LOUIS , MI","MI",8,14,2012,-84.6123732,43.4049733
"GRATIOT ","2144 E Mcgregor ROAD , SAINT LOUIS , MI","MI",1,7,2016,-90.715396,38.754618
"HILLSDALE ","1623 HARMON ROAD , CAMDEN , MI","MI",3,20,2008,-84.6190338,41.738511
"HILLSDALE ","9800  MAPLE ROAD  , CAMDEN , MI","MI",4,28,2010,-84.7962939,41.7229357
"HILLSDALE ","8501  ALVORD ROAD , CAMDEN , MI","MI",11,5,2015,-84.7770875,41.7608071
"HILLSDALE ","1711 EAST READING ROAD , HILLSDALE , MI","MI",1,11,2006,-84.620003,41.8399733
"HILLSDALE ","1100 LILAC ROAD , HILLSDALE , MI","MI",2,28,2007,-84.633299,41.8222471
"HILLSDALE ","138 MARION STREET , HILLSDALE , MI","MI",11,30,2007,-84.6178503,41.9239206
"HILLSDALE ","4032  PLEASANT STREET  , HILLSDALE , MI","MI",4,17,2009,-84.5739087,41.9575193
"HILLSDALE ","32 EAST CARLETON ROAD  BOX 513 , HILLSDALE , MI","MI",9,7,2014,-84.6305101,41.9200472
"HILLSDALE ","1100 S CRONK ROAD , HILLSDALE , MI","MI",4,10,2015,-84.7288891,41.9090191
"HILLSDALE ","205 E WEST STREET , HILLSDALE , MI","MI",6,7,2015,-84.6351256,41.9083906
"HILLSDALE ","1911 EAST GOOSE LAKE ROAD , JONESVILLE , MI","MI",1,18,2008,-84.6584824,42.0708895
"HILLSDALE ","211  LIBERTY STREET , JONESVILLE , MI","MI",1,2,2015,-84.6608607,41.9813917
"HILLSDALE ","2010 E MOSHERVILLE ROAD , JONESVILLE , MI","MI",10,25,2015,-84.6124252,42.0670498
"HILLSDALE ","216  West Street , JONESVILLE , MI","MI",1,7,2016,-84.6619763,41.9812379
"HILLSDALE ","7931 GENESEE ROAD , LITCHFIELD , MI","MI",4,30,2008,-84.75948,42.000927
"HILLSDALE ","6930  MCLAIN ROAD  , LITCHFIELD , MI","MI",3,16,2014,-84.7873553,41.9990543
"HILLSDALE ","6275 BEECHER ROAD , OSSEO , MI","MI",5,8,2008,-84.5302719,41.883248
"HILLSDALE ","12800  BIRD LAKE ROAD , OSSEO , MI","MI",2,1,2015,-84.5341347,41.7414097
"HILLSDALE ","1500  JEROME, PITTSFORD , MI","MI",4,1,2009,-84.4592583,41.9055847
"HILLSDALE ","10731 HICKS ROAD , QUINCY , MI","MI",8,16,2006,-84.822192,41.9051228
"HILLSDALE ","5020 ABBOTT ROAD , READING , MI","MI",3,6,2008,-84.7673104,41.8537046
"HILLSDALE ","5451 ABBOTT ROAD , READING , MI","MI",10,30,2008,-84.7671584,41.8360529
"HILLSDALE ","120  ENTERPRISE DRIVE  , READING , MI","MI",6,25,2010,-84.7430555,41.8460013
"INGHAM ","1149 MERIDIAN RD , BUNKER HILL , MI","MI",12,20,2004,-84.3566594,42.5516359
"INGHAM ","5810  KINNEVILLE, EATON RAPIDS , MI","MI",11,22,2013,-84.5729527,42.4657061
"INGHAM ","1287 ONONDAGA N RD , HOLT , MI","MI",7,13,2005,-84.5626146,42.6204176
"INGHAM ","120 WEST MICHIGAN AVENUE , LANSING , MI","MI",5,18,2006,-84.5531483,42.7339097
"INGHAM ","5032 CHRISTENSEN STREET , LANSING , MI","MI",1,10,2008,-84.5771711,42.6833367
"INGHAM ","456 SOUTH ROSEMARY STREET  , LANSING , MI","MI",1,25,2010,-84.5875282,42.7381828
"INGHAM ","1622  CAVANAUGH, LANSING , MI","MI",8,2,2010,-84.5303907,42.6900778
"INGHAM ","2011  CLIFTON AVENUE , LANSING , MI","MI",2,2,2012,-84.5326763,42.710323
"INGHAM ","815  EDISON AVENUE  , LANSING , MI","MI",2,2,2012,-84.541053,42.707799
"INGHAM ","721  LESLIE STREET  , LANSING , MI","MI",7,17,2012,-84.524636,42.725702
"INGHAM ","411 NORTH FRANCIS STREET  , LANSING , MI","MI",8,9,2012,-84.5167139,42.737635
"INGHAM ","510  WOODROW, LANSING , MI","MI",5,6,2013,-84.547514,42.709946
"INGHAM ","202  BELL STREET  , LANSING , MI","MI",6,4,2013,-84.5539509,42.7570307
"INGHAM ","1224  CLARK STREET  , LANSING , MI","MI",7,28,2013,-84.531778,42.747103
"INGHAM ","412  PINEWOOD STREET , LANSING , MI","MI",8,20,2015,-84.557191,42.687786
"INGHAM ","714  MILL STREET UNIT 24 , LESLIE , MI","MI",2,24,2012,-84.4224108,42.4494677
"INGHAM ","3540  BELLEVUE ROAD  , LESLIE , MI","MI",10,16,2012,-84.4844706,42.4511221
"INGHAM ","4202  MERIDIAN, LESLIE , MI","MI",11,3,2013,-84.351885,42.4635109
"INGHAM ","5420 BELLEVUE RD , ONONDAGA , MI","MI",4,5,2006,-84.55692,42.451625
"INGHAM ","4775  BALDWIN STREET  , ONONDAGA , MI","MI",10,25,2012,-84.56133,42.442941
"INGHAM ","621 CLINTON S ST , STOCKBRIDGE , MI","MI",7,3,2005,-84.179773,42.445905
"INGHAM ","530 MECHANIC ST , STOCKBRIDGE , MI","MI",2,19,2006,-84.187188,42.452449
"INGHAM ","1371 BASELINE RD , STOCKBRIDGE , MI","MI",2,24,2006,-84.3025,42.424912
"INGHAM ","1371 BASELINE ROAD , STOCKBRIDGE , MI","MI",1,12,2007,-84.3025,42.424912
"INGHAM ","4363 EAST M-36 , STOCKBRIDGE , MI","MI",8,3,2008,-84.186211,42.513153
"INGHAM ","3074  OBRIEN ROAD  , STOCKBRIDGE , MI","MI",5,12,2013,-84.2418859,42.457553
"INGHAM ","305 W elizabeth STREET , STOCKBRIDGE , MI","MI",12,28,2015,-84.1827641,42.4494916
"IONIA ","956  WOODS ROAD  , FENWICK , MI","MI",2,7,2012,-85.0562228,43.0760023
"IONIA ","10651  MCKENNA , HUBBARDSTON , MI","MI",6,5,2015,-84.86259,43.1052365
"IONIA ","2717 NORTH STATE STREET , IONIA , MI","MI",10,5,2011,-85.0751664,43.0269666
"IONIA ","726  ROBERTSON COURT  , IONIA , MI","MI",10,22,2012,-85.0462765,42.9896934
"IONIA ","5710  STAGE ROAD  , IONIA , MI","MI",3,19,2014,-84.9955738,43.0720027
"IONIA ","215  RISH STREET  BOX 2 , IONIA , MI","MI",4,24,2014,-85.0711174,42.9872547
"IONIA ","4726 E BLUE WATER HIGHWAY , IONIA , MI","MI",4,7,2015,-84.9813145,43.0016983
"IONIA ","638 WEST MUSGROVE HIGHWAY , LAKE ODESSA , MI","MI",7,2,2008,-85.0864669,42.7996659
"IONIA ","14034  MAIER DRIVE  , LAKE ODESSA , MI","MI",5,14,2013,-85.1253648,42.7761015
"IONIA ","8270  GOODWIN ROAD  , LYONS , MI","MI",1,19,2011,-84.9107615,42.91499
"IONIA ","140 NORTH HIGBEE STREET  , LYONS , MI","MI",5,10,2013,-84.9396701,42.9824665
"IONIA ","5793 EAST RIVERSIDE DRIVE , LYONS , MI","MI",12,18,2014,-84.9994748,42.9705808
"IONIA ","204 EAST SUMMIT STREET  , MUIR , MI","MI",5,11,2009,-84.9384218,43.0006011
"IONIA ","475  LONG LAKE ROAD , ORLEANS , MI","MI",2,21,2012,-85.0839338,43.104875
"IONIA ","2201/2  CLARK STREET  , PORTLAND , MI","MI",12,8,2011,-84.9071857,42.8705002
"IONIA ","8335  CENTERLINE ROAD  , SARANAC , MI","MI",7,6,2010,-85.2382403,42.9440035
"IOSCO ","402 W LAKE STREET , TAWAS CITY , MI","MI",8,11,2015,-83.5167269,44.2683071
"ISABELLA ","9603 EAST COLEMAN ROAD , COLEMAN , MI","MI",12,4,2007,-84.5867733,43.7518499
"ISABELLA ","6313 CRAWFORD , MOUNT PLEASANT , MI","MI",5,12,2005,-84.7877566,43.5482668
"ISABELLA ","1007 NORTH KINNEY STREET  , MOUNT PLEASANT , MI","MI",5,6,2010,-84.770693,43.6127688
"ISABELLA ","3489 SOUTH SUMMERTON ROAD  , MOUNT PLEASANT , MI","MI",5,18,2010,-84.7274881,43.5900531
"ISABELLA ","402 NORTH ARNOLD STREET  , MOUNT PLEASANT , MI","MI",7,10,2013,-84.7690585,43.6073854
"ISABELLA ","740 NORTH LEATON ROAD  , MOUNT PLEASANT , MI","MI",12,22,2013,-84.7080519,43.6514213
"ISABELLA ","2748  WEATHERWOOD STREET , MOUNT PLEASANT , MI","MI",10,22,2015,-84.8092153,43.5999846
"ISABELLA ","1409  SOUTH COUNTY LANE , SHEPHERD , MI","MI",6,20,2012,-82.7531599,42.9294517
"ISABELLA ","8781 EAST BASELINE ROAD , , MI","MI",8,4,2006,-85.5830929,43.555154
"JACKSON ","9955  GLENN ROAD  , GRASS LAKE , MI","MI",5,11,2013,-84.224901,42.3108239
"JACKSON ","119 ELM STREET 2 , JACKSON , MI","MI",2,22,2005,-84.2706298,42.2433752
"JACKSON ","5791 WHEATON RD , JACKSON , MI","MI",8,23,2005,-84.313747,42.171774
"JACKSON ","116 MASON E ST 2 , JACKSON , MI","MI",8,29,2005,-84.404379,42.243237
"JACKSON ","13255 CLINTON ROAD , JACKSON , MI","MI",4,15,2006,-84.564445,42.380803
"JACKSON ","605  HOMEWILD STREET  , JACKSON , MI","MI",4,25,2013,-84.4000805,42.2512133
"JACKSON ","401 EAST HIGH STREET  , JACKSON , MI","MI",11,4,2013,-84.39369,42.232711
"JACKSON ","521 WEST GANSON STREET  , JACKSON , MI","MI",11,7,2013,-84.417576,42.25445
"JACKSON ","316 EAST EUCLID STREET  , JACKSON , MI","MI",3,11,2014,-84.395799,42.229617
"JACKSON ","301  STEWARD AVENIDA  BOX I16 , JACKSON , MI","MI",6,25,2014,-84.4013462,42.245869
"JACKSON ","1028  MAPLE AVENUE  BOX 2 , JACKSON , MI","MI",7,7,2014,-84.4013462,42.245869
"JACKSON ","533  TUMBRIDGE ROAD , JACKSON , MI","MI",10,21,2014,-84.4013462,42.245869
"JACKSON ","212  BIRDSELL STREET , JACKSON , MI","MI",12,27,2014,-84.396581,42.213147
"JACKSON ","5613  LARCH DRIVE , JACKSON , MI","MI",12,28,2014,-84.316484,42.272286
"JACKSON ","1005  LANSING AVENUE , JACKSON , MI","MI",3,2,2015,-84.4168849,42.260984
"JACKSON ","215  SECOND STREET , JACKSON , MI","MI",3,13,2015,-84.415622,42.24594
"JACKSON ","612  LANSING AVENUE , JACKSON , MI","MI",4,17,2015,-84.4150839,42.2554299
"JACKSON ","200 S ELM STREET , JACKSON , MI","MI",7,7,2015,-84.3845827,42.250062
"JACKSON ","464  COOPER STREET , JACKSON , MI","MI",12,4,2015,-84.402141,42.251525
"JACKSON ","2725  overhill ROAD , JACKSON , MI","MI",12,22,2015,-84.4032949,42.2197291
"JACKSON ","1411  Merriman STREET , JACKSON , MI","MI",2,19,2016,-84.396779,42.231574
"JACKSON ","6570  KINCH ROAD  , KALEVA , MI","MI",9,10,2013,-86.0103599,44.3733369
"JACKSON ","8495 JACKSON S RD , LIBERTY , MI","MI",8,24,2005,-84.401281,42.096306
"JACKSON ","7150 KENNEDY RD , MUNITH , MI","MI",8,22,2005,-84.287849,42.380819
"JACKSON ","8533  COON HILL ROAD  , MUNITH , MI","MI",1,29,2010,-84.25989,42.36398
"JACKSON ","3003  GARDNER ROAD , PARMA , MI","MI",4,10,2015,-84.551694,42.277057
"JACKSON ","11 W MICHIGAN AVENUE , PARMA , MI","MI",8,6,2015,-84.6011203,42.2586163
"JACKSON ","11130 BUNKERHILL ROAD , PLEASANT LAKE , MI","MI",12,13,2007,-84.325332,42.374965
"KALAMAZOO ","312 MICHIGAN W , AUGUSTA , MI","MI",5,3,2005,-85.3553186,42.3355324
"KALAMAZOO ","5163 FT CASTER DRIVE , AUGUSTA , MI","MI",6,5,2008,-85.3494992,42.326775
"KALAMAZOO ","11870 SPRINKLE RD , BRADY TOWNSHIP , MI","MI",10,19,2004,-85.523938,42.1457539
"KALAMAZOO ","534 LEENHOUTS ST , COMSTOCK , MI","MI",4,7,2004,-85.5231152,42.2934008
"KALAMAZOO ","505  COLLETTE AVENUE  , COMSTOCK , MI","MI",2,3,2010,-85.5205305,42.2929976
"KALAMAZOO ","  S 31ST ST / E N AVE ROAD , COMSTOCK , MI","MI",8,4,2015,-85.4581859,42.2844539
"KALAMAZOO ","254 D AVE E LOT 60 , COOPER TOWNSHIP , MI","MI",1,26,2005,-85.586898,42.376494
"KALAMAZOO ","15905 Z E AVE , FULTON , MI","MI",2,8,2005,-85.3059935,42.0715025
"KALAMAZOO ","14157 42ND S ST , FULTON , MI","MI",8,9,2005,-85.3527256,42.112514
"KALAMAZOO ","571 MAPLEWOOD ST , GALESBURG , MI","MI",5,2,2004,-85.3943208,42.2836327
"KALAMAZOO ","4711 36TH N ST , GALESBURG , MI","MI",11,3,2004,-85.4149883,42.3306779
"KALAMAZOO ","8150 MICHIGAN E AVE , GALESBURG , MI","MI",10,26,2005,-85.4718758,42.2884131
"KALAMAZOO ","8078 EAST MICHIGAN AVENUE , GALESBURG , MI","MI",11,27,2006,-85.4730358,42.2884044
"KALAMAZOO ","552 NORTH 30TH STREET , GALESBURG , MI","MI",8,14,2007,-85.4729976,42.2924697
"KALAMAZOO ","490 ELMWOOD DRIVE , GALESBURG , MI","MI",7,3,2008,-85.3937651,42.2844055
"KALAMAZOO ","652 MAPLEWOOD DRIVE , GALESBURG , MI","MI",7,3,2008,-85.3943537,42.2831693
"KALAMAZOO ","17 WASHINGTON STREET , GALESBURG , MI","MI",8,13,2008,-85.4198266,42.2906962
"KALAMAZOO ","616 MAPLEWOOD , GALESBURG , MI","MI",10,6,2008,-85.3943543,42.2833256
"KALAMAZOO ","102 NORTH 30TH STREET 1 , GALESBURG , MI","MI",11,12,2008,-85.4754574,42.2887567
"KALAMAZOO ","336 EAST MICHIGAN, GALESBURG , MI","MI",1,9,2010,-85.4073487,42.2889616
"KALAMAZOO ","336 EAST MICHIGAN AVENUE 4 , GALESBURG , MI","MI",7,11,2010,-85.4073487,42.2889616
"KALAMAZOO ","161  GALE STREET  , GALESBURG , MI","MI",2,1,2014,-85.4140892,42.2946381
"KALAMAZOO ","626 NORTH 35TH STREET  BOX 2A , GALESBURG , MI","MI",7,29,2014,-85.418056,42.2886529
"KALAMAZOO ","13362 EAST L AVENUE , GALESBURG , MI","MI",12,17,2014,-85.3688378,42.274638
"KALAMAZOO ","1928 COLGROVE AVE 204 , KALAMAZOO , MI","MI",2,5,2004,-85.554694,42.3100254
"KALAMAZOO ","618 MAPLE HILL DR 110 , KALAMAZOO , MI","MI",2,5,2004,-85.6592165,42.2943969
"KALAMAZOO ","1606 PALMER ST , KALAMAZOO , MI","MI",2,15,2004,-85.5602305,42.2697605
"KALAMAZOO ","156 28TH N ST 6 , KALAMAZOO , MI","MI",2,26,2004,-85.4924287,42.2897847
"KALAMAZOO ","1966 11TH S ST 4 , KALAMAZOO , MI","MI",4,19,2004,-85.6580637,42.2709451
"KALAMAZOO ","1915 MARCH ST , KALAMAZOO , MI","MI",4,21,2004,-85.5628956,42.2729918
"KALAMAZOO ","5672 MICHIGAN E AVE , KALAMAZOO , MI","MI",4,22,2004,-85.5176294,42.2887963
"KALAMAZOO ","619 EGLESTON ST , KALAMAZOO , MI","MI",4,27,2004,-85.5731099,42.2764904
"KALAMAZOO ","825 COOPER ST , KALAMAZOO , MI","MI",4,29,2004,-85.5514339,42.300127
"KALAMAZOO ","2399 30TH N ST , KALAMAZOO , MI","MI",5,1,2004,-85.4732252,42.3100667
"KALAMAZOO ","2515 CORK E ST 21 , KALAMAZOO , MI","MI",5,15,2004,-85.5480778,42.2595678
"KALAMAZOO ","5361 COMSTOCK AVE , KALAMAZOO , MI","MI",6,10,2004,-85.5249631,42.2837009
"KALAMAZOO ","1609 CHURCH N ST , KALAMAZOO , MI","MI",6,20,2004,-85.5865365,42.307276
"KALAMAZOO ","628 LAKE ST , KALAMAZOO , MI","MI",8,4,2004,-85.5748017,42.2808694
"KALAMAZOO ","521 STASSEN ST , KALAMAZOO , MI","MI",8,9,2004,-85.590705,42.329485
"KALAMAZOO ","5603 20TH N ST , KALAMAZOO , MI","MI",8,9,2004,-85.5705067,42.3446523
"KALAMAZOO ","1608 HAYES PARK ST , KALAMAZOO , MI","MI",8,12,2004,-85.587192,42.269779
"KALAMAZOO ","1525 G E AVE , KALAMAZOO , MI","MI",8,25,2004,-85.6082727,42.3619776
"KALAMAZOO ","1013 EDISON ST , KALAMAZOO , MI","MI",8,31,2004,-85.5981772,42.3302179
"KALAMAZOO ","1519 OLMSTEAD RD 63 , KALAMAZOO , MI","MI",9,23,2004,-85.5391712,42.2753772
"KALAMAZOO ","3661 LARK DR , KALAMAZOO , MI","MI",9,28,2004,-85.6359807,42.2724315
"KALAMAZOO ","9671 D E AVE A7 , KALAMAZOO , MI","MI",10,28,2004,-85.7400987,42.3751123
"KALAMAZOO ","1804 HAWK DR , KALAMAZOO , MI","MI",11,19,2004,-85.6368662,42.2739622
"KALAMAZOO ","3625 LARK DR , KALAMAZOO , MI","MI",12,3,2004,-85.6350923,42.2728672
"KALAMAZOO ","1513 MAIN W ST , KALAMAZOO , MI","MI",12,15,2004,-85.6075771,42.2939455
"KALAMAZOO ","1404 MOSELS E ST , KALAMAZOO , MI","MI",12,18,2004,-85.56295,42.3176573
"KALAMAZOO ","8924 MICHIGAN E , KALAMAZOO , MI","MI",12,19,2004,-85.6682377,42.361371
"KALAMAZOO ","1904 SANDY COVE DR , KALAMAZOO , MI","MI",1,4,2005,-85.5161123,42.3043126
"KALAMAZOO ","1451 NORTH HILLS DR , KALAMAZOO , MI","MI",1,7,2005,-85.6061052,42.3161739
"KALAMAZOO ","254 D E AVE LOT 3 , KALAMAZOO , MI","MI",1,25,2005,-85.5944168,42.3619769
"KALAMAZOO ","1028 FERNDALE AVE , KALAMAZOO , MI","MI",1,26,2005,-85.5681253,42.2547866
"KALAMAZOO ","2478 ROSEVELT , KALAMAZOO , MI","MI",1,29,2005,-85.5595882,42.3481916
"KALAMAZOO ","1403 SHERWOOD AVE 1 , KALAMAZOO , MI","MI",2,1,2005,-85.5626583,42.2972065
"KALAMAZOO ","1536 HIGHLAND HILLS DR , KALAMAZOO , MI","MI",2,4,2005,-85.6084571,42.3156761
"KALAMAZOO ","3650 LURK DR , KALAMAZOO , MI","MI",2,10,2005,-85.5872286,42.2917069
"KALAMAZOO ","1706 HOMECREST ST , KALAMAZOO , MI","MI",2,19,2005,-85.55873,42.2649975
"KALAMAZOO ","3405 D E AVE , KALAMAZOO , MI","MI",2,25,2005,-85.6316331,42.3619889
"KALAMAZOO ","4205 DEBBIE LN , KALAMAZOO , MI","MI",3,15,2005,-85.6414065,42.2743709
"KALAMAZOO ","1453 HIGHLAND HILLS DR , KALAMAZOO , MI","MI",3,29,2005,-85.6060086,42.3156523
"KALAMAZOO ","10150 RIVERVIEW N DR , KALAMAZOO , MI","MI",3,30,2005,-85.5700248,42.3067343
"KALAMAZOO ","1113 LANE BLVD , KALAMAZOO , MI","MI",3,30,2005,-85.5660301,42.2723205
"KALAMAZOO ","6766 COLGROVE , KALAMAZOO , MI","MI",4,6,2005,-85.4960941,42.2384959
"KALAMAZOO ","3634 LARK DR , KALAMAZOO , MI","MI",4,13,2005,-85.6357217,42.2728391
"KALAMAZOO ","738 VINE E ST , KALAMAZOO , MI","MI",4,15,2005,-85.5720858,42.2839884
"KALAMAZOO ","121 1/2 FELLOWS ST , KALAMAZOO , MI","MI",4,23,2005,-85.5839321,42.2823693
"KALAMAZOO ","3114 VIRGINIA AVE , KALAMAZOO , MI","MI",5,5,2005,-85.5595812,42.3221313
"KALAMAZOO ","1142 FARGO , KALAMAZOO , MI","MI",5,17,2005,-85.5657059,42.3158099
"KALAMAZOO ","1817 ROSE N ST , KALAMAZOO , MI","MI",5,18,2005,-85.5847021,42.3096575
"KALAMAZOO ","3661 CARDINAL DR , KALAMAZOO , MI","MI",5,24,2005,-85.6360692,42.2741673
"KALAMAZOO ","2141 AMHERST AVE , KALAMAZOO , MI","MI",5,30,2005,-85.6148308,42.2576287
"KALAMAZOO ","2000 BARNEY RD , KALAMAZOO , MI","MI",5,31,2005,-85.6197325,42.3179401
"KALAMAZOO ","3416 VALENCIA , KALAMAZOO , MI","MI",6,5,2005,-85.6316387,42.2736463
"KALAMAZOO ","1027 SHERWOOD AVE , KALAMAZOO , MI","MI",7,6,2005,-85.5674482,42.2972021
"KALAMAZOO ","8336 14TH ST , KALAMAZOO , MI","MI",7,6,2005,-85.6301029,42.3814934
"KALAMAZOO ","3315 BROOKFIELD , KALAMAZOO , MI","MI",7,9,2005,-85.5392989,42.2795939
"KALAMAZOO ","614 CHARLOTTE AVE , KALAMAZOO , MI","MI",7,13,2005,-85.5641406,42.2973463
"KALAMAZOO ","3415 VALENCIA LN , KALAMAZOO , MI","MI",8,22,2005,-85.6316189,42.2736186
"KALAMAZOO ","2516 CORLOT ST , KALAMAZOO , MI","MI",8,23,2005,-85.54948,42.329642
"KALAMAZOO ","502 30TH N ST , KALAMAZOO , MI","MI",8,23,2005,-85.4732137,42.3096897
"KALAMAZOO ","5069 ROYLAN ST , KALAMAZOO , MI","MI",8,23,2005,-85.5872286,42.2917069
"KALAMAZOO ","5225 FORDHAM , KALAMAZOO , MI","MI",8,29,2005,-85.5276053,42.3094915
"KALAMAZOO ","6568 WALBURN ST , KALAMAZOO , MI","MI",9,5,2005,-85.4996988,42.2390383
"KALAMAZOO ","1615 NOTTINGHAM ST 301 , KALAMAZOO , MI","MI",9,7,2005,-85.5595255,42.2474405
"KALAMAZOO ","482 REED ST , KALAMAZOO , MI","MI",9,19,2005,-85.5748356,42.2739647
"KALAMAZOO ","2924 ALAMO AVE , KALAMAZOO , MI","MI",9,26,2005,-85.6258528,42.3071067
"KALAMAZOO ","909 EDISON ST , KALAMAZOO , MI","MI",10,3,2005,-85.596595,42.3301296
"KALAMAZOO ","5381 THAYER AVE , KALAMAZOO , MI","MI",10,6,2005,-85.5542417,42.3368441
"KALAMAZOO ","3516 LOWDEN ST , KALAMAZOO , MI","MI",10,14,2005,-85.6260367,42.2572813
"KALAMAZOO ","6794 RAVINE RD , KALAMAZOO , MI","MI",10,25,2005,-85.6660005,42.3595934
"KALAMAZOO ","158 LEVEL ST , KALAMAZOO , MI","MI",11,9,2005,-85.4884765,42.2869719
"KALAMAZOO ","1539 HIGHLAND HILLS DR , KALAMAZOO , MI","MI",11,17,2005,-85.6077648,42.3156495
"KALAMAZOO ","156 28TH N ST 5 , KALAMAZOO , MI","MI",11,18,2005,-85.4924287,42.2897847
"KALAMAZOO ","831 BURDICK S ST , KALAMAZOO , MI","MI",12,12,2005,-85.5829357,42.2831471
"KALAMAZOO ","1517 PORTAGE ST , KALAMAZOO , MI","MI",12,21,2005,-85.5704523,42.2758979
"KALAMAZOO ","111 FELLOWS CT , KALAMAZOO , MI","MI",12,22,2005,-85.5831388,42.2824154
"KALAMAZOO ","400 NORTH W ST , KALAMAZOO , MI","MI",12,27,2005,-85.5874773,42.2978234
"KALAMAZOO ","4068 DEADWOOD N , KALAMAZOO , MI","MI",12,29,2005,-85.5416304,42.2406287
"KALAMAZOO ","1519 OLMSTEAD 32 , KALAMAZOO , MI","MI",1,6,2006,-85.5391712,42.2753772
"KALAMAZOO ","206 BELMONT E ST , KALAMAZOO , MI","MI",1,31,2006,-85.5806758,42.2715152
"KALAMAZOO ","3907 AOBURN LN , KALAMAZOO , MI","MI",3,7,2006,-85.5448695,42.239618
"KALAMAZOO ","1006 LANE BLVD , KALAMAZOO , MI","MI",3,8,2006,-85.5675086,42.2722781
"KALAMAZOO ","35382 22ND , KALAMAZOO , MI","MI",3,19,2006,-85.765921,42.2904354
"KALAMAZOO ","3606 STEWART DRIVE , KALAMAZOO , MI","MI",5,17,2006,-85.5360193,42.2764825
"KALAMAZOO ","6743 PEYTON PLACE , KALAMAZOO , MI","MI",5,17,2006,-85.4961584,42.2419858
"KALAMAZOO ","2233 FLOWER STREET , KALAMAZOO , MI","MI",5,23,2006,-85.5687915,42.2687462
"KALAMAZOO ","2023 SCHIPPERS LN. , KALAMAZOO , MI","MI",5,24,2006,-85.5546348,42.291989
"KALAMAZOO ","6453 TWILIGHT AVENUE , KALAMAZOO , MI","MI",6,26,2006,-85.5035372,42.3256078
"KALAMAZOO ","2334 EAST MAIN STREET , KALAMAZOO , MI","MI",7,24,2006,-85.5511717,42.3029405
"KALAMAZOO ","254 EAST D AVENUE , KALAMAZOO , MI","MI",8,1,2006,-85.586898,42.376494
"KALAMAZOO ","6743 PEYTON PLACE , KALAMAZOO , MI","MI",8,5,2006,-85.4961584,42.2419858
"KALAMAZOO ","1323 BROWNELL STREET , KALAMAZOO , MI","MI",8,17,2006,-85.6109932,42.3039747
"KALAMAZOO ","6743 PETTON PLACE , KALAMAZOO , MI","MI",8,29,2006,-85.4961584,42.2419858
"KALAMAZOO ","1370 RED MAPLE LANE , KALAMAZOO , MI","MI",1,10,2007,-85.6044975,42.3217138
"KALAMAZOO ","254 EAST D LOT 23 AVENUE , KALAMAZOO , MI","MI",2,5,2007,-85.586898,42.376494
"KALAMAZOO ","5781 SANDALWOOD , KALAMAZOO , MI","MI",2,14,2007,-85.5189617,42.3274812
"KALAMAZOO ","508 LAY BOULEVARD , KALAMAZOO , MI","MI",2,20,2007,-85.5749007,42.2730943
"KALAMAZOO ","5125 LANDS END DRIVE , KALAMAZOO , MI","MI",2,21,2007,-85.6204403,42.3349019
"KALAMAZOO ","2804 MOUNT OLIVET , KALAMAZOO , MI","MI",3,14,2007,-85.555386,42.3187294
"KALAMAZOO ","893 WORDEN , KALAMAZOO , MI","MI",4,14,2007,-85.5066832,42.2955193
"KALAMAZOO ","50 BLANCHE AVENUE , KALAMAZOO , MI","MI",6,5,2007,-85.581651,42.249301
"KALAMAZOO ","1944 SOUTH 11TH #3D STREET , KALAMAZOO , MI","MI",9,25,2007,-86.2486161,41.7960481
"KALAMAZOO ","530 DENWAY #36 CIRCLE , KALAMAZOO , MI","MI",10,2,2007,-85.59085,42.2519309
"KALAMAZOO ","2918 WHITTIER STREET , KALAMAZOO , MI","MI",11,5,2007,-85.5561318,42.261761
"KALAMAZOO ","3419 SOUTH 9TH STREET , KALAMAZOO , MI","MI",12,4,2007,-85.6774396,42.2579574
"KALAMAZOO ","7777 STADIUM DRIVE , KALAMAZOO , MI","MI",1,10,2008,-85.7030696,42.2537152
"KALAMAZOO ","5373 NORTH RIVERVIEW DRIVE , KALAMAZOO , MI","MI",1,17,2008,-85.559867,42.338245
"KALAMAZOO ","2515 EAST CORK STREET 25 , KALAMAZOO , MI","MI",1,29,2008,-85.5480778,42.2595678
"KALAMAZOO ","1316 SOUTH WESTNEDGE AVENUE 3 , KALAMAZOO , MI","MI",2,4,2008,-85.5896137,42.278377
"KALAMAZOO ","3321 COMSTOCK VILLAGE DRIVE 103 , KALAMAZOO , MI","MI",2,11,2008,-85.5231487,42.3178274
"KALAMAZOO ","6007 CHUBB AVENUE , KALAMAZOO , MI","MI",2,13,2008,-85.5118054,42.2890722
"KALAMAZOO ","3029 EMERALD DRIVE , KALAMAZOO , MI","MI",2,29,2008,-85.5505234,42.2611276
"KALAMAZOO ","720 OAK STREET 2 , KALAMAZOO , MI","MI",3,12,2008,-85.5922639,42.284824
"KALAMAZOO ","5665 JOSEPHINE STREET , KALAMAZOO , MI","MI",3,26,2008,-85.518137,42.2891632
"KALAMAZOO ","1011 DAYTON , KALAMAZOO , MI","MI",3,28,2008,-85.5451959,42.3015959
"KALAMAZOO ","1406 BANBURY STREET , KALAMAZOO , MI","MI",3,28,2008,-85.5617053,42.2510781
"KALAMAZOO ","1015 CHICAGO AVENUE 1 , KALAMAZOO , MI","MI",4,3,2008,-85.553321,42.3018486
"KALAMAZOO ","6381 EAST JK AVENUE , KALAMAZOO , MI","MI",4,6,2008,-85.5036183,42.2956483
"KALAMAZOO ","3836 MADISON AVENUE , KALAMAZOO , MI","MI",4,12,2008,-85.6233535,42.2533339
"KALAMAZOO ","5314 WESTSHIRE STREET , KALAMAZOO , MI","MI",4,16,2008,-85.5009458,42.2400826
"KALAMAZOO ","5273 NORTH 20TH STREET , KALAMAZOO , MI","MI",4,24,2008,-85.5704989,42.3454667
"KALAMAZOO ","1516 EAST MAIN STREET 1 , KALAMAZOO , MI","MI",5,12,2008,-85.5605525,42.2975565
"KALAMAZOO ","316 STUART AVENUE 2 , KALAMAZOO , MI","MI",5,19,2008,-85.5977193,42.293466
"KALAMAZOO ","1240 JEFFERSON , KALAMAZOO , MI","MI",5,21,2008,-85.6022554,42.2961931
"KALAMAZOO ","197 HOMER STREET , KALAMAZOO , MI","MI",5,22,2008,-85.4906726,42.2865924
"KALAMAZOO ","1103 FAIRBANKS AVENUE , KALAMAZOO , MI","MI",5,28,2008,-85.5615218,42.3023444
"KALAMAZOO ","5450 MOUNT COURT , KALAMAZOO , MI","MI",5,29,2008,-85.5437384,42.2379569
"KALAMAZOO ","5467 KEYES DRIVE , KALAMAZOO , MI","MI",5,29,2008,-85.5605114,42.3396202
"KALAMAZOO ","911 MILLS STREET , KALAMAZOO , MI","MI",6,12,2008,-85.5665515,42.2826168
"KALAMAZOO ","1549 NORTH HILLS DRIVE , KALAMAZOO , MI","MI",6,19,2008,-85.6066659,42.3161729
"KALAMAZOO ","730 LAKE STREET , KALAMAZOO , MI","MI",6,19,2008,-85.5714812,42.2809848
"KALAMAZOO ","202 WEST BELMONT , KALAMAZOO , MI","MI",7,2,2008,-85.5844416,42.2714218
"KALAMAZOO ","119 WALL STREET , KALAMAZOO , MI","MI",7,4,2008,-85.5838544,42.2812143
"KALAMAZOO ","2000 REED STREET , KALAMAZOO , MI","MI",7,5,2008,-85.5542965,42.2741231
"KALAMAZOO ","314 WEST VINE STREET 2 , KALAMAZOO , MI","MI",7,5,2008,-85.5864814,42.2840297
"KALAMAZOO ","4530 LILAC LANE 31 , KALAMAZOO , MI","MI",7,8,2008,-85.6466089,42.2748003
"KALAMAZOO ","527 WITWER COURT , KALAMAZOO , MI","MI",7,9,2008,-85.5735878,42.2690535
"KALAMAZOO ","606 DOUGLAS AVENUE 4 , KALAMAZOO , MI","MI",7,10,2008,-85.5994032,42.2967635
"KALAMAZOO ","6582 CELERY STREET , KALAMAZOO , MI","MI",7,15,2008,-85.5008278,42.2809746
"KALAMAZOO ","3304 RANDOM , KALAMAZOO , MI","MI",7,29,2008,-85.552635,42.3234205
"KALAMAZOO ","211 RIVER STREET C , KALAMAZOO , MI","MI",7,30,2008,-85.513464,42.2864363
"KALAMAZOO ","127 NORTH 26TH STREET , KALAMAZOO , MI","MI",8,13,2008,-85.5109683,42.2896203
"KALAMAZOO ","6605 CLAXTON STREET , KALAMAZOO , MI","MI",8,19,2008,-85.5148765,42.2565197
"KALAMAZOO ","507 REED STREET , KALAMAZOO , MI","MI",9,8,2008,-85.5743252,42.2741434
"KALAMAZOO ","2222 REGENT , KALAMAZOO , MI","MI",10,15,2008,-85.5649126,42.3131445
"KALAMAZOO ","6504 CELERY STREET , KALAMAZOO , MI","MI",10,28,2008,-85.5032363,42.2810369
"KALAMAZOO ","330 NORTH SAGE STREET 102 , KALAMAZOO , MI","MI",11,5,2008,-85.6434608,42.2951264
"KALAMAZOO ","1360 WILLOW LANE , KALAMAZOO , MI","MI",11,18,2008,-85.605004,42.3224951
"KALAMAZOO ","1112 COLONIAL TRAIL DRIVE , KALAMAZOO , MI","MI",11,20,2008,-85.6579883,42.2810867
"KALAMAZOO ","2417 LINCOLN STREET , KALAMAZOO , MI","MI",11,20,2008,-85.549834,42.288696
"KALAMAZOO ","6596 PICADILLY , KALAMAZOO , MI","MI",11,20,2008,-85.4994691,42.2401728
"KALAMAZOO ","407 PHELPS STREET , KALAMAZOO , MI","MI",11,21,2008,-85.559795,42.2946676
"KALAMAZOO ","1710 EAST G AVENUE 10 , KALAMAZOO , MI","MI",12,3,2008,-85.611204,42.3620092
"KALAMAZOO ","527 WEST CEDAR STREET 3 , KALAMAZOO , MI","MI",12,12,2008,-85.589941,42.2874654
"KALAMAZOO ","2517 SONORA , KALAMAZOO , MI","MI",12,19,2008,-85.5649361,42.3164895
"KALAMAZOO ","6400 EAST CELERY STREET  , KALAMAZOO , MI","MI",4,1,2009,-85.5049977,42.2810352
"KALAMAZOO ","700 BK  COLLETTE STREET  , KALAMAZOO , MI","MI",4,2,2009,-85.5205008,42.2920339
"KALAMAZOO ","265 NORTH PARCORN STREET  , KALAMAZOO , MI","MI",4,3,2009,-85.5872286,42.2917069
"KALAMAZOO ","1000  SCHUSTER STREET  , KALAMAZOO , MI","MI",4,4,2009,-85.5536823,42.2812804
"KALAMAZOO ","5059 SOUTH 9TH STREET  , KALAMAZOO , MI","MI",4,5,2009,-85.6765081,42.2444931
"KALAMAZOO ","5950 NORTH 20TH STREET  , KALAMAZOO , MI","MI",4,12,2009,-85.5705013,42.3473008
"KALAMAZOO ","2135  SPRINKLE ROAD  , KALAMAZOO , MI","MI",4,15,2009,-85.5308334,42.2695913
"KALAMAZOO ","1503  STOCKBRIDGE STREET  , KALAMAZOO , MI","MI",4,16,2009,-85.561571,42.2774579
"KALAMAZOO ","2515 EAST CORK STREET LOT 14 , KALAMAZOO , MI","MI",4,17,2009,-85.5480778,42.2595678
"KALAMAZOO ","654  RIVER STREET  , KALAMAZOO , MI","MI",4,17,2009,-85.515279,42.2823271
"KALAMAZOO ","3700  VANRICK DRIVE 241 , KALAMAZOO , MI","MI",5,2,2009,-85.5316232,42.2545721
"KALAMAZOO ","3700  VANRICK DRIVE 105 , KALAMAZOO , MI","MI",5,4,2009,-85.5316232,42.2545721
"KALAMAZOO ","3800 EAST CORK STREET  , KALAMAZOO , MI","MI",5,5,2009,-85.5319376,42.2606464
"KALAMAZOO ","6566 EAST JK AVENUE 1 , KALAMAZOO , MI","MI",5,7,2009,-85.5002384,42.2956187
"KALAMAZOO ","2615  AIRVIEW BOULEVARD 243/244 , KALAMAZOO , MI","MI",5,11,2009,-85.5583562,42.242677
"KALAMAZOO ","3401  OLNEY DRIVE  , KALAMAZOO , MI","MI",5,13,2009,-85.6312149,42.2984112
"KALAMAZOO ","3531  LOWDEN STREET  , KALAMAZOO , MI","MI",5,13,2009,-85.6257378,42.256796
"KALAMAZOO ","400  THE DELLS, KALAMAZOO , MI","MI",5,15,2009,-85.550892,42.2951396
"KALAMAZOO ","8720  IRONWOOD AVENUE LOT 191 , KALAMAZOO , MI","MI",5,15,2009,-85.71985,42.2471291
"KALAMAZOO ","923 SOUTH BURDICK STREET  , KALAMAZOO , MI","MI",5,16,2009,-85.582935,42.2824135
"KALAMAZOO ","2500  MOUNT OLIVET ROAD  , KALAMAZOO , MI","MI",5,19,2009,-85.5587859,42.3162375
"KALAMAZOO ","441 WEST CEDAR  2 , KALAMAZOO , MI","MI",5,21,2009,-85.5890168,42.287335
"KALAMAZOO ","527  DENWAY DRIVE  , KALAMAZOO , MI","MI",1,2,2010,-85.5907474,42.2517506
"KALAMAZOO ","1600 NORTH RIVERVIEW STREET  , KALAMAZOO , MI","MI",1,13,2010,-85.5700057,42.3066991
"KALAMAZOO ","2900  CHARLES AVENUE  , KALAMAZOO , MI","MI",1,17,2010,-85.5438918,42.2958907
"KALAMAZOO ","2595  NAZARETH, KALAMAZOO , MI","MI",1,25,2010,-85.5361832,42.3171936
"KALAMAZOO ","2515 EAST CORK STREET 43 , KALAMAZOO , MI","MI",1,29,2010,-85.5480778,42.2595678
"KALAMAZOO ","3611 EAST KILGORE ROAD  , KALAMAZOO , MI","MI",2,15,2010,-85.5368863,42.2449795
"KALAMAZOO ","5350 WEST MAIU STREET  , KALAMAZOO , MI","MI",2,15,2010,-85.6552613,42.2984081
"KALAMAZOO ","5425  MICHIGAN  210 , KALAMAZOO , MI","MI",2,16,2010,-85.5235131,42.2895302
"KALAMAZOO ","2042  LANE BOULEVARD  , KALAMAZOO , MI","MI",2,18,2010,-85.5551033,42.2722749
"KALAMAZOO ","5374  ANDRUS COURT  , KALAMAZOO , MI","MI",2,23,2010,-85.5425984,42.2404523
"KALAMAZOO ","5650  PARKVIEW AVENIDA  , KALAMAZOO , MI","MI",4,4,2010,-85.660805,42.2599346
"KALAMAZOO ","3002 SOUTH BURDICK  3C , KALAMAZOO , MI","MI",4,12,2010,-85.5798752,42.2611466
"KALAMAZOO ","318  CHICAGO AVENUE  , KALAMAZOO , MI","MI",4,22,2010,-85.5531566,42.2949482
"KALAMAZOO ","6244 EAST MICHIGAN AVENUE  , KALAMAZOO , MI","MI",5,6,2010,-85.5056289,42.2883518
"KALAMAZOO ","5760  ARBUTUS STREET  , KALAMAZOO , MI","MI",5,7,2010,-85.6756868,42.2333117
"KALAMAZOO ","527  EDWIN STREET  , KALAMAZOO , MI","MI",5,8,2010,-85.5588098,42.2967921
"KALAMAZOO ","5396  MILHAM DRIVE  , KALAMAZOO , MI","MI",5,15,2010,-85.5009333,42.23886
"KALAMAZOO ","719  WOODARD AVENUE  , KALAMAZOO , MI","MI",5,19,2010,-85.5960903,42.2981356
"KALAMAZOO ","7263  SAGINAW STREET  , KALAMAZOO , MI","MI",5,21,2010,-85.4873529,42.2907598
"KALAMAZOO ","5934  FRANCIS STREET  , KALAMAZOO , MI","MI",8,6,2010,-85.5129715,42.2822013
"KALAMAZOO ","611  COLLINS STREET  , KALAMAZOO , MI","MI",8,27,2010,-85.5730866,42.2798183
"KALAMAZOO ","325  DARLING STREET  , KALAMAZOO , MI","MI",9,8,2010,-85.546968,42.2945131
"KALAMAZOO ","3105  CARLETON STREET  , KALAMAZOO , MI","MI",9,9,2010,-85.5420402,42.280142
"KALAMAZOO ","1207  HAYS PARK AVENUE  , KALAMAZOO , MI","MI",9,15,2010,-85.5649212,42.2748537
"KALAMAZOO ","4050  UNDERWOOD COURT  , KALAMAZOO , MI","MI",1,6,2011,-85.5420596,42.2387946
"KALAMAZOO ","1200  TRIMBLE STREET  , KALAMAZOO , MI","MI",1,10,2011,-85.5575293,42.3032112
"KALAMAZOO ","1318  HUMPHREY STREET  , KALAMAZOO , MI","MI",1,13,2011,-85.5636765,42.3031813
"KALAMAZOO ","1526  UPLAND STREET  , KALAMAZOO , MI","MI",1,13,2011,-85.5420927,42.3066181
"KALAMAZOO ","750  LIBERTY STREET B2 , KALAMAZOO , MI","MI",5,9,2011,-85.5937427,42.2507637
"KALAMAZOO ","6166  KINGSVILLE DRIVE  , KALAMAZOO , MI","MI",5,12,2011,-85.5009427,42.2407962
"KALAMAZOO ","1334 NORTH PARK STREET  , KALAMAZOO , MI","MI",6,7,2011,-85.5874863,42.3044978
"KALAMAZOO ","1117  REED STREET  , KALAMAZOO , MI","MI",7,31,2011,-85.565999,42.2741326
"KALAMAZOO ","549  FENIMORE, KALAMAZOO , MI","MI",8,6,2011,-85.5541768,42.2974574
"KALAMAZOO ","1829  CHARLES STREET  , KALAMAZOO , MI","MI",8,15,2011,-85.5571403,42.2958731
"KALAMAZOO ","2177 EAST Y AVENUE  , KALAMAZOO , MI","MI",8,18,2011,-85.6172349,42.3619834
"KALAMAZOO ","9704  BIG ROCK DRIVE  , KALAMAZOO , MI","MI",8,29,2011,-85.73993,42.2966602
"KALAMAZOO ","734 EAST VW AVENUE C2 , KALAMAZOO , MI","MI",8,30,2011,-85.6003679,42.3619893
"KALAMAZOO ","2206  BENDER, KALAMAZOO , MI","MI",9,21,2011,-85.5631725,42.2430764
"KALAMAZOO ","4000  VALLEY DRIVE  , KALAMAZOO , MI","MI",9,23,2011,-85.638506,42.2939332
"KALAMAZOO ","750  PLEASANT AVENIDA 106 , KALAMAZOO , MI","MI",9,24,2011,-85.5938299,42.249701
"KALAMAZOO ","1023  LAY BOULEVARD  , KALAMAZOO , MI","MI",11,17,2011,-85.5667638,42.2732354
"KALAMAZOO ","2128  PORTAGE STREET , KALAMAZOO , MI","MI",12,10,2011,-85.5721766,42.270068
"KALAMAZOO ","1014  HAZARD AVENUE 2 , KALAMAZOO , MI","MI",12,14,2011,-85.5586498,42.3018648
"KALAMAZOO ","8895  BRIARWOOD AVENUE LOT: 12 , KALAMAZOO , MI","MI",12,16,2011,-85.7227433,42.2452808
"KALAMAZOO ","231  FORESMAN , KALAMAZOO , MI","MI",12,18,2011,-85.5610749,42.2938016
"KALAMAZOO ","6090  IMPERIAL STREET 8 , KALAMAZOO , MI","MI",12,21,2011,-85.5817788,42.260505
"KALAMAZOO ","316 WEST VINE  1 , KALAMAZOO , MI","MI",2,19,2012,-85.5864993,42.2840297
"KALAMAZOO ","501  FENIMORE AVENUE  , KALAMAZOO , MI","MI",7,2,2012,-85.5541344,42.2959052
"KALAMAZOO ","1706  BLOOMFIELD, KALAMAZOO , MI","MI",7,8,2012,-85.5590583,42.2480561
"KALAMAZOO ","4014 NORTH DEADWOOD, KALAMAZOO , MI","MI",8,17,2012,-85.5423031,42.2406277
"KALAMAZOO ","4319  DUKE STREET B8 , KALAMAZOO , MI","MI",5,10,2013,-85.5951128,42.2472491
"KALAMAZOO ","2854  MOUNT OLIVET ROAD  , KALAMAZOO , MI","MI",5,14,2013,-85.5542361,42.3195771
"KALAMAZOO ","1000 WEST D AVENUE  , KALAMAZOO , MI","MI",8,13,2013,-85.6027006,42.3765884
"KALAMAZOO ","1109  WILLIS AVENUE  , KALAMAZOO , MI","MI",2,10,2014,-85.5471324,42.280391
"KALAMAZOO ","2825  MAPLE AVENUE  , KALAMAZOO , MI","MI",2,10,2014,-85.5328615,42.3194502
"KALAMAZOO ","3925 SOUTH BURDICK, KALAMAZOO , MI","MI",3,6,2014,-85.5798565,42.2526065
"KALAMAZOO ","618  33RD STREET  , KALAMAZOO , MI","MI",3,14,2014,-85.4429697,42.2451318
"KALAMAZOO ","6659  CARLISLE STREET  , KALAMAZOO , MI","MI",3,22,2014,-85.4980015,42.239625
"KALAMAZOO ","5557  CODDINGTON LANE  BOX 1A , KALAMAZOO , MI","MI",5,30,2014,-85.5872286,42.2917069
"KALAMAZOO ","2215  WASHINGTON AVENUE , KALAMAZOO , MI","MI",10,3,2014,-85.5522541,42.2786915
"KALAMAZOO ","5672 EAST MICHIAGAN AVENUE , KALAMAZOO , MI","MI",10,5,2014,-85.5176294,42.2887963
"KALAMAZOO ","5097  MT. OLIVET AVENUE , KALAMAZOO , MI","MI",12,15,2014,-85.5458615,42.3343269
"KALAMAZOO ","6549  PEYTON PLACE , KALAMAZOO , MI","MI",12,9,2014,-85.5001329,42.2420071
"KALAMAZOO ","916 E STOCKBRIDGE AVENUE , KALAMAZOO , MI","MI",1,6,2015,-85.5682855,42.2774648
"KALAMAZOO ","13362 E L AVENUE , KALAMAZOO , MI","MI",2,19,2015,-85.4925338,42.2739077
"KALAMAZOO ","6007  ORAN  BOX APT 3 , KALAMAZOO , MI","MI",3,6,2015,-85.5872286,42.2917069
"KALAMAZOO ","1004  FLETCHER AVENUE , KALAMAZOO , MI","MI",3,14,2015,-85.6200632,42.3008129
"KALAMAZOO ","8392 S 2ND STREET , KALAMAZOO , MI","MI",4,3,2015,-85.7469548,42.3808257
"KALAMAZOO ","254 E D AVENUE BOX APT 39 , KALAMAZOO , MI","MI",4,3,2015,-85.5872286,42.2917069
"KALAMAZOO ","5184  BOYLAN AVENUE , KALAMAZOO , MI","MI",4,6,2015,-85.5689146,42.33531
"KALAMAZOO ","8945  BEECHWOOD DRIVE , KALAMAZOO , MI","MI",5,15,2015,-85.7249693,42.2457595
"KALAMAZOO ","1517  LANE BOULEVARD , KALAMAZOO , MI","MI",7,4,2015,-85.5608826,42.2723034
"KALAMAZOO ","3222  BIRCH LANE , KALAMAZOO , MI","MI",7,19,2015,-85.6032153,42.3221294
"KALAMAZOO ","1900  ROOSEVELT STREET , KALAMAZOO , MI","MI",7,7,2015,-85.5669597,42.3481716
"KALAMAZOO ","6399  BANEBENY ROAD , KALAMAZOO , MI","MI",8,5,2015,-85.6749926,42.233033
"KALAMAZOO ","  N AVE / S 31ST , KALAMAZOO , MI","MI",8,5,2015,-85.4625601,42.2376608
"KALAMAZOO ","8717  RUSTY DRIVE , KALAMAZOO , MI","MI",8,5,2015,-85.7202946,42.245412
"KALAMAZOO ","8717  RUSTY DRIVE , KALAMAZOO , MI","MI",8,5,2015,-85.7202946,42.245412
"KALAMAZOO ","1526  UPLAND DRIVE , KALAMAZOO , MI","MI",10,7,2015,-85.5420927,42.3066181
"KALAMAZOO ","5588  Meadowsweet Drive , KALAMAZOO , MI","MI",1,7,2016,-85.5193096,42.335352
"KALAMAZOO ","3150 DORI DR 208 , OSHTEMO , MI","MI",11,21,2005,-85.660297,42.2608995
"KALAMAZOO ","507 KEYES DR , PARCHMENT , MI","MI",7,21,2004,-85.568319,42.3311368
"KALAMAZOO ","5038 O E AVE , PAVILIENT WP , MI","MI",1,12,2006,-85.5298414,42.2302921
"KALAMAZOO ","6622 SOUTH 25TH STREET , PAVILION , MI","MI",6,14,2006,-85.5207084,42.2210279
"KALAMAZOO ","6754 CHARRING CROSS , PAVILLION TOWNSHIP , MI","MI",10,19,2005,-85.4967084,42.2413641
"KALAMAZOO ","3885 HAMLIN DR , PORTAGE , MI","MI",1,23,2004,-85.5433,42.2434751
"KALAMAZOO ","4284 BRISTLECONE DR , PORTAGE , MI","MI",1,25,2004,-85.6410433,42.2259005
"KALAMAZOO ","5447 MEREDITH DR D , PORTAGE , MI","MI",3,3,2004,-85.5356048,42.2382257
"KALAMAZOO ","219 DELLA ST , PORTAGE , MI","MI",5,5,2004,-85.5874519,42.2232299
"KALAMAZOO ","5530 LEXINGTON CIR , PORTAGE , MI","MI",9,15,2004,-85.5337419,42.2367129
"KALAMAZOO ","7528 LAKEWOOD DR , PORTAGE , MI","MI",10,22,2004,-85.5825187,42.2072354
"KALAMAZOO ","619 SCHURING RD 3 , PORTAGE , MI","MI",1,10,2005,-85.596209,42.2080792
"KALAMAZOO ","828 SHOM WAY ST , PORTAGE , MI","MI",2,22,2005,-85.5798148,42.1968988
"KALAMAZOO ","205 DAWNLEE , PORTAGE , MI","MI",3,22,2005,-85.5883625,42.2343933
"KALAMAZOO ","5541 LOVERS LN , PORTAGE , MI","MI",4,26,2005,-85.5744934,42.2360897
"KALAMAZOO ","4211 MONROE , PORTAGE , MI","MI",6,8,2005,-85.539103,42.2417239
"KALAMAZOO ","9440 WESTRIDGE S AVE , PORTAGE , MI","MI",10,11,2005,-85.5800022,42.2011538
"KALAMAZOO ","4216 MONROE , PORTAGE , MI","MI",11,21,2005,-85.5390688,42.2416962
"KALAMAZOO ","1130 EAST OSTERHOUT ST. , PORTAGE , MI","MI",4,17,2006,-85.5759058,42.1645493
"KALAMAZOO ","8036 LOVERS LANE , PORTAGE , MI","MI",6,6,2006,-85.5748541,42.1999804
"KALAMAZOO ","7146 LOVERS LANE , PORTAGE , MI","MI",8,18,2006,-85.574617,42.2131047
"KALAMAZOO ","2610 STANLEY , PORTAGE , MI","MI",10,26,2006,-85.5580352,42.1754973
"KALAMAZOO ","1605 BACON AVENUE , PORTAGE , MI","MI",12,6,2006,-85.5702171,42.1719682
"KALAMAZOO ","1522 HAMELINK STREET , PORTAGE , MI","MI",4,23,2007,-85.5719022,42.2363693
"KALAMAZOO ","5207 BONTE STREET , PORTAGE , MI","MI",6,15,2007,-85.5399125,42.2414718
"KALAMAZOO ","1722 QUAKER AVENUE , PORTAGE , MI","MI",3,4,2008,-85.6096474,42.2369419
"KALAMAZOO ","5423 MEREDITH 26 , PORTAGE , MI","MI",5,19,2008,-85.5338186,42.2396923
"KALAMAZOO ","5530 LEXINGTON CIRCLE , PORTAGE , MI","MI",6,10,2008,-85.5337419,42.2367129
"KALAMAZOO ","9624 SOUTH SPRINKLE ROAD , PORTAGE , MI","MI",6,18,2008,-85.530531,42.1773444
"KALAMAZOO ","5834 CRANSTON STREET , PORTAGE , MI","MI",9,9,2008,-85.5352401,42.2325043
"KALAMAZOO ","8119 BRUNING STREET , PORTAGE , MI","MI",9,11,2008,-85.5764408,42.198688
"KALAMAZOO ","1950 VANDERBILT , PORTAGE , MI","MI",10,23,2008,-85.6110591,42.1828903
"KALAMAZOO ","528 CONNECTICUT DRIVE , PORTAGE , MI","MI",11,25,2008,-85.5946971,42.2360056
"KALAMAZOO ","5429 MEREDITH 2A , PORTAGE , MI","MI",12,11,2008,-85.5320984,42.2395199
"KALAMAZOO ","2100  BLOCK WINTER AVENUE  , PORTAGE , MI","MI",4,14,2009,-85.602215,42.2143743
"KALAMAZOO ","5207  BONTE, PORTAGE , MI","MI",4,23,2009,-85.5399125,42.2414718
"KALAMAZOO ","5431  MEREDITH STREET 1C , PORTAGE , MI","MI",5,5,2009,-85.5356186,42.2390923
"KALAMAZOO ","1508 SOUTH SHORE, PORTAGE , MI","MI",5,9,2009,-85.5718638,42.1811174
"KALAMAZOO ","5442  MEREDITH  J , PORTAGE , MI","MI",1,4,2010,-85.5356539,42.2389555
"KALAMAZOO ","3140 EAST KILGORE, PORTAGE , MI","MI",1,16,2010,-85.5415143,42.2446658
"KALAMAZOO ","5500BK  SPRINKLE ROAD  , PORTAGE , MI","MI",2,1,2010,-85.5405036,42.2084099
"KALAMAZOO ","1706  BOKONER AVENUE  , PORTAGE , MI","MI",5,18,2010,-85.5800022,42.2011538
"KALAMAZOO ","11247  PORTAGE ROAD 22 , PORTAGE , MI","MI",2,3,2011,-85.5695661,42.1539712
"KALAMAZOO ","11247  PORTAGE ROAD 22 , PORTAGE , MI","MI",2,3,2011,-85.5695661,42.1539712
"KALAMAZOO ","4855 EAST MILHAM AVENUE B , PORTAGE , MI","MI",2,12,2011,-85.5315258,42.2303315
"KALAMAZOO ","4855 EAST MILHAM AVENUE B , PORTAGE , MI","MI",2,12,2011,-85.5315258,42.2303315
"KALAMAZOO ","8605  NEWELLS LANE  , PORTAGE , MI","MI",9,6,2011,-85.5698568,42.1923577
"KALAMAZOO ","5528  DEERFIELD, PORTAGE , MI","MI",6,19,2013,-85.6097431,42.2365261
"KALAMAZOO ","4212  WINTHROP, PORTAGE , MI","MI",2,3,2014,-85.5389244,42.2341393
"KALAMAZOO ","1025  SHUMWAY AVENUE  , PORTAGE , MI","MI",2,7,2014,-85.5776639,42.1969398
"KALAMAZOO ","1411 WEST CENTRE  , PORTAGE , MI","MI",10,5,2014,-85.6055273,42.2009223
"KALAMAZOO ","1727  PLEASANT DRIVE , PORTAGE , MI","MI",2,5,2015,-85.5692832,42.1993794
"KALAMAZOO ","8021  OAK STREET BOX APT 2 , PORTAGE , MI","MI",3,4,2015,-85.5800022,42.2011538
"KALAMAZOO ","5328  WISTERIA , PORTAGE , MI","MI",6,8,2015,-85.5877862,42.239733
"KALAMAZOO ","11000  SHAVER ROAD , PORTAGE , MI","MI",8,9,2015,-85.6243324,42.1573288
"KALAMAZOO ","6100  CORPORATE DRIVE , PORTAGE , MI","MI",8,24,2015,-85.5309245,42.230291
"KALAMAZOO ","1103  SCHURING , PORTAGE , MI","MI",11,27,2015,-85.6019995,42.2082608
"KALAMAZOO ","6905 EAST D AVENUE 6 , RICHLAND , MI","MI",9,15,2008,-85.4961502,42.3762295
"KALAMAZOO ","9604 EAST M-89  LOT 15 , RICHLAND , MI","MI",1,5,2011,-85.4438277,42.3758834
"KALAMAZOO ","5796 EAST DB AVENUE  , RICHLAND , MI","MI",8,20,2012,-85.5036296,42.3763015
"KALAMAZOO ","11926 EAST D AVENUE  , RICHLAND , MI","MI",2,7,2014,-85.3982399,42.3755361
"KALAMAZOO ","5598 MARTIN DR , ROSS TWP , MI","MI",8,31,2005,-85.3195199,42.3434881
"KALAMAZOO ","14213 14TH S ST , SCHOOLCRAFT , MI","MI",1,5,2005,-85.6272382,42.1113675
"KALAMAZOO ","11426 BONNIE DR 11 , SCHOOLCRAFT , MI","MI",3,5,2006,-85.6290601,42.1514446
"KALAMAZOO ","11465  CIRCLE DRIVE  , SCHOOLCRAFT , MI","MI",4,14,2009,-85.6281195,42.1508986
"KALAMAZOO ","11468  BONNIE DRIVE  , SCHOOLCRAFT , MI","MI",2,19,2010,-85.6296735,42.1510367
"KALAMAZOO ","435 E Cass STREET , SCHOOLCRAFT , MI","MI",1,6,2016,-85.6328248,42.1160775
"KALAMAZOO ","10844 QR E AVE , SCOTTS , MI","MI",5,6,2005,-85.4077016,42.197021
"KALAMAZOO ","11793 SOUTH 39TH STREET , SCOTTS , MI","MI",11,15,2007,-85.382978,42.1513418
"KALAMAZOO ","333 FRAKES ST A102 , VICKSBURG , MI","MI",3,24,2004,-85.5383258,42.1234427
"KALAMAZOO ","13397 X E AVE , VICKSBURG , MI","MI",9,1,2004,-85.362128,42.1150369
"KALAMAZOO ","12139 39TH S ST , VICKSBURG , MI","MI",7,11,2005,-85.3827828,42.1419727
"KALAMAZOO ","12677 36TH S ST , VICKSBURG , MI","MI",12,21,2005,-85.4120494,42.1342707
"KALAMAZOO ","15649 SOUTH 29TH STREET , VICKSBURG , MI","MI",3,29,2006,-85.4798824,42.0906471
"KALAMAZOO ","12937 BAYVIEW DRIVE , VICKSBURG , MI","MI",2,12,2007,-85.5371103,42.1297331
"KALAMAZOO ","407 WEST XY AVENUE , VICKSBURG , MI","MI",3,27,2007,-85.5929323,42.0920918
"KALAMAZOO ","207 NORTH RICHARDSON 3 , VICKSBURG , MI","MI",3,18,2008,-85.5300279,42.123043
"KALAMAZOO ","10477 SPRINKLE ROAD 4 , VICKSBURG , MI","MI",7,10,2008,-85.5280318,42.1645938
"KALAMAZOO ","12100 WEST INDIAN LAKE DRIVE , VICKSBURG , MI","MI",9,11,2008,-85.5029997,42.1420367
"KALAMAZOO ","13164 SOUTH 42ND STREET , VICKSBURG , MI","MI",9,24,2008,-85.3529846,42.1267759
"KALAMAZOO ","3300 EAST BLOCK U AVENUE  , VICKSBURG , MI","MI",4,9,2009,-85.5487028,42.1433077
"KALAMAZOO ","12900 SOUTH 39TH STREET  , VICKSBURG , MI","MI",4,17,2010,-85.3825952,42.1309636
"KALAMAZOO ","152 NORTH MAIN STREET 4 , VICKSBURG , MI","MI",6,23,2010,-85.5323984,42.1213235
"KALAMAZOO ","1016  ODELL LANE , VICKSBURG , MI","MI",4,6,2015,-85.5514589,42.1366317
"KALAMAZOO ","712  PARK AVENUE , VICKSBURG , MI","MI",9,1,2015,-85.5363962,42.1118078
"KALAMAZOO ","5200  EVERHARD, , MI","MI",4,29,2009,-85.5749377,42.3352056
"KALKASKA ","7596 HAHN CIRCLE , RAPID CITY , MI","MI",2,7,2006,-85.2803863,44.8294574
"KALKASKA ","322  WHALEY STREET  , SOUTH BOARDMAN , MI","MI",7,29,2013,-85.2801945,44.6413569
"KENT ","8377  WATER EDGE DRIVE  , COMSTOCK PARK , MI","MI",8,12,2012,-85.6125489,43.0313532
"KENT ","2324 SOUTH DIVISION AVENUE , GRAND RAPIDS , MI","MI",7,23,2006,-85.6660136,42.9214804
"KENT ","980 KENDELWOOD STREET , GRAND RAPIDS , MI","MI",8,9,2006,-85.6442171,43.0187144
"KENT ","1516 NORTHWEST ALPINE STREET  , GRAND RAPIDS , MI","MI",6,20,2010,-85.6880683,42.9913144
"KENT ","154 SOUTHWEST NATIONAL STREET  , GRAND RAPIDS , MI","MI",6,20,2010,-85.685846,42.960144
"KENT ","1354 NORTHEAST HOLLYWOOD STREET  , GRAND RAPIDS , MI","MI",7,4,2011,-85.635323,43.006912
"KENT ","105 NORTHWEST BROADWAY AVENUE  , GRAND RAPIDS , MI","MI",10,19,2012,-85.6791472,42.9813565
"KENT ","286 SOUTHWEST SWORD STREET  , GRAND RAPIDS , MI","MI",11,21,2013,-85.6687681,42.8464579
"KENT ","626 SE CASS AVENUE , GRAND RAPIDS , MI","MI",2,11,2015,-85.662601,42.950761
"KENT ","1502 NE WAKELY STREET , GRAND RAPIDS , MI","MI",12,1,2015,-85.6325872,42.9946683
"KENT ","10755 WEST SIMPSON , GREENVILLE , MI","MI",5,4,2006,-85.3327536,43.1613728
"KENT ","4822  ARBOR LANE  , KENTWOOD , MI","MI",11,2,2011,-85.6487267,42.8763449
"KENT ","3694 SE BRETON ROAD , KENTWOOD , MI","MI",2,17,2015,-85.606216,42.896656
"KENT ","306 SE RIDGEWOOD STREET , KENTWOOD , MI","MI",7,20,2015,-85.658008,42.881206
"KENT ","6973 GOLDENROD , ROCKFORD , MI","MI",9,22,2005,-85.4543,43.089854
"KENT ","4385 SOUTHWEST IDLEWOOD, WYOMING , MI","MI",2,13,2012,-85.7144415,42.8851275
"LAKE ","7216 S KIDD STRAVENUE , BALDWIN , MI","MI",5,20,2015,-85.815023,43.882961
"LAKE ","9314 48TH E ST , CHASE , MI","MI",9,14,2004,-85.6159508,43.9019487
"LAKE ","8934  DEERFIELD CIRCLE  , REED CITY , MI","MI",4,19,2009,-85.6238881,43.9781289
"LAPEER ","1949  HICKORY LANE BOX 104 , IMLAY CITY , MI","MI",5,1,2015,-83.0777153,43.0247496
"LAPEER ","211  SARATOGA TRAIL , LAPEER , MI","MI",9,18,2015,-83.3036714,43.1263399
"LENAWEE ","219 SOUTH JACKSON STREET  , ADDISON , MI","MI",8,2,2012,-84.344968,41.985013
"LENAWEE ","620 WINTER N ST , ADRIAN , MI","MI",3,11,2006,-84.034223,41.9045896
"LENAWEE ","1661 WEST VALLEY ROAD , ADRIAN , MI","MI",5,27,2008,-84.019989,41.93406
"LENAWEE ","620 NORTH WINTER STREET  , ADRIAN , MI","MI",10,21,2011,-84.034223,41.9045896
"LENAWEE ","1004 NORTH BROAD STREET  , ADRIAN , MI","MI",8,6,2012,-84.0286482,41.9063773
"LENAWEE ","207  GROVE STREET 4 , HUDSON , MI","MI",12,4,2013,-84.358842,41.853297
"LENAWEE ","1050  PACKARD ROAD  , JASPER , MI","MI",10,21,2011,-84.042866,41.784019
"LENAWEE ","1050  PACKARD ROAD , JASPER , MI","MI",12,1,2011,-84.042866,41.784019
"LENAWEE ","15670  WABASH ROAD  , MORENCI , MI","MI",4,15,2009,-84.3224321,41.7222571
"LENAWEE ","4163  ROBB HIGHWAY  , PALMYRA , MI","MI",11,9,2011,-83.94034,41.858835
"MACOMB ","8415  TIMBERLINE DRIVE  , SHELBY , MI","MI",7,19,2012,-83.029546,42.672323
"MACOMB ","42103 BETLEY ROAD , STERLING HEIGHTS , MI","MI",7,9,2007,-83.009578,42.60358
"MACOMB ","24503  TALLMAN, WARREN , MI","MI",2,1,2012,-83.012181,42.47431
"MANISTEE ","711  RAMSDELL STREET , MANISTEE , MI","MI",12,19,2014,-86.312707,44.2394841
"MANISTEE ","4186  MARY STREET  , WELLSTON , MI","MI",10,1,2013,-85.9342938,44.1770048
"MARQUETTE ","214  TITAN STREET  , GWINN , MI","MI",2,18,2014,-87.3650494,46.327529
"MARQUETTE ","322  QUAIL STREET , GWINN , MI","MI",5,4,2015,-87.361232,46.3291416
"MARQUETTE ","123  BIRCH STREET , GWINN , MI","MI",7,24,2015,-87.4434666,46.2799777
"MARQUETTE ","2104  NORTHWESTERN LAKE TRAIL , GWINN , MI","MI",8,4,2015,-87.4409718,46.2810556
"MARQUETTE ","429  HIGH STREET  , ISHPEMING , MI","MI",2,12,2014,-87.6658685,46.4935987
"MARQUETTE ","213  OAK STREET , ISHPEMING , MI","MI",10,16,2014,-87.6717552,46.4930982
"MARQUETTE ","213 EAST EUCLID STREET  BOX UPPER , ISHPEMING , MI","MI",10,29,2014,-81.5354327,41.609742
"MARQUETTE ","260  MARBLE STREET , ISHPEMING , MI","MI",10,16,2014,-87.7015397,46.4828272
"MARQUETTE ","655  MAURICE STREET  BOX 2 , ISHPEMING , MI","MI",12,21,2014,-87.6676358,46.4885469
"MARQUETTE ","427  ROCK STREET 4 , MARQUETTE , MI","MI",1,5,2014,-87.401511,46.5409559
"MARQUETTE ","777  PIONEER ROAD  BOX 190 , MARQUETTE , MI","MI",12,13,2014,-87.3955954,46.5475825
"MASON ","6967 ABRAHAMSON , LUDINGTON , MI","MI",2,13,2007,-86.4543229,43.981437
"MECOSTA ","13401  215TH AVENUE  , BIG RAPIDS , MI","MI",11,13,2013,-85.5135937,43.6623043
"MECOSTA ","23759  NORTHLAND DRIVE  , PARIS , MI","MI",6,5,2012,-85.5029499,43.8118062
"MECOSTA ","204 SOUTH SHERIDAN STREET  , REMUS , MI","MI",11,19,2013,-85.1453832,43.5953771
"MENOMINEE ","N15965  MAIN STREET , POWERS , MI","MI",10,26,2015,-87.5220921,45.6932422
"MENOMINEE ","W406  CASINO, WILSON , MI","MI",5,20,2013,-87.3413086,45.6525483
"MIDLAND ","4384  LEWIS ROAD  , COLEMAN , MI","MI",7,16,2012,-84.5668121,43.7389962
"MIDLAND ","4045 NORTH GENEVA ROAD  , COLEMAN , MI","MI",3,17,2014,-84.5470255,43.7290508
"MIDLAND ","5898 NORTH STURGEON ROAD  , MIDLAND , MI","MI",6,11,2011,-84.2670799,43.7821662
"MIDLAND ","  610 VILLAGE CIRCLE D , MIDLAND , MI","MI",7,10,2013,-84.2200141,43.6589314
"MIDLAND ","1397 W GORDONVILLE AVENUE , MIDLAND , MI","MI",10,1,2015,-84.424251,43.5676961
"MIDLAND ","3241  ALAMANDO ROAD  , PORT HURON , MI","MI",9,18,2013,-82.4249142,42.9708634
"MONTCALM ","15801  LINCOLN STREET , CORAL , MI","MI",4,24,2014,-85.4004039,43.3612028
"MONTCALM ","1006 S MINER ROAD , CRYSTAL , MI","MI",8,4,2015,-84.8948881,43.2782471
"MONTCALM ","8869  EASTERN AVENUE  , GREENVILLE , MI","MI",1,19,2014,-85.2506366,43.1970779
"MONTCALM ","4757  GREENVILLE ROAD  BOX C , GREENVILLE , MI","MI",4,29,2014,-85.2527987,43.1775314
"MONTCALM ","8636 OTTAWA TRAIL , HOWARD CITY , MI","MI",5,15,2008,-85.5073038,43.4200194
"MONTCALM ","14085 W HOWARD CITY-EDMORE ROAD , HOWARD CITY , MI","MI",5,6,2015,-85.3645566,43.4328468
"MONTCALM ","8897 FERRIS BOULEVARD , LAKEVIEW , MI","MI",2,7,2006,-85.1934736,43.4202127
"MONTCALM ","6113 FULLER ST , SHERIDAN , MI","MI",11,26,2004,-85.1948312,43.2239779
"MONTCALM ","8282 LACE DR , STANTON , MI","MI",7,13,2004,-85.2499909,43.2951393
"MONTCALM ","323 EAST KLEES ROAD  , STANTON , MI","MI",7,26,2010,-85.0778923,43.3070634
"MUSKEGON ","345 MOON CT , CASNOVIA , MI","MI",7,20,2005,-85.8134795,43.2585182
"MUSKEGON ","5842  DANC DRIVE  , DALTON , MI","MI",10,4,2012,-86.2643254,43.3639355
"MUSKEGON ","11639 NICHOLS ROAD , HOLTON , MI","MI",1,9,2006,-86.1932621,43.4653868
"MUSKEGON ","7364  BRICKYARD ROAD , HOLTON , MI","MI",4,6,2015,-86.0591495,43.3873019
"MUSKEGON ","1160 HARVEY , MUSKEGON , MI","MI",4,26,2005,-86.2037574,43.2311618
"MUSKEGON ","1826  RAY, MUSKEGON , MI","MI",2,7,2014,-86.2256569,43.2190304
"MUSKEGON ","1239  FLEMING  , MUSKEGON , MI","MI",12,17,2014,-86.2133582,43.2248855
"MUSKEGON ","1860 E ISBELLA , MUSKEGON , MI","MI",9,3,2015,-86.1977075,43.2325751
"MUSKEGON ","243  RUDDIMAN ROAD , NORTH MUSKEGON , MI","MI",2,7,2015,-86.2993909,43.244057
"MUSKEGON ","2917 BRUNSWICK , NORTON SHORES , MI","MI",5,23,2005,-86.2177761,43.199537
"MUSKEGON ","3120  SHEFFIELD, NORTON SHORES , MI","MI",7,23,2013,-86.262107,43.1961444
"NEWAYGO ","11696 NORTH BINGHAM AVENUE  , BITELY , MI","MI",12,13,2012,-85.859851,43.765406
"NEWAYGO ","7038 WEST 48TH, FREMONT , MI","MI",1,12,2010,-85.9750576,43.4672
"NEWAYGO ","2021 EAST 22 MILE ROAD  , KENT CITY , MI","MI",1,10,2011,-85.751383,43.293686
"NEWAYGO ","6475 EAST 13TH STREET  , WHITE CLOUD , MI","MI",11,5,2013,-85.640569,43.53248
"NEWAYGO ","1388  E. WILCOX AVENUE , WHITE CLOUD , MI","MI",2,5,2015,-85.766999,43.549985
"OAKLAND ","1482 EAST ELZA AVENUE , HAZEL PARK , MI","MI",12,3,2014,-83.088797,42.451581
"OAKLAND ","821 NORTH EDGEWORTH AVENUE , ROYAL OAK , MI","MI",9,22,2004,-83.120262,42.497167
"OCEANA ","7990  WHITE ROAD , HESPERIA , MI","MI",1,9,2015,-86.0953853,43.533092
"OCEANA ","2909  LAKEVIEW DRIVE , HESPERIA , MI","MI",6,4,2015,-86.152189,43.5913414
"OCEANA ","8950  NEWFIELD DRIVE , HESPERIA , MI","MI",9,23,2015,-86.05529,43.5664113
"OSCEOLA ","765 JEFFERSON 17 , EVART , MI","MI",6,27,2004,-85.2681863,43.9104737
"OSCEOLA ","19844 LOWRY STREET , MARION , MI","MI",4,10,2008,-85.1372956,44.0983332
"OSCEOLA ","16201  21 MILE ROAD  , TUSTIN , MI","MI",2,4,2014,-85.4185203,44.1168114
"OSCODA ","440 SOUTH GERBER ROAD  , MIO , MI","MI",3,14,2014,-84.1464907,44.6694629
"OTTAWA ","10069  LAKER LANE  , ALLENDALE , MI","MI",1,15,2014,-85.8923653,42.9539425
"OTTAWA ","505 30TH W D3 , HOLLAND , MI","MI",1,6,2005,-86.1300333,42.7707258
"OTTAWA ","791 EAST 16TH STREET C52 , HOLLAND , MI","MI",1,6,2013,-86.073617,42.784841
"OTTAWA ","92 EAST 21ST STREET LOWER , HOLLAND , MI","MI",1,6,2013,-86.111261,42.778168
"OTTAWA ","11877  WAVERLY MEADOW APT 80 , HOLLAND , MI","MI",4,16,2013,-86.0751637,42.8281006
"OTTAWA ","232 EAST 13TH STREET UPPER , HOLLAND , MI","MI",5,6,2013,-86.096682,42.785597
"OTTAWA ","358  MAPLE AVE STREET 7 , HOLLAND , MI","MI",5,7,2013,-86.115072,42.784008
"OTTAWA ","11788  WAVERLY MEADOW  , HOLLAND , MI","MI",7,17,2013,-86.0732286,42.8290344
"OTTAWA ","56 WEST 16TH STREET , HOLLAND , MI","MI",4,3,2014,-86.109842,42.782733
"OTTAWA ","40 NORTH ELM STREET  , ZEELAND , MI","MI",1,29,2014,-86.016998,42.813483
"OTTAWA ","8553  HERON STREET , ZEELAND , MI","MI",11,12,2015,-85.9932908,42.8280753
"PENOBSCOT ","177 HAMMOND ST 1 , BANGOR , MI","MI",4,27,2005,-86.1130794,42.3125355
"ROSCOMMON ","105  ALBONQUIAN  , PRUDENVILLE , MI","MI",10,21,2014,-84.6319629,44.3246583
"ROSCOMMON ","121  16TH STREET , PRUDENVILLE , MI","MI",10,20,2014,-84.6650651,44.3001062
"SAGINAW ","12119  ROTTIERS STREET  , BIRCH RUN , MI","MI",11,25,2010,-83.78851,43.248442
"SAINT JOSEPH ","29738 WITT LAKE RD , BURR OAK , MI","MI",8,28,2004,-85.3759162,41.8238966
"SAINT JOSEPH ","64718 MAPLE LN , BURR OAK , MI","MI",10,7,2005,-85.3185062,41.8593839
"SAINT JOSEPH ","64643 MAPLE LANE , BURR OAK , MI","MI",6,1,2006,-85.3184663,41.8601702
"SAINT JOSEPH ","16 PLUM CT , CENTREVILLE , MI","MI",9,17,2005,-85.5293871,41.9261916
"SAINT JOSEPH ","123 CANAL ST , COLON , MI","MI",6,7,2004,-85.3257343,41.9578487
"SAINT JOSEPH ","31271 FRANCIS STREET , COLON , MI","MI",6,13,2006,-85.3450147,41.918377
"SAINT JOSEPH ","1200 WASHINGTON S ST 14 , CONSTANTINE , MI","MI",4,12,2004,-85.6649473,41.8302725
"SAINT JOSEPH ","31093 M 60 HWY , LEONIDAS , MI","MI",10,26,2005,-85.3502567,42.0244142
"SAINT JOSEPH ","122 NOTTOWA N ST , STURGIS , MI","MI",12,26,2004,-85.4191242,41.8003336
"SAINT JOSEPH ","1035 CATO LANE , STURGIS , MI","MI",4,28,2006,-85.4315969,41.7883142
"SAINT JOSEPH ","206 WEST WEST , STURGIS , MI","MI",7,14,2006,-85.4205602,41.8011983
"SAINT JOSEPH ","21266 MICHIGAN AVE , THREE RIVERS , MI","MI",1,12,2004,-85.5430127,42.0423537
"SAINT JOSEPH ","16917 SUNSET LN , THREE RIVERS , MI","MI",5,12,2004,-85.6259381,41.9703911
"SAINT JOSEPH ","61436 WOOD LAKE RD , THREE RIVERS , MI","MI",2,9,2005,-85.7796853,41.9111611
"SAINT JOSEPH ","51378 PARKVILLE RD , THREE RIVERS , MI","MI",6,28,2005,-85.5483278,42.0487702
"SAINT JOSEPH ","617 14TH ST LOT 34 , THREE RIVERS , MI","MI",8,4,2005,-85.6173513,41.9366751
"SAINT JOSEPH ","19350 M-86 , THREE RIVERS , MI","MI",11,29,2005,-85.576694,41.9257812
"SAINT JOSEPH ","514 MAIN N ST , THREE RIVERS , MI","MI",12,3,2005,-85.634718,41.9518829
"SAINT JOSEPH ","10251  BALD HILL STREET , THREE RIVERS , MI","MI",3,13,2015,-85.7655428,41.9400883
"SAINT JOSEPH ","225 E MICHIGAN STREET , THREE RIVERS , MI","MI",6,9,2015,-85.6265894,41.944678
"SAINT JOSEPH ","19013 FAWN RIVER RD LOT 7 , WHITE PIGEON , MI","MI",2,23,2004,-85.583743,41.7798833
"SAINT JOSEPH ","10842 RIVERSIDE DR , WHITE PIGEON , MI","MI",12,8,2004,-85.7505281,41.8020863
"SAINT JOSEPH ","1108 GREEN LAWN , WHITE PIGEON , MI","MI",4,3,2005,-85.6433229,41.7981056
"SAINT JOSEPH ","69520 THOMAS ST , WHITE PIGEON , MI","MI",7,14,2005,-85.7501762,41.7870628
"SAINT JOSEPH ","107 HOTCHIN E ST , WHITE PIGEON , MI","MI",9,14,2005,-85.6420928,41.7958072
"SAINT JOSEPH ","10259 JOHN STREET , WHITE PIGEON , MI","MI",9,16,2006,-85.7556888,41.7988674
"SAINT JOSEPH ","15378 PARKVILLE RD , , MI","MI",11,16,2004,-85.5478945,42.0179537
"SHIAWASSEE ","3665 BOSTEDOR , CORUNNA , MI","MI",10,27,2004,-84.117745,42.9819728
"SHIAWASSEE ","105  JOHN STREET BOX 1&2 , DURAND , MI","MI",9,10,2015,-76.4957557,45.3584903
"SHIAWASSEE ","1274  LELAND ROAD  , OVID , MI","MI",6,18,2013,-84.3340927,42.9804499
"SHIAWASSEE ","524 CORUNNA AVENUE , OWOSSO , MI","MI",11,17,2004,-84.1641329,42.9912253
"SHIAWASSEE ","1750 M-21 E HWY 18 , OWOSSO , MI","MI",12,21,2004,-84.1979713,42.9976495
"SHIAWASSEE ","1836 KILBOURN AVE , OWOSSO , MI","MI",12,21,2004,-84.1461356,42.9888157
"SHIAWASSEE ","523 EXCHANGE E ST , OWOSSO , MI","MI",4,14,2005,-84.1637259,42.998506
"SHIAWASSEE ","1101 LYNN ST , OWOSSO , MI","MI",4,21,2005,-84.1852253,42.9960545
"SHIAWASSEE ","523 EXCHANGE N , OWOSSO , MI","MI",4,22,2005,-84.1637259,42.998506
"SHIAWASSEE ","1512 DEWEY W RD , OWOSSO , MI","MI",5,1,2005,-84.1990771,42.968618
"SHIAWASSEE ","1101 LYNN W ST , OWOSSO , MI","MI",5,17,2005,-84.1852253,42.9960545
"SHIAWASSEE ","307 GENESEE W ST , OWOSSO , MI","MI",3,27,2006,-84.173924,42.9956596
"SHIAWASSEE ","916 MILWUAKEE STREET , OWOSSO , MI","MI",7,28,2008,-84.1832027,42.9934086
"SHIAWASSEE ","1200  PENBROOK DRIVE  , OWOSSO , MI","MI",5,10,2009,-84.1875402,42.9793384
"SHIAWASSEE ","6110  MCBRIDE ROAD  , OWOSSO , MI","MI",7,1,2013,-84.2869114,43.0064482
"SHIAWASSEE ","915  FLETCHER STREET  , OWOSSO , MI","MI",1,3,2014,-84.1837485,42.9923647
"SHIAWASSEE ","425  HAMBLIN STREET  , OWOSSO , MI","MI",2,25,2014,-84.1641305,42.9926141
"SHIAWASSEE ","906 S SAGINAW STREET , OWOSSO , MI","MI",5,17,2015,-84.1683386,42.9885587
"SHIAWASSEE ","721 N WASHINGTON STREET , OWOSSO , MI","MI",1,7,2016,-84.1705594,43.0049622
"ST. CLAIR ","9734  RIVER ROAD , ALGONAC , MI","MI",9,9,2015,-82.5148978,42.6382215
"ST. CLAIR ","9734  RIVER ROAD , ALGONAC , MI","MI",12,8,2015,-82.5148978,42.6382215
"SAINT CLAIR ","5648  NORTH RO , CLYDE , MI","MI",6,9,2015,-82.527987,43.0714317
"ST CLAIR ","4045  LAPER  2 , GOBLES , MI","MI",9,23,2013,-85.8794635,42.3608691
"ST. CLAIR ","8418  SPARLING ROAD , GOODELLS , MI","MI",12,6,2014,-82.660899,42.968205
"ST CLAIR ","9539  BEARD ROAD  , KENOCKEE TWP , MI","MI",3,27,2014,-82.715022,43.053649
"ST CLAIR ","1014  CEDAR STREET  , PORT HURON , MI","MI",3,5,2014,-82.4329139,42.9616155
"ST CLAIR ","1039  OAK STREET  BOX UPPER , PORT HURON , MI","MI",6,11,2014,-82.4249142,42.9708634
"ST CLAIR ","4253  LAPEER ROAD 19 , PORT HURON TWP , MI","MI",8,13,2013,-82.493429,42.980714
"ST CLAIR ","1039  OAK STREET  , PORT HURON TWP , MI","MI",9,9,2013,-82.4340763,42.9664101
"ST. CLAIR ","5279  GRISWOLD, KALAMAZOO , MI","MI",6,4,2013,-85.5872286,42.2917069
"ST. CLAIR ","5279  GRISWOLD ROAD  , KIMBALL , MI","MI",6,4,2013,-82.534291,42.962975
"ST. CLAIR ","2425  RANDOLPH STREET  , PORT HURON , MI","MI",7,22,2011,-82.485154,42.977694
"ST. CLAIR ","1013  10TH STREET APT 2 , PORT HURON , MI","MI",2,1,2012,-82.4330905,42.9730495
"ST. CLAIR ","2705  ROBBINS COURT  , PORT HURON , MI","MI",10,24,2012,-82.4672651,42.9835379
"ST. CLAIR ","2909  PEAVEY STREET  , PORT HURON , MI","MI",12,6,2012,-82.4579025,42.9395042
"ST. CLAIR ","3635  WEST WATER STREET  , PORT HURON , MI","MI",7,9,2013,-82.4759517,42.9954598
"ST. CLAIR ","1116  VARNEY STREET  , PORT HURON , MI","MI",7,13,2013,-82.435944,42.9794339
"ST. CLAIR ","1037  MINNIE STREET  , PORT HURON , MI","MI",8,21,2013,-82.4339325,42.9645408
"ST CLAIR ","1417  BANCROFT STREET , PORT HURON , MI","MI",10,3,2014,-82.4398836,42.963407
"ST. CLAIR ","828  UNION STREET  BOX 1 , PORT HURON , MI","MI",12,6,2014,-82.4249142,42.9708634
"ST. CLAIR ","1311  10TH AVENUE , PORT HURON , MI","MI",12,2,2014,-82.4339317,42.987742
"ST. CLAIR ","1122  HOWARD STREET BOX 1 , PORT HURON , MI","MI",1,14,2015,-82.4249142,42.9708634
"ST. CLAIR ","2726  STURGES STREET , PORT HURON , MI","MI",2,9,2015,-82.4557006,42.9382831
"ST. CLAIR ","1233  WALL STREET BOX 3 , PORT HURON , MI","MI",3,1,2015,-82.4249142,42.9708634
"ST. CLAIR ","904  GRISWOLD STREET , PORT HURON , MI","MI",5,2,2015,-82.4309336,42.9671602
"ST. CLAIR ","815  COURT , PORT HURON , MI","MI",9,9,2015,-82.4298213,42.9717857
"ST. CLAIR ","1103  CEDAR STREET , PORT HURON , MI","MI",2,24,2016,-82.4340814,42.9616043
"ST. CLAIR ","1217  9th STREET BOX 4 , PORT HURON , MI","MI",3,8,2016,-82.4249142,42.9708634
"SAINT CLAIR ","1751 N WADHAMS ROAD , SAINT CLAIR , MI","MI",6,9,2015,-82.554035,42.85291
"SAINT CLAIR ","1116  VARNEY STREET , PORT HURON , MI","MI",7,24,2015,-82.435944,42.9794339
"SAINT CLAIR ","1322  DIVISION , PORT HURON , MI","MI",10,16,2015,-82.4383036,42.9652118
"SAINT CLAIR ","2010  FARRAND STREET , PORT HURON , MI","MI",10,27,2015,-82.4484881,42.977032
"SAINT CLAIR ","2801  GRISWOLD ROAD BOX 47 , PORT HURON , MI","MI",11,9,2015,-82.4249142,42.9708634
"ST. CLAIR ","60061  SHAFFER BROTHERS ROAD  , THREE RIVERS , MI","MI",11,11,2010,-85.7295315,41.9306219
"ST. JOSEPH ","64643 MAPLE LANE , BURR OAK , MI","MI",6,1,2006,-85.3184663,41.8601702
"ST. JOSEPH ","240 CLINTON STREET , BURR OAK , MI","MI",9,8,2006,-85.3174658,41.8435363
"ST. JOSEPH ","6470  SYCAMORE DRIVE  , BURR OAK , MI","MI",12,9,2010,-85.3171362,41.8594971
"ST. JOSEPH ","ROAD  , CENTREVILLE , MI","MI",1,10,2010,-85.6597162,41.8411126
"ST. JOSEPH ","20126 SOUTH RIVER ROAD  , CENTREVILLE , MI","MI",5,20,2010,-85.5633593,41.9403871
"ST. JOSEPH ","327 NORTH DEAN STREET 5 , CENTREVILLE , MI","MI",4,3,2013,-85.5269194,41.9266879
"ST. JOSEPH ","33618 HOWARD ROAD , COLON , MI","MI",3,16,2007,-85.2981499,41.9384489
"ST. JOSEPH ","708 EAST STATE STREET , COLON , MI","MI",6,16,2008,-85.3149916,41.9558534
"ST. JOSEPH ","10473 NORTH RIVER ROAD , CONSTANTINE , MI","MI",9,4,2007,-85.7505094,41.8134321
"ST. JOSEPH ","14310 STEARS ROAD , CONSTANTINE , MI","MI",11,2,2007,-85.6757046,41.8238435
"ST. JOSEPH ","1200 SOUTH WASHINGTON # 50 STREET , CONSTANTINE , MI","MI",11,5,2007,-87.48211,40.8226196
"ST. JOSEPH ","1200 SOUTH WASHINGTON #44 STREET , CONSTANTINE , MI","MI",11,5,2007,-87.48211,40.8226196
"ST. JOSEPH ","14310 STEARS ROAD , CONSTANTINE , MI","MI",1,5,2008,-85.6757046,41.8238435
"ST. JOSEPH ","64170 LUTZ ROAD , CONSTANTINE , MI","MI",12,18,2008,-85.623853,41.8649987
"ST. JOSEPH ","13029  RIVERSIDE DRIVE  , CONSTANTINE , MI","MI",9,1,2010,-85.7009452,41.817692
"ST. JOSEPH ","66265  LUTZ ROAD  , CONSTANTINE , MI","MI",2,20,2011,-85.6233414,41.8262154
"ST. JOSEPH ","66265  LUTZ ROAD  , CONSTANTINE , MI","MI",2,20,2011,-85.6233414,41.8262154
"ST. JOSEPH ","54754  OLNEY ROAD , LEONIDAS , MI","MI",3,11,2011,-85.3796844,42.0017982
"ST. JOSEPH ","53286 DAY ROAD , MARCELLUS , MI","MI",7,22,2007,-85.7250085,42.020065
"ST. JOSEPH ","52022  TONYA DRIVE  , MENDON , MI","MI",4,26,2010,-85.5119363,42.0393978
"ST. JOSEPH ","237 FIRST , NOTTAWA , MI","MI",10,30,2007,-85.4479511,41.9164866
"ST. JOSEPH ","25039 US-12 UNIT 114 , STURGIS , MI","MI",4,27,2006,-85.4663059,41.7949415
"ST. JOSEPH ","1035 CATO LN B3 , STURGIS , MI","MI",4,28,2006,-85.4315969,41.7883142
"ST. JOSEPH ","306 JOHN STREET , STURGIS , MI","MI",10,20,2006,-85.4223851,41.7996842
"ST. JOSEPH ","408 NORTH FOURTH STREET , STURGIS , MI","MI",12,29,2006,-85.4150455,41.806447
"ST. JOSEPH ","207 EAST HATCH , STURGIS , MI","MI",1,8,2007,-85.4160245,41.8039889
"ST. JOSEPH ","305 JOHN STREET , STURGIS , MI","MI",3,22,2007,-85.4220571,41.7998412
"ST. JOSEPH ","514 COTTAGE STREET , STURGIS , MI","MI",4,18,2007,-85.4121563,41.7933668
"ST. JOSEPH ","68535 NORTH LAKEVIEW , STURGIS , MI","MI",8,21,2007,-85.4090419,41.821377
"ST. JOSEPH ","215 ELLERMAN STREET , STURGIS , MI","MI",10,10,2007,-85.4228284,41.8069511
"ST. JOSEPH ","70360 SHIMMEL ROAD , STURGIS , MI","MI",10,22,2007,-85.5059695,41.7759832
"ST. JOSEPH ","70074 CARLS ROAD , STURGIS , MI","MI",10,30,2007,-85.3501997,41.7804767
"ST. JOSEPH ","602 WENZEL STREET , STURGIS , MI","MI",1,7,2008,-85.4272032,41.7940768
"ST. JOSEPH ","1002 GREENLAWN STREET , STURGIS , MI","MI",1,22,2008,-85.4222794,41.813131
"ST. JOSEPH ","207 SOUTH MAPLE STREET , STURGIS , MI","MI",2,22,2008,-85.4157382,41.7960058
"ST. JOSEPH ","700 LANCHASHIRE DRIVE , STURGIS , MI","MI",5,6,2008,-85.411282,41.8145659
"ST. JOSEPH ","427 CENTER STREET , STURGIS , MI","MI",11,28,2008,-85.4113589,41.8082732
"ST. JOSEPH ","302  GATEWAY COURT C , STURGIS , MI","MI",4,4,2009,-85.43206,41.7888854
"ST. JOSEPH ","65425 NORTH M-66, STURGIS , MI","MI",1,17,2010,-85.4186908,41.8159197
"ST. JOSEPH ","70710  CARLS ROAD  , STURGIS , MI","MI",2,2,2010,-85.3502051,41.7712298
"ST. JOSEPH ","401  NORTH STREET 4 , STURGIS , MI","MI",2,23,2010,-85.4202913,41.8024008
