"COUNTY","FullAddress","Month","Date","Year","Longitude","Latitude"
"ALAMANCE ","717  Trails end DRIVE , GRAHAM , NC","2","12","2016",-79.409929,36.043334
"ALEXANDER ","112 VANCE LN , TAYLORSVILLE , NC","2","11","2004",-81.294282,35.894909
"ALEXANDER ","1945 ZEB WATTS RD , TAYLORSVILLE , NC","8","23","2004",-81.24508,35.934984
"ALEXANDER ","1581 (A) GILL CHILDERS RD , TAYLORSVILLE , NC","9","28","2005",-81.253206,35.9855775
"ALEXANDER ","185 EARNHARDT RD , TAYLORSVILLE , NC","9","28","2005",-81.290345,35.9309749
"ALEXANDER ","2351  OLD WILKESBORO ROAD  , TAYLORSVILLE , NC","3","2","2010",-81.193572,35.953804
"ALEXANDER ","44  LIBERTY LANE  , TAYLORSVILLE , NC","5","6","2011",-81.2721306,35.8436922
"ALEXANDER ","248  HENRY ROSE DRIVE , TAYLORSVILLE , NC","1","29","2012",-81.194016,35.910354
"ALLEGHANY ","253  CRANFORD KNOLL ROAD , ENNICE , NC","12","14","2011",-81.0227164,36.5410903
"ALLEGHANY ","40  E JOE PLACE , ENNICE , NC","8","28","2014",-80.998096,36.523621
"ALLEGHANY ","2784 NEW HOPE CHURCH RD , LAUREL SPRINGS , NC","6","3","2004",-81.2631516,36.4634068
"ALLEGHANY ","134  WREN WAY , SPARTA , NC","6","22","2012",-81.1195265,36.4908929
"ALLEGHANY ","231  SILO ROAD , SPARTA , NC","5","13","2014",-81.091492,36.502486
"ANSON ","102  GRIFFIN STREET  , LILESVILLE , NC","4","9","2009",-79.9845032,34.9676535
"ANSON ","17  MARTINVILLE DRIVE  , LILESVILLE , NC","4","9","2009",-79.9845032,34.9676535
"ANSON ","415 EAST WALL STREET  , LILESVILLE , NC","4","20","2009",-79.9777845,34.9670523
"ANSON ","2700  VINTAGE ROAD  , LILESVILLE , NC","5","24","2009",-79.9845032,34.9676535
"ANSON ","100  INGRAM LEVEL ROAD  , LILESVILLE , NC","5","26","2009",-79.9845032,34.9676535
"ANSON ","2753  SANDY RIDGE ROAD  , MORVEN , NC","12","8","2011",-80.0545754,34.8361671
"ANSON ","390  SOUTHWIND ROAD , MORVEN , NC","7","11","2015",-80.1121469,34.828506
"ANSON ","390  SOUTHWIND ROAD , MORVEN , NC","8","10","2015",-80.1121469,34.828506
"ANSON ","814 CAPPADOCIA CHURCH RD B , PEACHLAND , NC","1","22","2006",-80.2539272,35.0561353
"ANSON ","1  EDWARDS STORE ROAD  , PEACHLAND , NC","4","9","2009",-80.288311,35.0798255
"ANSON ","69  BURNSVILLE CHURCH ROAD  , POLKTON , NC","5","21","2009",-80.2239726,35.0718349
"ANSON ","476  OLIVE BRANCH ROAD , POLKTON , NC","8","14","2015",-80.251059,35.106292
"ANSON ","7740  Ansonville Polkton ROAD , POLKTON , NC","1","11","2016",-80.1944852,35.0306941
"ANSON ","3 RT 91C , WADESBORO , NC","7","14","2004",-80.0767266,34.9682097
"ANSON ","1360  HOLLYWOOD ROAD  , WADESBORO , NC","2","8","2010",-80.0171708,34.9048054
"ANSON ","3693 NORTH 109 HIGHWAY  , WADESBORO , NC","4","2","2010",-80.1128879,34.9292582
"ANSON ","3693 NORTH 109 HIGHWAY  , WADESBORO , NC","4","2","2010",-80.1128879,34.9292582
"ANSON ","485  DOC WYATT ROAD  , WADESBORO , NC","2","20","2012",-80.0767266,34.9682097
"ANSON ","203  SHEPHERD STREET , WADESBORO , NC","8","12","2015",-80.0730305,34.9728258
"ANSON ","2606  MOUNT VERNON ROAD , WADESBORO , NC","9","25","2015",-80.1442013,35.0736116
"ANSON ","1260  CITY POND ROAD , WADESBORO , NC","11","18","2015",-80.0947755,34.9228049
"ASHE ","5602 BIG LAUREL ROAD , CRESTON , NC","6","5","2006",-81.6670089,36.484333
"ASHE ","1089  PEAK ROAD , CRESTON , NC","6","24","2014",-81.638132,36.41942
"ASHE ","2729 NORTH NC 16 HIGHWAY , CRUMPLER , NC","9","2","2008",-81.4028182,36.4535649
"ASHE ","654  TOM FOWLER ROAD  , CRUMPLER , NC","8","31","2011",-81.391623,36.4695279
"ASHE ","239 SOURWOOD LN , FLEETWOOD , NC","8","2","2005",-81.528962,36.266472
"ASHE ","244 CRANBERRY SPRINGS ROAD , FLEETWOOD , NC","9","10","2008",-81.5015559,36.261836
"ASHE ","497 OAK GROVE CIR , JEFFERSON , NC","9","2","2004",-81.4620839,36.4149152
"ASHE ","160 ROLAND DRIVE , JEFFERSON , NC","7","7","2008",-81.45719,36.414085
"ASHE ","206  BOWER CALLOWAY ROAD , JEFFERSON , NC","6","5","2014",-81.4585371,36.4347713
"ASHE ","1639 HELTON CREEK RD , LANSING , NC","8","10","2005",-81.5141756,36.5709268
"ASHE ","455 HIRAM BARE RD , LAUREL SPRINGS , NC","2","19","2004",-81.284098,36.381191
"ASHE ","1031 BIG PEAK CREEK RD , LAUREL SPRINGS , NC","2","24","2004",-81.3102296,36.4043794
"ASHE ","360 ORE VALLEY RD , LAUREL SPRINGS , NC","4","28","2004",-81.320328,36.396951
"ASHE ","2801 PEAK CREEK CHURCH , LAUREL SPRINGS , NC","9","23","2004",-81.285825,36.37644
"ASHE ","2251 LONGHOPE RD , TODD , NC","1","22","2004",-81.6520029,36.308427
"ASHE ","1463 COPELAND RD , WARRENSVILLE , NC","1","7","2005",-81.5871943,36.465129
"ASHE ","536  JC NORTON ROAD , WARRENSVILLE , NC","10","15","2014",-81.5861989,36.440263
"ASHE ","1697 CLAYBANK RD , WEST JEFFERSON , NC","8","24","2004",-81.493619,36.450411
"AVERY ","272 VALLE VISTA DR , BANNER ELK , NC","1","20","2005",-81.834312,36.1686687
"AVERY ","2217  PINNACLE ROAD  , BEECH MOUNTAIN , NC","3","1","2013",-81.8702789,36.1876076
"AVERY ","450  JOE PARLIER ROAD  , ELK PARK , NC","4","6","2009",-81.9394292,36.2324542
"AVERY ","87  TUCKER HOLLOW ROAD  , ELK PARK , NC","8","11","2011",-81.972628,36.135304
"AVERY ","5631  BANNER ELK HIGHWAY , ELK PARK , NC","6","26","2014",-81.888526,36.15905
"AVERY ","1888  ELK RIVER ROAD , ELK PARK , NC","6","8","2015",-81.962069,36.17479
"AVERY ","136 KELLY ST 3 , NEWLAND , NC","9","30","2004",-81.9227547,36.0807686
"AVERY ","789 BROWN INGRAM , NEWLAND , NC","10","23","2004",-81.9273362,36.0873484
"AVERY ","49 GRUMPY HUGES LN , NEWLAND , NC","2","24","2005",-82.049742,36.084567
"AVERY ","906 POWDER MILL CREEK RD , NEWLAND , NC","6","8","2005",-81.9273362,36.0873484
"AVERY ","216  MOLLIES BRANCH ROAD  , NEWLAND , NC","5","28","2014",-82.04129,36.0773112
"AVERY ","7036 S US 19 E , NEWLAND , NC","2","10","2015",-82.0208753,36.0030328
"AVERY ","1142  ANDY CROWE ROAD , NEWLAND , NC","3","21","2015",-81.884288,36.0267709
"AVERY ","1805  SUGAR MOUNTAIN #1 ROAD , NEWLAND , NC","4","12","2015",-81.862757,36.131921
"AVERY ","873  SPANISH OAK ROAD , NEWLAND , NC","11","23","2015",-81.942257,36.053731
"AVERY ","6  JAMES CLARK LANE  , PINEOLA , NC","6","15","2010",-81.879524,36.006927
"AVERY ","95 OLLIS LN , SPRUCE PINE , NC","12","29","2004",-82.012411,35.972449
"BEAUFORT ","53  BUCKS COUNTRY MANOR , CHOCOWINITY , NC","2","4","2015",-77.1124585,35.4824869
"BEAUFORT ","113 W Highway 33 , CHOCOWINITY , NC","2","2","2016",-77.1003674,35.512622
"BEAUFORT ","167  BRADLEY LANE , WASHINGTON , NC","3","8","2015",-76.8707271,35.4679249
"BEAUFORT ","54  WARF ROAD , WASHINGTON , NC","11","24","2015",-77.1307019,35.6016542
"BLADEN ","903  STORMS ROAD , BLADENBORO , NC","7","21","2014",-78.772208,34.56339
"BLADEN ","97  ALFORD DRIVE  , WHITE LAKE , NC","9","14","2011",-78.503898,34.633542
"BLADEN ","67  Godwin ROAD , WHITE LAKE , NC","1","15","2016",-78.49042,34.649288
"BRUNSWICK ","963  WILSON AVENUE  , CALABASH , NC","1","13","2010",-78.5595598,33.8970416
"BRUNSWICK ","3331 SANDY HILLS DR , LELAND , NC","2","14","2005",-78.109,34.339612
"BRUNSWICK ","2919 JEREMY ST , SUPPLY , NC","12","8","2004",-78.336284,33.929703
"BRUNSWICK ","2560 SOUTHWEST ELKIN STREET , SUPPLY , NC","6","16","2012",-78.272316,33.943739
"BUNCOMBE ","1055 LOWER FLAT CREEK RD , ALEXANDER , NC","6","10","2004",-82.615173,35.742861
"BUNCOMBE ","10 LONGHORN LN , ALEXANDER , NC","2","8","2005",-82.6365922,35.6987805
"BUNCOMBE ","193 REDBIRD LANE , ARDEN , NC","12","6","2006",-82.508045,35.4829719
"BUNCOMBE ","483 CARIBOU RD , ASHEVILLE , NC","9","3","2004",-82.525769,35.5479399
"BUNCOMBE ","9 WEDGEFIELD DR 503 , ASHEVILLE , NC","11","18","2004",-82.6065627,35.5331623
"BUNCOMBE ","40 FLYNN BRANCH RD , ASHEVILLE , NC","12","3","2004",-82.607863,35.638961
"BUNCOMBE ","100 TUNNEL RD 22 , ASHEVILLE , NC","12","7","2004",-82.5311794,35.593874
"BUNCOMBE ","692 SAND HILL RD , ASHEVILLE , NC","4","21","2005",-82.615805,35.56033
"BUNCOMBE ","378 MACEDONIA RD , ASHEVILLE , NC","11","12","2005",-82.618829,35.640805
"BUNCOMBE ","1 PINNERS COVE ROAD , ASHEVILLE , NC","10","18","2006",-82.5051199,35.4935534
"BUNCOMBE ","48 HANSEL AVENUE , ASHEVILLE , NC","2","7","2007",-82.5837032,35.5905868
"BUNCOMBE ","114-B BELMONT AVENUE , ASHEVILLE , NC","8","30","2007",-82.6049086,35.5780389
"BUNCOMBE ","566  DEAVERVIEW ROAD  , ASHEVILLE , NC","10","25","2012",-82.6357704,35.5827984
"BUNCOMBE ","118  BENSON ROAD  , ASHEVILLE , NC","11","20","2012",-82.643812,35.580999
"BUNCOMBE ","278 NORTH FORK ROAD , BARNARDSVILLE , NC","4","18","2007",-82.43881,35.7863
"BUNCOMBE ","6 AVENA STREET , BLACK MOUNTAIN , NC","6","29","2007",-82.3484321,35.609307
"BUNCOMBE ","375 MORGAN RD , CANDLER , NC","1","9","2004",-82.7087598,35.5569692
"BUNCOMBE ","145 RIDGEDALE LANE , CANDLER , NC","7","25","2006",-82.717841,35.582296
"BUNCOMBE ","2682 LEICESTER HWY , LEICESTER , NC","6","18","2004",-82.6902209,35.650822
"BUNCOMBE ","305 POTATO BRANCH RD , LEICESTER , NC","10","8","2004",-82.754928,35.622883
"BUNCOMBE ","16 PARHAM HILL DR , LEICESTER , NC","4","18","2005",-82.6682881,35.6421831
"BUNCOMBE ","48 GREEN VALLEY ROAD , LEICESTER , NC","2","8","2007",-82.717508,35.650803
"BUNCOMBE ","110 FRANKLIN ROAD , SWANNANOA , NC","6","24","2004",-82.411202,35.600449
"BUNCOMBE ","44 SPANKEY RD , SWANNANOA , NC","7","26","2005",-82.439445,35.587803
"BUNCOMBE ","41 ALLMAN HILL RD LOT 4 , WEAVERVILLE , NC","1","15","2004",-82.5519473,35.7624614
"BUNCOMBE ","23 MONTIE JONES RD , WEAVERVILLE , NC","8","3","2004",-82.5606851,35.6970547
"BUNCOMBE ","400 SHEPPARD BRANCH ROAD , WEAVERVILLE , NC","8","10","2006",-82.591229,35.74818
"BUNCOMBE ","94 CHURCH STREET , WEAVERVILLE , NC","6","23","2008",-82.569241,35.699329
"BURKE ","7172  HILDEBRAND MOUNTAIN AVENUE  , CONNELLY SPRINGS , NC","9","7","2010",-81.6073376,35.5957858
"BURKE ","7172  HILDEBRAN MOUNTAIN AVENUE  , CONNELLY SPRINGS , NC","12","14","2010",-81.491538,35.6997069
"BURKE ","6618  DEERFIELD LANE  , CONNELLY SPRINGS , NC","2","3","2011",-81.50824,35.651834
"BURKE ","6618  DEERFIELD LANE  , CONNELLY SPRINGS , NC","2","3","2011",-81.50824,35.651834
"BURKE ","6570  CAMP MEETING ROAD  , CONNELLY SPRINGS , NC","8","24","2011",-81.506956,35.625453
"BURKE ","404  PARK AVENUE , DREXEL , NC","10","12","2011",-81.607704,35.754216
"BURKE ","103  APARTMENT STREET E , DREXEL , NC","4","11","2013",-81.607463,35.7566909
"BURKE ","2326  JACK LONDON STREET  , HICKORY , NC","7","21","2011",-81.4150909,35.7512924
"BURKE ","208 EAST HIGHWAY 70  F , HILDEBRAN , NC","1","5","2012",-81.4236815,35.715305
"BURKE ","5102 WILLIE RAY DR , MORGANTON , NC","3","26","2004",-81.8017294,35.6903859
"BURKE ","5641 JOHN REEP ST , MORGANTON , NC","7","21","2004",-81.8429883,35.6524132
"BURKE ","4897 BERKLEY ST , MORGANTON , NC","7","24","2004",-81.766829,35.674785
"BURKE ","1456 CONLEY RD , MORGANTON , NC","8","4","2004",-81.769587,35.679146
"BURKE ","4081 DAIRY AVE , MORGANTON , NC","8","11","2004",-81.8015443,35.7940309
"BURKE ","4392 VALLEY TRL , MORGANTON , NC","9","23","2004",-81.806703,35.68808
"BURKE ","5102 WILLY RAY DR , MORGANTON , NC","9","23","2004",-81.8017294,35.6903859
"BURKE ","2771 HOLLYBROOK LN , MORGANTON , NC","10","13","2004",-81.757819,35.815638
"BURKE ","3956 PRITCHARD DR , MORGANTON , NC","10","27","2004",-81.8363336,35.6975329
"BURKE ","3988 PRITCHARD DR , MORGANTON , NC","10","27","2004",-81.8364046,35.6971501
"BURKE ","2035 U.S. 70 W , MORGANTON , NC","11","20","2004",-81.8234661,35.7006629
"BURKE ","2745 JAMES TOWN RD , MORGANTON , NC","3","5","2005",-81.803408,35.693869
"BURKE ","3930 SMAWLEY ST , MORGANTON , NC","4","4","2005",-81.8320207,35.6968375
"BURKE ","105 SARA LN 1 , MORGANTON , NC","6","9","2005",-81.6615286,35.7071547
"BURKE ","3930 SMAWLEY ST , MORGANTON , NC","7","7","2005",-81.8320207,35.6968375
"BURKE ","1726 SUBURBAN DR LOT 22 , MORGANTON , NC","7","17","2005",-81.6753198,35.6942781
"BURKE ","132 AIRPARK DR 8-E , MORGANTON , NC","2","15","2006",-81.7226313,35.7367188
"BURKE ","1702 SCENIC VIEW LANE , MORGANTON , NC","4","13","2006",-81.749444,35.797694
"BURKE ","196 BAKER STREET , MORGANTON , NC","9","17","2007",-81.642666,35.7385639
"BURKE ","2353 WEST US HIGHWAY 70 5 , MORGANTON , NC","9","20","2007",-81.8381793,35.6985082
"BURKE ","4909  UNCLE FREDS PLACE  , MORGANTON , NC","1","28","2010",-81.830518,35.81116
"BURKE ","215-B  GLENDALE STREET  , MORGANTON , NC","1","28","2010",-81.739049,35.737004
"BURKE ","119  NORMANDY DRIVE  , MORGANTON , NC","6","17","2010",-81.740729,35.735327
"BURKE ","859  VINE ARDEN ROAD  , MORGANTON , NC","3","1","2011",-81.6848188,35.7454071
"BURKE ","500  STERLING STREET  , MORGANTON , NC","3","6","2011",-81.683577,35.742066
"BURKE ","248  NORTH ANDERSON STREET  , MORGANTON , NC","3","8","2011",-81.698263,35.7453239
"BURKE ","156  B AND D AVENUE # 2 , MORGANTON , NC","5","2","2011",-58.0071526,-34.9562049
"BURKE ","3235  CRAWLEY HIGGINS AVENUE  , MORGANTON , NC","5","6","2011",-81.769554,35.676705
"BURKE ","LOT 12 5/28/2011, MORGANTON , NC","",NA,NA,-81.7896718,35.6886371
"BURKE ","4357  VALLEY TRAIL CROSSING  8/25/2011, MORGANTON , NC","",NA,NA,-81.805441,35.687198
"BURKE ","4161  RIVER ROAD  9/13/2011, MORGANTON , NC","",NA,NA,-81.574718,35.664014
"BURKE ","1986 EAST 70 HIGHWAY 12/15/2011, MORGANTON , NC","",NA,NA,-81.6393049,35.7501149
"BURKE ","108  EAST AVENUE  11/5/2013, MORGANTON , NC","",NA,NA,-81.6847698,35.7516864
"BURKE ","205  JEFFERSON STREET 4/12/2014, MORGANTON , NC","",NA,NA,-81.6953869,35.7488807
"BURKE ","4451  OLD HWY 18  4/25/2014, MORGANTON , NC","",NA,NA,-81.6451054,35.6794039
"BURKE ","3264  PYATT STREET  3/3/2011, VALDESE , NC","",NA,NA,-81.563149,35.7406864
"CABARRUS ","1020 NORTHWEST CROWN POINT CIRCLE 10/27/2007, CONCORD , NC","",NA,NA,-80.6276839,35.4112863
"CABARRUS ","2860  BARNFIELD ROAD  2/22/2010, CONCORD , NC","",NA,NA,-80.5285582,35.349958
"CABARRUS ","4913  BUCKBOARD CIRCLE  2/22/2010, CONCORD , NC","",NA,NA,-80.5286306,35.3487774
"CABARRUS ","217  BOGER COURT  1/5/2012, CONCORD , NC","",NA,NA,-80.576994,35.3957059
"CABARRUS ","905  DESOTO DRIVE  1/7/2010, KANNAPOLIS , NC","",NA,NA,-80.6217209,35.4839879
"CABARRUS ","505  SPRING GARDEN AVENUE 10/12/2015, KANNAPOLIS , NC","",NA,NA,-80.667275,35.5237089
"CALDWELL ","4400  COLLETTSVILLE ROAD 2/1/2012, COLLETTSVILLE , NC","",NA,NA,-81.681727,35.929209
"CALDWELL ","#5 DEERFIELD ACRES ROAD , GRANITE FALLS , NC","6","5","2006",NA,NA
"CALDWELL ","1478  WRONG WAY, GRANITE FALLS , NC","5","2","2009",-81.537539,35.7981366
"CALDWELL ","1486  WRONG WAY, GRANITE FALLS , NC","5","2","2009",-81.5373954,35.7980686
"CALDWELL ","5023  ADDISON LANE  , GRANITE FALLS , NC","9","7","2010",-81.3382218,35.8066815
"CALDWELL ","2171-4  OAK TREE LANE , GRANITE FALLS , NC","7","15","2015",-81.4820135,35.8212123
"CALDWELL ","114  FALLS AVENUE BOX 22 , GRANITE FALLS , NC","11","17","2015",-81.4306457,35.7965205
"CALDWELL ","4050 MORETZ-HALL LANE , HICKORY , NC","5","18","2008",-81.3470568,35.8206515
"CALDWELL ","4294 HORSESHOE BEND RD , HUDSON , NC","2","25","2005",-81.497127,35.819737
"CALDWELL ","200  WINTERHILL COURT 3 , HUDSON , NC","4","3","2013",-81.5062591,35.8381466
"CALDWELL ","3717 HOLLYWOOD RIDGE RD , LENOIR , NC","3","4","2004",-81.5442363,35.9844563
"CALDWELL ","502 CEDAR PLACE ST , LENOIR , NC","3","19","2004",-81.4551154,35.8331791
"CALDWELL ","4176 KIRBY MOUNTAIN RD , LENOIR , NC","3","29","2005",-81.636522,36.035136
"CALDWELL ","3746 WHITETAIL DR , LENOIR , NC","7","26","2005",-81.5808881,35.8325029
"CALDWELL ","2351 MORGANTON BOULEVARD , LENOIR , NC","10","8","2008",-81.5708765,35.8913858
"CALDWELL ","2431  WOODRIDGE COURT, LENOIR , NC","3","4","2010",-81.573593,35.8438159
"CALDWELL ","4234  SCARLETT RIDGE WAY  , LENOIR , NC","3","4","2010",-81.578021,35.823788
"CALDWELL ","2455  COLLETTESVILLE ROAD , LENOIR , NC","10","18","2011",-81.5736178,35.948782
"CALDWELL ","1519 SOUTHWEST WALT ARNEY ROAD , LENOIR , NC","5","22","2014",-81.5248805,35.8667808
"CALDWELL ","3362  GRASSY KNOB LANE , LENOIR , NC","9","25","2014",-81.6147652,35.9285301
"CALDWELL ","2463  COLLETTSVILLE ROAD , LENOIR , NC","5","1","2015",-81.5740013,35.9490753
"CARTERET ","312 WEST BOGUE BLVD , ATLANTIC BEACH , NC","4","22","2005",-76.742627,34.700564
"CARTERET ","1160 HARKER ISLAND ROAD , BEAUFORT , NC","7","24","2008",-76.560843,34.7344719
"CARTERET ","201  SHANNON DRIVE , BEAUFORT , NC","1","23","2015",-76.5591846,34.7496623
"CARTERET ","339  GILLIKIN ROAD , BEAUFORT , NC","1","23","2015",-76.560395,34.767724
"CARTERET ","826 CHATHAM STREET , NEWPORT , NC","4","11","2008",-76.870095,34.809778
"CARTERET ","136 PARKER COURT , NEWPORT , NC","8","26","2008",-76.881604,34.789858
"CARTERET ","118  RATTAN STREET  , NEWPORT , NC","6","1","2010",-76.852957,34.73999
"CARTERET ","195  NINE FOOT ROAD BOX 9 , NEWPORT , NC","6","2","2015",-76.8591057,34.7865497
"CARTERET ","195  NINE FOOT ROAD BOX 12 , NEWPORT , NC","7","14","2015",-76.8591057,34.7865497
"CATAWBA ","5321  HERMAN ROAD  , CLAREMONT , NC","11","22","2011",-81.147754,35.782022
"CATAWBA ","222 5TH NE ST , CONOVER , NC","7","6","2005",-81.211295,35.711947
"CATAWBA ","3305 SOUTHEAST 16TH AVENUE  , CONOVER , NC","2","19","2010",-81.263853,35.700901
"CATAWBA ","300 NORTHWEST 3RD AVENUE  B , CONOVER , NC","6","28","2012",-81.220145,35.711167
"CATAWBA ","629 7TH SW ST , HICKORY , NC","8","8","2004",-81.349126,35.7240309
"CATAWBA ","2365 OLD SHELBY ROAD , HICKORY , NC","1","29","2008",-81.401754,35.694553
"CATAWBA ","1515 NORTHEAST 16TH AVENUE  , HICKORY , NC","2","19","2010",-81.303518,35.748345
"CATAWBA ","1127 NORTHEAST 13TH AVENUE  , HICKORY , NC","2","18","2011",-81.315443,35.745975
"CATAWBA ","1127 NORTHEAST 13TH AVENUE  , HICKORY , NC","2","18","2011",-81.315443,35.745975
"CATAWBA ","1274 SOUTHWEST 39TH CIRCLE STREET , HICKORY , NC","3","15","2011",-81.398452,35.715577
"CATAWBA ","3102 NORTHEAST KOOL PARK ROAD  , HICKORY , NC","7","28","2011",-81.2745971,35.7701523
"CATAWBA ","3462 SOUTHWEST 15TH AVENUE  , HICKORY , NC","11","3","2011",-81.3934031,35.7123905
"CATAWBA ","1755 NORTHEAST 20TH AVENUE A , HICKORY , NC","7","6","2013",-81.302036,35.756493
"CATAWBA ","4049 SOUTH HIGHWAY 16  , MAIDEN , NC","7","31","2014",-81.07676,35.5800868
"CATAWBA ","406 EAST 20TH STREET , NEWTON , NC","9","16","2008",-81.213576,35.682594
"CATAWBA ","1269  FLORA DRIVE , NEWTON , NC","4","8","2014",-81.253232,35.668322
"CATAWBA ","3907 HWY 18 HWY , VALE , NC","5","6","2004",-81.509307,35.572307
"CATAWBA ","3927 CAT SQUARE RD , VALE , NC","8","24","2005",-81.438261,35.579551
"CHATHAM ","50 ALLEN POND ROAD , BEAR CREEK , NC","9","8","2007",-79.4843135,35.6661532
"CHATHAM ","12410  SILER CITY GLENDON ROAD  , BEAR CREEK , NC","2","11","2014",-79.44524,35.538542
"CHATHAM ","5808  Bonlee Bennett ROAD , BEAR CREEK , NC","2","12","2016",-79.5111079,35.628328
"CHATHAM ","20  ALTON KING ROAD , GULF , NC","5","16","2015",-79.286491,35.5630529
"CHATHAM ","155 SILK HOPE GUM SPRINGS RD , PITTSBORO , NC","12","16","2004",-79.235095,35.760972
"CHATHAM ","576  LAURA JOHNSON ROAD  , PITTSBORO , NC","5","21","2009",-79.317352,35.746348
"CHATHAM ","120  HONEYSUCKLE DRIVE 1015 , PITTSBORO , NC","10","15","2012",-79.1859544,35.7259687
"CHATHAM ","115  Rocks Spring Church ROAD , PITTSBORO , NC","2","25","2016",-79.153023,35.766323
"CHATHAM ","208  HAL CLARK ROAD  , SILER CITY , NC","4","2","2013",-79.519923,35.674403
"CHATHAM ","315  HOPE FARM ROAD , SILER CITY , NC","7","2","2014",-79.392926,35.7519599
"CHATHAM ","907  Driftwood DRIVE , SILER CITY , NC","1","15","2016",-79.480463,35.729307
"CHEROKEE ","133 JOE HOLLOWAY RD , ANDREWS , NC","4","22","2004",-83.7243436,35.2238943
"CHEROKEE ","75  WATAUGA LANE  , ANDREWS , NC","1","9","2013",-83.839284,35.192828
"CHEROKEE ","277  MAPLE RIDGE ROAD  , BRASSTOWN , NC","12","8","2012",-83.991926,35.015477
"CHEROKEE ","7502  HIGHWAY 141 HIGHWAY  , MARBLE , NC","6","3","2010",-83.9200137,35.1667415
"CHEROKEE ","2545 SHOAL CREEK RD , MURPHY , NC","3","25","2004",-84.269469,35.061953
"CHEROKEE ","417 LANCE RD , MURPHY , NC","5","6","2004",-84.0777933,35.0111585
"CHEROKEE ","35 CLUB HOUSE ROAD 103 , MURPHY , NC","5","13","2008",-83.994742,35.0567769
"CHEROKEE ","2650  SHOAL CREEK ROAD  , MURPHY , NC","4","1","2009",-84.267382,35.064189
"CHEROKEE ","100  BLAIRSVILLE HIGHWAY  , MURPHY , NC","1","12","2010",-84.100317,35.031567
"CHEROKEE ","2725  HIWASSEE DAM ACCESS ROAD  , MURPHY , NC","3","25","2010",-84.196381,35.1301569
"CHEROKEE ","54  WINDMILL LANE  , MURPHY , NC","9","2","2010",-84.163584,35.02602
"CHEROKEE ","158  SILVER LANE  , MURPHY , NC","3","10","2011",-84.213519,35.032646
"CHEROKEE ","154  DINKINS ROAD  , MURPHY , NC","3","17","2011",-84.010704,35.1741699
"CHEROKEE ","132 JOE HALLOWAY RD , TOPTON , NC","3","16","2004",-83.725441,35.222549
"CHEROKEE ","7 CAMPBELL TER , TOPTON , NC","6","30","2004",-83.70516,35.247635
"CHEROKEE ","7  CAMPBELL TERRACE, TOPTON , NC","2","3","2010",-83.70516,35.247635
"CLAY ","130  HOT HOUSE ROAD  , HAYESVILLE , NC","5","7","2011",-83.70569,35.020009
"CLEVELAND ","1570 CASAR-LAWNDALE RD , CASAR , NC","4","26","2005",-81.614079,35.51137
"CLEVELAND ","117 COUGAR ROAD , CASAR , NC","7","1","2008",-81.6898538,35.4850513
"CLEVELAND ","326  TURNER ROAD  , CASAR , NC","4","24","2009",-81.636918,35.502265
"CLEVELAND ","223  WATTERSON ROAD , GROVER , NC","8","26","2014",-81.463574,35.17688
"CLEVELAND ","111-1 PEAK DR , KINGS MOUNTAIN , NC","10","19","2004",-81.401722,35.179754
"CLEVELAND ","6227 ADELE LANE , KINGS MOUNTAIN , NC","9","23","2007",-81.3819926,35.2168441
"CLEVELAND ","1047  BETHLEHEM CHURCH ROAD  , KINGS MOUNTAIN , NC","6","25","2010",-81.441397,35.197692
"CLEVELAND ","423  MOUNTAIN SPRING COURT 203 , KINGS MOUNTAIN , NC","9","14","2011",-81.365274,35.2394489
"CLEVELAND ","146  PARKGRACE ROAD , KINGS MOUNTAIN , NC","2","18","2012",-81.361375,35.216703
"CLEVELAND ","334 CARPENTERS GROVE CHURCH RD , LAWNDALE , NC","3","3","2006",-81.533448,35.482674
"CLEVELAND ","140  GATEWOOD DRIVE , LAWNDALE , NC","5","26","2014",-81.505804,35.439955
"CLEVELAND ","1619 RED RD , SHELBY , NC","4","12","2005",-81.594685,35.233923
"CLEVELAND ","27 LE NICK DR , SHELBY , NC","4","12","2005",-81.5942146,35.2324428
"CLEVELAND ","1810 LAFAYETTE S ST 4 , SHELBY , NC","4","26","2005",-81.5646966,35.2560398
"CLEVELAND ","353 GRICE ST , SHELBY , NC","8","30","2005",-81.532227,35.2842184
"CLEVELAND ","1619 RED ROAD , SHELBY , NC","6","16","2008",-81.594685,35.233923
"CLEVELAND ","1810 SOUTH LAFAYETTE STREET , SHELBY , NC","9","9","2008",-81.5646966,35.2560398
"CLEVELAND ","111  ANTHONY LAKE DRIVE  , SHELBY , NC","4","20","2009",-81.658128,35.206803
"CLEVELAND ","102  SERRO COURT  , SHELBY , NC","12","30","2011",-81.6404152,35.2876101
"CLEVELAND ","809  HOWARD STREET  , SHELBY , NC","2","2","2012",-81.55296,35.280471
"COLUMBUS ","3360 HAPPY HOME ROAD , NAKINA , NC","10","10","2008",-78.656687,34.11685
"CRAVEN ","1498  WINTERGREEN ROAD  , COVE CITY , NC","9","25","2010",-77.303724,35.208417
"CRAVEN ","2635  TEMPLES POINT ROAD  , HAVELOCK , NC","4","22","2009",-76.762927,34.908448
"CRAVEN ","208  pine dale ROAD , HAVELOCK , NC","3","8","2016",-76.912784,34.877406
"CRAVEN ","7550 HIGHWAY 70 E 15 , NEW BERN , NC","7","28","2004",-76.9474649,34.941056
"CRAVEN ","220 HAZELDALE LN , NEW BERN , NC","8","19","2004",-76.942939,34.948195
"CRAVEN ","6953 US HIGHWAY 70 E , NEW BERN , NC","1","12","2005",-76.9527279,34.958304
"CRAVEN ","855 WASHINGTON POST RD , NEW BERN , NC","10","27","2005",-77.118078,35.157085
"CRAVEN ","5620 EAST US 70 HIGHWAY  , NEW BERN , NC","4","24","2009",-76.980895,34.988285
"CRAVEN ","5620 EAST HIGHWAY 70, NEW BERN , NC","3","17","2010",-76.980895,34.988285
"CRAVEN ","106  STACY LANE , NEW BERN , NC","12","23","2014",-77.0492359,35.153593
"CRAVEN ","104  Alanwood DRIVE , NEW BERN , NC","3","29","2016",-77.0440293,35.156465
"CRAVEN ","1040  COW PEN ROAD , VANCEBORO , NC","4","30","2014",-77.1653078,35.2418775
"CUMBERLAND ","9567 SOUTH 210 HIGHWAY , AUTRYVILLE , NC","1","10","2007",-78.6208397,34.9490355
"CUMBERLAND ","9785  RUTH VINSON ROAD , AUTRYVILLE , NC","4","26","2011",-78.603257,34.946615
"CUMBERLAND ","341 WILKES RD , FAYETTEVILLE , NC","8","21","2005",-78.8884269,35.021321
"CUMBERLAND ","724  SKYCLIFF COURT  , FAYETTEVILLE , NC","3","23","2010",-78.863014,35.10844
"CUMBERLAND ","6816  RADIAL DRIVE  , FAYETTEVILLE , NC","6","8","2010",-78.853401,35.176028
"CUMBERLAND ","374  SADDLE RIDGE ROAD , FAYETTEVILLE , NC","10","21","2014",-78.899465,35.145397
"CUMBERLAND ","6083 PERCY STRICKLAND RD , GODWIN , NC","11","2","2005",-78.700367,35.172708
"CUMBERLAND ","4917  MADISON DRIVE  , HOPE MILLS , NC","5","5","2010",-78.94469,34.943986
"CUMBERLAND ","2054  CANADY POND ROAD , HOPE MILLS , NC","8","17","2015",-78.9050965,34.8751237
"CUMBERLAND ","26  VALERIE LANE , LINDEN , NC","8","30","2015",-78.822653,35.26095
"CURRITUCK ","494  MIDDLE GIBBS ROAD , KNOTTS ISLAND , NC","10","16","2014",-76.092618,36.534963
"DARE ","422 WEST EDEN STREET  , KILL DEVIL HILLS , NC","8","26","2010",-75.6841112,36.0422369
"DAVIDSON ","3055 FLAT SWAMP ROAD , DENTON , NC","12","6","2007",-80.164556,35.641111
"DAVIDSON ","301 LOOKABILL ROAD , DENTON , NC","12","14","2007",-80.1562919,35.568017
"DAVIDSON ","587 FARMER ROAD , DENTON , NC","1","8","2008",-80.098403,35.637338
"DAVIDSON ","964  LOOKABILL ROAD  , DENTON , NC","3","10","2010",-80.16624,35.566103
"DAVIDSON ","314  VANHOY DRIVE , DENTON , NC","5","4","2015",-80.145799,35.65234
"DAVIDSON ","150  FINCH AVENUE BOX A , DENTON , NC","9","24","2015",-80.1158813,35.6334712
"DAVIDSON ","126 J NETTIE DR , LEXINGTON , NC","6","23","2004",-80.099884,35.746321
"DAVIDSON ","256 WEAVER RD , LEXINGTON , NC","7","26","2004",-80.268146,35.905892
"DAVIDSON ","38 ROBBINS CIR , LEXINGTON , NC","9","13","2004",-80.266701,35.816696
"DAVIDSON ","667 LANDS END RD , LEXINGTON , NC","12","22","2004",-80.3428147,35.8284232
"DAVIDSON ","14 ROGERS RD , LEXINGTON , NC","2","8","2005",-80.258034,35.768686
"DAVIDSON ","1025 SMITH FARM ROAD , LEXINGTON , NC","4","12","2005",-80.1464401,35.8075478
"DAVIDSON ","255 JERUSALEM RD , LEXINGTON , NC","8","12","2005",-80.203069,35.734001
"DAVIDSON ","253 EDGEWOOD DR , LEXINGTON , NC","8","24","2005",-80.231979,35.826726
"DAVIDSON ","270 EDGEWOOD DR , LEXINGTON , NC","8","24","2005",-80.231302,35.827236
"DAVIDSON ","155 COUNTRY WOODS ROAD LOT #3 , LEXINGTON , NC","6","11","2007",-77.6056458,35.9273688
"DAVIDSON ","3269 OLD 109 HIGHWAY , LEXINGTON , NC","12","18","2007",-80.10682,35.720693
"DAVIDSON ","104  HICKORY STREET  , LEXINGTON , NC","12","7","2011",-80.265748,35.807018
"DAVIDSON ","1158  OWEN ROAD , LEXINGTON , NC","12","16","2011",-80.267418,35.655242
"DAVIDSON ","197  GALLIMORE ROAD , LEXINGTON , NC","6","25","2014",-80.090508,35.730005
"DAVIDSON ","1229  SUNNYSIDE DRIVE , LEXINGTON , NC","3","24","2015",-80.2306715,35.8184555
"DAVIDSON ","102  TRALI LANE BOX B , LEXINGTON , NC","4","10","2015",-80.2533838,35.8240265
"DAVIDSON ","106  FOWLER AVENUE , LEXINGTON , NC","12","30","2015",-80.272675,35.81078
"DAVIDSON ","216 LAKEVIEW E DR , THOMASVILLE , NC","7","7","2005",-80.051663,35.903707
"DAVIDSON ","1348 LIGHT ROAD , THOMASVILLE , NC","7","31","2006",-80.109575,35.8067909
"DAVIDSON ","539 CARTER ROAD , THOMASVILLE , NC","3","6","2007",-80.1318603,35.8167106
"DAVIDSON ","1109 HARVEST DRIVE , THOMASVILLE , NC","1","8","2008",-80.086324,35.835372
"DAVIDSON ","203  SPRING STREET  , THOMASVILLE , NC","12","20","2011",-80.085848,35.879632
"DAVIDSON ","1116  LACY HEPLER ROAD 24 , THOMASVILLE , NC","12","1","2012",-80.1016727,35.786424
"DAVIE ","822  TURRENTINE CHURCH ROAD , MOCKSVILLE , NC","8","15","2015",-80.508024,35.869875
"DUPLIN ","2657  TRAM ROAD , ALBERTSON , NC","5","2","2014",-77.85496,35.061898
"DUPLIN ","2088  HALLSVILLE ROAD  , BEULAVILLE , NC","5","14","2009",-77.8774036,34.8986791
"DUPLIN ","337  TURKEY BRANCH ROAD  , BEULAVILLE , NC","8","3","2010",-77.782352,34.936849
"DUPLIN ","212 WEST TRADE ROAD , CALYPSO , NC","12","5","2007",-78.1131429,35.161172
"DUPLIN ","3645 FOUNTAINTOWN ROAD , CHINQUAPIN , NC","5","20","2007",-77.777801,34.806094
"DUPLIN ","561 EMMETT JACKSON ROAD , FAISON , NC","7","9","2008",-78.146333,35.157803
"DUPLIN ","547  WARREN ROAD  , FAISON , NC","3","5","2010",-78.1399418,35.0643719
"DUPLIN ","166 NORTH 11/903 HIGHWAY  , KENANSVILLE , NC","5","19","2009",-77.954635,34.9733747
"DUPLIN ","318 NORTH MONK STREET , MAGNOLIA , NC","8","14","2014",-78.055366,34.900649
"DUPLIN ","174 SABASTIAN LN , MOUNT OLIVE , NC","12","14","2004",-77.910413,35.092179
"DUPLIN ","285 ALBERT GRADY ROAD , MOUNT OLIVE , NC","10","9","2008",-77.929639,35.117861
"DUPLIN ","2264  TRAM ROAD  , MOUNT OLIVE , NC","4","28","2009",-77.874257,35.0768969
"DUPLIN ","875  BEAUTANCUS ROAD  , MOUNT OLIVE , NC","5","18","2009",-78.006327,35.093167
"DUPLIN ","2609  BEAUTANCUS ROAD  , MOUNT OLIVE , NC","7","20","2010",-78.0614453,35.1741139
"DUPLIN ","1200  TAPP FARM ROAD  , PINK HILL , NC","4","1","2010",-77.7554066,35.0402954
"DUPLIN ","214  KITTY NOECKER ROAD , PINK HILL , NC","5","2","2014",-77.814814,35.002037
"DUPLIN ","3167  NC 41 SOUTH HIGHWAY , WALLACE , NC","5","8","2014",-77.838278,34.8216449
"DUPLIN ","173  myrtle sholar ROAD , WALLACE , NC","3","10","2016",-77.796374,34.779357
"DUPLIN ","356  CARROLL'S ROAD  , WARSAW , NC","6","22","2009",-78.1495599,34.9787419
"DUPLIN ","300  HENRY BEST ROAD  , WARSAW , NC","3","17","2010",-78.1325322,34.9672788
"DUPLIN ","200  OLD PETE QUINN ROAD  , WARSAW , NC","3","17","2010",-78.1261904,34.9714741
"DUPLIN ","407  MEMORIAL DRIVE , WARSAW , NC","6","13","2014",-78.089689,35.006035
"DUPLIN ","2459 W WARD'S BRIDGE ROAD , WARSAW , NC","5","14","2015",-77.9597081,35.0336274
"DUPLIN ","127  MAPLE STREET , WARSAW , NC","10","1","2015",-78.0748959,35.0085896
"DURHAM ","810 SOUTH MINERAL SPRINGS ROAD  , DURHAM , NC","6","3","2011",-78.830708,35.970477
"DURHAM ","711 NORTH HYDE PARK AVENUE  , DURHAM , NC","8","23","2012",-78.882205,35.99341
"DURHAM ","401  ARCHDALE DRIVE BOX 604 , DURHAM , NC","7","16","2015",-78.898619,35.9940329
"FORSYTH ","6910 HANESBROOK CIRCLE 101 , CLEMMONS , NC","3","24","2008",-80.391609,36.046814
"FORSYTH ","111 KING STREET , KERNERSVILLE , NC","4","11","2007",-80.0700781,36.1230069
"FORSYTH ","119 KING STREET , KERNERSVILLE , NC","4","11","2007",-80.069612,36.12261
"FORSYTH ","5920  CUTTERS CREEK COURT , LEWISVILLE , NC","10","23","2015",-80.389843,36.11943
"FORSYTH ","7180 SOUTHERN HILLS RD , PFAFFTOWN , NC","10","24","2004",-80.4243879,36.184906
"FORSYTH ","535  OLD HOLLOW ROAD , WINSTON SALEM , NC","10","18","2015",-80.257536,36.1954909
"FRANKLIN ","120 WINDSOR CT , FRANKLINTON , NC","12","30","2004",-78.444433,36.038578
"FRANKLIN ","21 DOUGLAS WILLIAMS RD , LOUISBURG , NC","5","5","2005",-78.1480289,36.151475
"FRANKLIN ","1637 98 HIGHWAY , LOUISBURG , NC","10","2","2007",-78.3026215,35.963241
"FRANKLIN ","120 WINDSOR DR , YOUNGSVILLE , NC","4","21","2004",-78.444433,36.038578
"GASTON ","97  OAK TRAIL , BELLEMONT , NC","6","3","2014",-81.0386583,35.2665506
"GASTON ","58  BLANCHE AVENUE , BELMONT , NC","1","26","2015",-81.0325382,35.2719169
"GASTON ","814  WOODLAWN STREET BOX A , BELMONT , NC","7","6","2015",-81.037297,35.2429175
"GASTON ","208  CRESCENT DRIVE , BESSEMER CITY , NC","6","4","2014",-81.27144,35.2768469
"GASTON ","903 EAST MAIN STREET , DALLAS , NC","10","15","2007",-81.163843,35.313172
"GASTON ","303 EAST INGLE STREET , DALLAS , NC","10","30","2014",-81.172836,35.317901
"GASTON ","3314  SCOTT DRIVE  , DENVER , NC","9","19","2013",-105.0302947,39.7790836
"GASTON ","1401 JENKINS RD , GASTONIA , NC","7","12","2005",-81.218679,35.27734
"GASTON ","915 CLAY DRIVE , GASTONIA , NC","2","14","2007",-81.0658864,35.2935433
"GASTON ","1149  OATES ROAD  , GASTONIA , NC","5","3","2011",-81.251717,35.265149
"GASTON ","3625  HAMILTON DRIVE  , GASTONIA , NC","9","2","2013",-81.241928,35.21118
"GASTON ","1008  SURRY LAND  , GASTONIA , NC","1","16","2014",-81.149586,35.249738
"GASTON ","906 WEST DAVIDSON AVENUE , GASTONIA , NC","7","10","2014",-81.1975513,35.272358
"GASTON ","111  FLOWERS ROAD , GASTONIA , NC","8","15","2014",-81.1051971,35.3021665
"GASTON ","107  DRAKE STREET , GASTONIA , NC","8","14","2014",-81.213479,35.2616749
"GASTON ","783  LOG CABIN DRIVE , GASTONIA , NC","12","16","2014",-81.124642,35.272837
"GASTON ","2323  RUFUS RATCHFORD ROAD , GASTONIA , NC","12","22","2014",-81.086097,35.173529
"GASTON ","2323  RUFUS RATCHFORD ROAD , GASTONIA , NC","7","22","2015",-81.086097,35.173529
"GASTON ","113  WHITE OAK CIRCLE , GASTONIA , NC","11","2","2015",-81.2271994,35.190993
"GASTON ","403 S hill STREET , GASTONIA , NC","3","24","2016",-81.195138,35.257707
"GASTON ","413 N LINCOLN STREET , HIGH SHOALS , NC","6","9","2015",-81.2025548,35.4062899
"GASTON ","132  JUDY COURT , KINGS MOUNTAIN , NC","2","14","2012",-81.28963,35.235296
"GASTON ","300 HICKS CIRCLE , MOUNT HOLLY , NC","12","16","2007",-81.022224,35.289543
"GASTON ","206  ROSE STREET , MOUNT HOLLY , NC","7","31","2014",-81.028519,35.27718
"GASTON ","300 EAST CHARLOTTE AVENUE  BOX 2 , MOUNT HOLLY , NC","8","19","2014",-81.0159081,35.2981943
"GASTON ","998  KELLY ROAD , MOUNT HOLLY , NC","7","14","2015",-81.061646,35.32264
"GRAHAM ","93 WARD STREET , ROBBINSVILLE , NC","6","21","2004",-83.8090067,35.3211837
"GRAHAM ","2177 MASSY BRANCH RD , ROBBINSVILLE , NC","5","23","2005",-83.83646,35.3302312
"GRAHAM ","704 ATOAH ROAD , ROBBINSVILLE , NC","8","11","2006",-83.831856,35.299721
"GRAHAM ","1475 MASSEY BRANCH ROAD , ROBBINSVILLE , NC","3","28","2008",-83.82662,35.33063
"GRAHAM ","1500  MASSEY BRANCH ROAD  , ROBBINSVILLE , NC","4","22","2010",-83.8323035,35.3331569
"GRAHAM ","41  HOOT OWL HOLLOW ROAD  , ROBBINSVILLE , NC","9","9","2010",-83.818896,35.304924
"GRAHAM ","1311  HARES CREEK ROAD  , ROBBINSVILLE , NC","11","11","2011",-83.76585,35.258138
"GRAHAM ","105  BERTS CREEK ROAD , ROBBINSVILLE , NC","12","28","2011",-83.7695946,35.2908452
"GRAHAM ","378  GEORGE TURPIN ROAD  , ROBBINSVILLE , NC","1","5","2012",-83.8563643,35.4203173
"GRANVILLE ","4110  BUCKHORN ROAD , BULLOCK , NC","4","9","2015",-78.538895,36.491021
"GRANVILLE ","6694  MATT CURRIN DRIVE  , OXFORD , NC","2","7","2013",-78.570099,36.3861289
"GRANVILLE ","7005  MATT CURRIN DRIVE  , OXFORD , NC","2","7","2013",-78.5716936,36.3884802
"GRANVILLE ","3147 BROGDEN RD , STEM , NC","4","6","2004",-78.7200639,36.179781
"GRANVILLE ","574 WOODLAND CHURCH RD , YOUNGSVILLE , NC","6","22","2005",-78.5627,36.039636
"GREENE ","9058 58 N HWY , STANTONSBURG , NC","9","30","2004",-77.8022328,35.5482795
"GUILFORD ","309 LAWRENCE STREET , GREENSBORO , NC","4","29","2006",-79.797357,36.045264
"GUILFORD ","301  ODELL STREET  , GREENSBORO , NC","5","15","2009",-79.8014074,36.0704736
"GUILFORD ","312 W JJ DRIVE BOX 108, GREENSBORO , NC","",NA,NA,-79.7919754,36.0726354
"GUILFORD ","206 OLD WINSTON RD LOT 5 , HIGH POINT , NC","7","24","2004",-80.024432,35.99104
"GUILFORD ","443 NORTHBRIDGE ROAD , HIGH POINT , NC","7","5","2006",-80.015196,35.9932919
"GUILFORD ","2150  CHESTER RIDGE DRIVE  BOX A , HIGH POINT , NC","10","15","2014",-80.0053176,35.9556923
"GUILFORD ","3973  CLUBHOUSE COURT BOX 1-E , HIGH POINT , NC","6","14","2015",-80.0053176,35.9556923
"HALIFAX ","1107 SOUTH DENNIS STREET  , ENFIELD , NC","6","10","2009",-77.6800842,36.1709394
"HALIFAX ","2008  HIGHWAY 301, ENFIELD , NC","6","11","2009",-77.6931881,36.1462383
"HALIFAX ","1107 SOUTH DENNIS STREET  , ENFIELD , NC","6","18","2009",-77.6800842,36.1709394
"HARNETT ","182  YOUNG ROAD  , ANGIER , NC","4","17","2009",-78.669254,35.472019
"HARNETT ","632  CHINABERRY LANE , ANGIER , NC","10","19","2014",-78.765615,35.496546
"HARNETT ","1716  YOUNG ROAD , ANGIER , NC","5","7","2015",-78.666838,35.493478
"HARNETT ","39  OAKWOOD DRIVE , ANGIER , NC","11","4","2015",-78.742924,35.503991
"HARNETT ","1197 CLAUDE WHITE RD , CAMERON , NC","3","17","2004",-79.1587172,35.3110116
"HARNETT ","176 HOLLOW TREE COURT , CAMERON , NC","4","26","2006",-79.103673,35.2978049
"HARNETT ","287 BENNETT ROAD , COATS , NC","1","22","2007",-78.677255,35.392793
"HARNETT ","2693 BAILEY ROAD , COATS , NC","2","26","2008",-78.6170099,35.425476
"HARNETT ","1605 OLD STAGE ROAD , COATS , NC","6","9","2008",-78.701566,35.434984
"HARNETT ","2937 BUD HAWKINS RD , DUNN , NC","7","20","2004",-78.622731,35.256798
"HARNETT ","595 SADLER ROAD , DUNN , NC","11","1","2006",-78.569196,35.324289
"HARNETT ","3603 ASHE AVENUE , DUNN , NC","4","19","2008",-78.6401889,35.3359525
"HARNETT ","14 ALLSPICE LANE , DUNN , NC","7","24","2008",-78.62045,35.271825
"HARNETT ","105 LILLY STREET , DUNN , NC","10","26","2008",-78.611151,35.28656
"HARNETT ","196  JERNIGAN ROAD  , DUNN , NC","3","15","2010",-78.595925,35.3312529
"HARNETT ","590  JACKSON STREET  , DUNN , NC","4","5","2010",-78.6480614,35.3206008
"HARNETT ","702  GREENFIELD DRIVE  , DUNN , NC","9","4","2010",-78.5888253,35.3159228
"HARNETT ","300  JACKSON ROAD  , DUNN , NC","9","13","2012",-78.609244,35.292677
"HARNETT ","1375  WEEKS ROAD  , DUNN , NC","1","9","2013",-78.568672,35.326578
"HARNETT ","1019 EAST EDGERTON STREET , DUNN , NC","5","20","2014",-78.598213,35.302752
"HARNETT ","15  MAY LANE , DUNN , NC","1","8","2015",-78.598989,35.371253
"HARNETT ","185  ROCK HOLLOW LANE , DUNN , NC","8","18","2015",-78.5187164,35.2781538
"HARNETT ","110 3RD STREET , ERWIN , NC","11","20","2007",-78.659689,35.32445
"HARNETT ","864  MAYNARD LAKE ROAD  , ERWIN , NC","4","8","2009",-78.666995,35.348443
"HARNETT ","9875  US 421 HIGHWAY  , ERWIN , NC","4","22","2009",-78.6917378,35.350761
"HARNETT ","4432 EAST NC 55 HIGHWAY  , ERWIN , NC","2","18","2010",-78.667643,35.350156
"HARNETT ","109  PRINCE STREET  , ERWIN , NC","3","8","2010",-78.648613,35.318032
"HARNETT ","810  RAIFORD ROAD  , ERWIN , NC","10","2","2012",-78.658256,35.310831
"HARNETT ","202  MASONIC DRIVE , ERWIN , NC","1","11","2015",-78.662486,35.3267669
"HARNETT ","240  FRANK COLVILLE LANE , ERWIN , NC","4","13","2015",-78.702933,35.35793
"HARNETT ","147  CURTIS ROAD , ERWIN , NC","5","21","2015",-78.710705,35.364602
"HARNETT ","363 JAMES TART RD , LILLINGTON , NC","4","28","2005",-78.769037,35.344671
"HARNETT ","65  TFIJ LANE , LILLINGTON , NC","8","24","2015",-78.7298294,35.4222918
"HARNETT ","228  JEROME LANE  , LINDEN , NC","6","5","2013",-78.831591,35.27353
"HARNETT ","63 SARAH CIR , SPRING LAKE , NC","6","1","2004",-78.91297,35.254835
"HARNETT ","14048 W 27 HIGHWAY , [Unspecified] , NC","10","8","2015",-79.0192997,35.7595731
"HARNETT ","78  cokesbury ROAD , [Unspecified] , NC","3","22","2016",-79.0192997,35.7595731
"HAYWOOD ","737 CHAMPION DR 215 , CANTON , NC","2","9","2004",-82.8525828,35.553904
"HAYWOOD ","30 CONARD DR , CANTON , NC","3","15","2005",-82.8232215,35.5151194
"HAYWOOD ","92 ARROWWOOD RD , CANTON , NC","3","19","2005",-82.8275386,35.4497978
"HAYWOOD ","9420 CRUSO RD , CANTON , NC","4","14","2005",-82.841393,35.45303
"HAYWOOD ","59 MONAFLAVIN DR , CANTON , NC","1","13","2006",-82.8687671,35.4564803
"HAYWOOD ","240 FILTER PLANT ROAD , CANTON , NC","7","14","2006",-82.8497299,35.525581
"HAYWOOD ","122 MONROE LANE , CANTON , NC","9","4","2007",-82.8539289,35.526366
"HAYWOOD ","31  THOMPSON STREET  , CANTON , NC","6","3","2010",-82.831855,35.545606
"HAYWOOD ","78  CHARLES STREET  , CANTON , NC","7","31","2010",-82.838048,35.526623
"HAYWOOD ","1055  PHILLIPSVILLE LOOP  , CANTON , NC","9","13","2010",-82.858194,35.538951
"HAYWOOD ","3478 THICKETY RD , CLYDE , NC","5","24","2005",-82.873093,35.555407
"HAYWOOD ","51  BIRD VIEW DRIVE  , CLYDE , NC","1","22","2010",-82.9238144,35.5360846
"HAYWOOD ","15  RED FOX LOOP  , CLYDE , NC","5","6","2011",-82.9357315,35.5411743
"HAYWOOD ","181 LEWIS LN RM 119 , MAGGIE VALLEY , NC","2","29","2004",-83.0862159,35.513709
"HAYWOOD ","194 RIDDLE COVE RD , MAGGIE VALLEY , NC","11","28","2004",-83.0577435,35.5214172
"HAYWOOD ","6 ADELL DR , WAYNESVILLE , NC","4","7","2004",-82.9024731,35.4757046
"HAYWOOD ","1811 MAUNEY COVE RD , WAYNESVILLE , NC","2","12","2005",-83.015589,35.511643
"HAYWOOD ","523 SUNSHINE COVE RD , WAYNESVILLE , NC","3","21","2005",-83.0115019,35.569874
"HAYWOOD ","58  REMINGTON FORK ROAD  , WAYNESVILLE , NC","7","29","2010",-82.995591,35.590687
"HAYWOOD ","823  FOX RUN ROAD  , WAYNESVILLE , NC","9","13","2010",-83.0397773,35.535352
"HENDERSON ","99 SOUTHER ROAD , FLETCHER , NC","5","7","2007",-82.4610928,35.4353346
"HENDERSON ","59 HORSESHOE LOOP LN , HENDERSONVILLE , NC","2","25","2004",-82.4002553,35.3998704
"HENDERSON ","529-A WHITTED STREET , HENDERSONVILLE , NC","5","3","2006",-82.472481,35.317518
"HENDERSON ","2918 NORTH RUGBY ROAD  , HENDERSONVILLE , NC","7","2","2010",-82.5152466,35.4026842
"HENDERSON ","89  DOTSON HALF LOOP  , HENDERSONVILLE , NC","5","23","2011",-82.4311077,35.2947533
"HENDERSON ","564  GYPSY LANE  , HENDERSONVILLE , NC","6","14","2013",-82.4183941,35.3493431
"HENDERSON ","112  WREN DRIVE , HENDERSONVILLE , NC","4","29","2014",-82.447139,35.336812
"HOKE ","165  WATER SPLASH LANE  , RAEFORD , NC","2","3","2011",-79.1210512,35.0306168
"HOKE ","165  WATER SPLASH LANE  , RAEFORD , NC","2","3","2011",-79.1210512,35.0306168
"HYDE ","104 LOOP RD , OCRACOKE , NC","2","28","2006",-75.986388,35.105634
"HYDE ","85 SANDDOLLAR RD , OCRACOKE , NC","2","28","2006",-75.97491,35.1114
"IREDELL ","295 THIRD CREEK RD , STATESVILLE , NC","6","17","2004",-80.838189,35.750786
"IREDELL ","122 ROCKHAVEN DRIVE , STATESVILLE , NC","9","10","2008",-81.0814259,35.761562
"IREDELL ","127  TILLEY FARM LANE  , STATESVILLE , NC","11","16","2010",-80.933957,35.961768
"IREDELL ","2200  SHELTON AVENUE  , STATESVILLE , NC","1","8","2014",-80.894766,35.745827
"IREDELL ","112  DEEP WATER ROAD  , STATESVILLE , NC","2","4","2014",-80.9581484,35.9143986
"IREDELL ","290  CARLYLE ROAD , TROUTMAN , NC","5","29","2014",-80.8714523,35.6571739
"JACKSON ","355 DOBSON RIDGE RD , CHEROKEE , NC","5","26","2004",-83.2363891,35.5038872
"JACKSON ","2545 SHOAL CREEK , MURPHY , NC","10","29","2008",-84.269469,35.061953
"JACKSON ","10 POPLAR DR , SYLVA , NC","5","18","2004",-83.2093372,35.3778459
"JACKSON ","458 DANDELION DR , SYLVA , NC","7","21","2004",-83.1527372,35.4002969
"JACKSON ","1272 MOCKINGBIRD LN , SYLVA , NC","11","19","2004",-83.2435442,35.3548904
"JACKSON ","55  MOLASSES MOUNTAIN ROAD  , SYLVA , NC","8","29","2011",-83.283981,35.3285404
"JACKSON ","88 CRANE RD , TUCKASEGEE , NC","3","23","2005",-83.1227933,35.2597128
"JACKSON ","333  LAZY LANE  , WHITTIER , NC","12","26","2011",-83.301293,35.363705
"JACKSON ","120  LEWIS COVE ROAD  , WHITTIER , NC","2","8","2013",-83.3425043,35.4146409
"JOHNSTON ","14825  210 HIGHWAY  , ANGIER , NC","5","14","2009",-78.603477,35.52062
"JOHNSTON ","1267  ENNIS ROAD , ANGIER , NC","12","17","2014",-78.597907,35.528152
"JOHNSTON ","471 TURLINGTON DRIVE , BENSON , NC","4","24","2006",-78.588938,35.440837
"JOHNSTON ","764 BYRDTOWN ROAD , BENSON , NC","6","25","2008",-78.5466033,35.4357274
"JOHNSTON ","587  BYRDTOWN ROAD  , BENSON , NC","4","15","2009",-78.544352,35.432789
"JOHNSTON ","1644  GODWIN LAKE ROAD , BENSON , NC","12","22","2014",-78.4171689,35.3103291
"JOHNSTON ","410  CHURCH ROAD , BENSON , NC","5","12","2015",-78.57608,35.529454
"JOHNSTON ","186  CREEKSTONE DRIVE , BENSON , NC","6","15","2015",-78.542665,35.543338
"JOHNSTON ","7970  RALEIGH ROAD , BENSON , NC","8","10","2015",-78.5394448,35.4949363
"JOHNSTON ","420  TALL PINE DRIVE , BENSON , NC","8","19","2015",-78.571028,35.507232
"JOHNSTON ","14470  RALEIGH ROAD , BENSON , NC","8","20","2015",-78.5005781,35.4149418
"JOHNSTON ","410  Church ROAD , BENSON , NC","2","19","2016",-78.57608,35.529454
"JOHNSTON ","914  Hobbs STREET , CLAYTON , NC","3","19","2016",-78.453261,35.641416
"JOHNSTON ","503 LEE-JOHNSON ROAD LOT 15 , DUNN , NC","2","27","2008",-78.460091,35.287776
"JOHNSTON ","6307 STRICKLANDS CROSSROADS RD , FOUR OAKS , NC","2","16","2004",-78.4398082,35.3709455
"JOHNSTON ","9644  DEVIL'S RACETRACK ROAD  , FOUR OAKS , NC","4","1","2010",-78.289835,35.3267
"JOHNSTON ","9644  DEVIL'S RACETRACK ROAD  , FOUR OAKS , NC","4","1","2010",-78.289835,35.3267
"JOHNSTON ","9303  DEVILS RACETRACK ROAD  , FOUR OAKS , NC","12","12","2012",-78.293162,35.332862
"JOHNSTON ","2766 C SOUTH 96 HIGHWAY  , FOUR OAKS , NC","3","21","2014",-78.413749,35.415309
"JOHNSTON ","31  ADAMS ROAD , FOUR OAKS , NC","5","13","2014",-78.474696,35.375876
"JOHNSTON ","31  HOLLEY ROAD , FOUR OAKS , NC","1","13","2015",-78.3971157,35.4258032
"JOHNSTON ","640  GREENLEAF ROAD , [Unspecified] , NC","1","24","2015",-79.0192997,35.7595731
"JOHNSTON ","378  PIERCE ROAD , [Unspecified] , NC","4","28","2015",-79.0192997,35.7595731
"JOHNSTON ","419  PECAN LANE A , GARNER , NC","6","14","2010",-78.5295524,35.6491712
"JOHNSTON ","175  BOSWELL ROAD , KENLY , NC","2","7","2012",-78.072098,35.5795109
"JOHNSTON ","1344  PRINCETON KENLY ROAD  BOX , KENLY , NC","5","31","2014",-78.1241591,35.5962702
"JOHNSTON ","5745  FLOWER HILL ROAD , KENLY , NC","8","6","2014",-78.169077,35.6831965
"JOHNSTON ","1653  BEULAHTOWN ROAD , KENLY , NC","6","19","2015",-78.165031,35.619721
"JOHNSTON ","10590 N. C. HIGHWAY 39 N , MIDDLESEX , NC","12","20","2004",-78.255837,35.728135
"JOHNSTON ","7955 FLOWERHILL RD , MIDDLESEX , NC","3","31","2005",-78.193039,35.715141
"JOHNSTON ","9180 NC 222 W HWY , MIDDLESEX , NC","5","5","2005",-78.2198519,35.6917814
"JOHNSTON ","1646-B OLD ROCK QUARRY RD , PRINCETON , NC","12","7","2004",-78.1602669,35.4881
"JOHNSTON ","532-B  HERRING ROAD , PRINCETON , NC","6","8","2012",-78.195781,35.4889721
"JOHNSTON ","5842  BIZZELL GROVE CHURCH ROAD , PRINCETON , NC","12","17","2014",-78.218965,35.486886
"JOHNSTON ","110  BREWER LANE , PRINCETON , NC","5","17","2015",-78.1356429,35.494221
"JOHNSTON ","385 BERTIE HEIGHTS ROAD , SELMA , NC","10","31","2006",-78.2263239,35.5467266
"JOHNSTON ","318 EAST US 70 HIGHWAY  , SELMA , NC","5","12","2009",-78.2950657,35.5220479
"JOHNSTON ","5924 NORTH 39 HIGHWAY  , SELMA , NC","3","25","2010",-78.252857,35.651156
"JOHNSTON ","1203  LIVE OAK CHURCH ROAD LOT 6 , SELMA , NC","11","27","2011",-78.303678,35.59816
"JOHNSTON ","212  DAVIS FARM DRIVE  , SELMA , NC","10","10","2013",-78.307045,35.604079
"JOHNSTON ","50  JORDAN NARRON ROAD  , SELMA , NC","3","23","2014",-78.28036,35.668572
"JOHNSTON ","135  TRAILS END DRIVE , SELMA , NC","10","1","2015",-78.2594529,35.52719
"JOHNSTON ","8694  BROGDEN ROAD , SMITHFIELD , NC","2","22","2012",-78.229736,35.412278
"JOHNSTON ","3165  GRABTOWN ROAD  , SMITHFIELD , NC","12","9","2013",-78.2435455,35.4077729
"JOHNSTON ","58  DAIL STREET , SMITHFIELD , NC","5","26","2015",-78.323618,35.514021
"JOHNSTON ","90  SUNRISE RIDGE DRIVE , WILLOW SPRINGS , NC","12","13","2014",-78.650891,35.551861
"JONES ","303  TYNDALL LANE , MAYSVILLE , NC","8","11","2014",-77.349078,34.944878
"JONES ","8270 WEST 41 HIGHWAY  , RICHLANDS , NC","5","6","2009",-77.6600527,34.9891776
"LEE ","1386  BUCKHORN ROAD  , SANFORD , NC","5","27","2009",-79.027271,35.4849699
"LEE ","2000  BROADWAY ROAD  , SANFORD , NC","6","2","2009",-79.0929149,35.4638279
"LEE ","1382  BUCKHORN ROAD  , SANFORD , NC","11","10","2010",-79.025372,35.484764
"LEE ","555  KEY ROAD , SANFORD , NC","10","17","2014",-79.2577655,35.3523329
"LEE ","1205  Broadway ROAD , SANFORD , NC","1","13","2016",-79.126654,35.463088
"LENOIR ","2660 SOUTH NC 11 HIGHWAY  , DEEP RUN , NC","1","11","2010",-77.696063,35.1637305
"LENOIR ","2423  BURNCOAT ROAD  , DEEP RUN , NC","3","14","2010",-77.765724,35.145366
"LENOIR ","4501  TYLER ROAD  , KINSTON , NC","5","13","2009",-77.6378639,35.269791
"LENOIR ","1055  IRENE LANE  , KINSTON , NC","1","11","2010",-77.648982,35.193841
"LENOIR ","2479  FORREST DRIVE  , KINSTON , NC","5","20","2010",-77.665086,35.285823
"LENOIR ","979  WILL BAKER ROAD  , KINSTON , NC","11","29","2010",-77.584807,35.2203329
"LENOIR ","530  JOE NUNN ROAD , KINSTON , NC","5","2","2014",-77.637229,35.207824
"LINCOLN ","5600  AMERICAS WAY  , CHARLOTTE , NC","9","25","2013",-81.0122006,35.2888994
"LINCOLN ","3371 JAH LN , IRON STATION , NC","4","4","2004",-81.168137,35.461094
"LINCOLN ","3345 HARMON ROAD , LINCOLNTON , NC","6","26","2008",-81.331915,35.46839
"LINCOLN ","2120 UNDERWOOD LANE , LINCOLNTON , NC","7","1","2008",-81.3071635,35.4743045
"LINCOLN ","2905  STARTOWN ROAD  , LINCOLNTON , NC","8","13","2010",-81.264463,35.5348029
"LINCOLN ","320  ASPEN STREET  , LINCOLNTON , NC","1","12","2012",-81.257505,35.473518
"LINCOLN ","578  CALVARY CHURCH ROAD , LINCOLNTON , NC","1","24","2012",-81.2736377,35.4553362
"LINCOLN ","4527  HUNTER RHYNE ROAD  , LINCOLNTON , NC","11","8","2012",-81.123596,35.505336
"LINCOLN ","702  MAUNEY DRIVE , LINCOLNTON , NC","4","8","2014",-81.2589525,35.485482
"LINCOLN ","3183  LOOMIS STREET , LINCOLNTON , NC","11","17","2015",-81.193987,35.418164
"MACON ","1729 CRAWFORD RD , FRANKLIN , NC","3","25","2004",-83.486475,35.147629
"MACON ","258 GREEN KNOB RD , FRANKLIN , NC","10","6","2004",-83.4138488,35.1761134
"MACON ","36  RALPH TAYLOR ROAD  , FRANKLIN , NC","6","25","2010",-83.3031309,35.168012
"MACON ","1111  LAKEEMORY ROAD  , FRANKLIN , NC","11","8","2010",-83.369077,35.207569
"MACON ","323  EAST ROGERS ROAD  , FRANKLIN , NC","1","19","2011",-83.3533841,35.1802011
"MACON ","36  RALPH TAYLOR ROAD  , FRANKLIN , NC","3","31","2011",-83.3031309,35.168012
"MACON ","400  ORCHARD VIEW DRIVE H , FRANKLIN , NC","6","23","2011",-83.396383,35.162631
"MADISON ","88 STACEY LN 8 , MARS HILL , NC","2","6","2006",-82.5396553,35.8361365
"MADISON ","95 BIG BROWN ROAD , MARS HILL , NC","5","31","2007",-82.5750431,35.8176885
"MADISON ","160 TILSON BRANCH , MARSHALL , NC","4","2","2004",-82.6890456,35.9590058
"MADISON ","248 UPPER BRUSH CREEK , MARSHALL , NC","5","20","2004",-82.707076,35.839512
"MADISON ","88 INDIGO BUNTING LN , MARSHALL , NC","5","20","2004",-82.6840251,35.7973284
"MADISON ","967 HENRY NAVES RD , MARSHALL , NC","10","12","2004",-82.6789147,35.7683872
"MADISON ","351 CODY RD , MARSHALL , NC","1","4","2005",-82.625429,35.830857
"MADISON ","1110 UPPER PAW PAW , MARSHALL , NC","2","6","2005",-82.752994,35.7993966
"MADISON ","967 HENRY NAVES RD , MARSHALL , NC","4","14","2005",-82.6789147,35.7683872
"MADISON ","4287 BAILEY BRANCH RD , MARSHALL , NC","8","31","2005",-82.7066596,35.7512149
"MADISON ","157 GERALD DRIVE , MARSHALL , NC","9","27","2007",-82.6149131,35.8561861
"MADISON ","687 BIG CREEK ROAD , MARSHALL , NC","4","26","2008",-82.641563,36.01423
"MADISON ","7467 HIGHWAY 212 , MARSHALL , NC","4","26","2008",-82.691193,35.9889579
"MADISON ","353  CODY ROAD  , MARSHALL , NC","2","9","2010",-82.6250139,35.829941
"MADISON ","4824  RECTOR CORNER ROAD , MARSHALL , NC","2","20","2012",-82.691074,35.748622
"MADISON ","412  SAGEWOOD DRIVE  , MARSHALL , NC","6","10","2013",-82.6482231,35.7590282
"MARTIN ","4181 PRISON CAMP ROAD , WILLIAMSTON , NC","1","29","2007",-77.1285209,35.808112
"MCDOWELL ","210 ROBY CONLEY RD , MARION , NC","1","5","2004",-82.0319267,35.6837038
"MCDOWELL ","1092 DEACON DR , MARION , NC","2","12","2004",-81.93859,35.659208
"MCDOWELL ","84 WOODY MCKINNEY DR , MARION , NC","2","17","2004",-82.1057368,35.6806286
"MCDOWELL ","36 RIDGE ST , MARION , NC","3","31","2004",-81.992535,35.676728
"MCDOWELL ","1444 JACK TOWN RD , MARION , NC","4","5","2004",-81.9575037,35.6684746
"MCDOWELL ","406 WHITE PINE DR , MARION , NC","4","22","2004",-81.9886546,35.5851932
"MCDOWELL ","6333 OLD LINVILLE RD , MARION , NC","4","25","2004",-81.9538434,35.8610952
"MCDOWELL ","4281 US 221 S HWY , MARION , NC","4","27","2004",-81.9851268,35.6410204
"MCDOWELL ","181 CABORET DR , MARION , NC","5","5","2004",-82.0092745,35.6840131
"MCDOWELL ","130 MOONLIGHT DR , MARION , NC","6","8","2004",-82.0428387,35.7847807
"MCDOWELL ","999 MARLOWE RD , MARION , NC","8","4","2004",-81.9430336,35.6329529
"MCDOWELL ","1267 JACKTOWN RD , MARION , NC","8","26","2004",-81.9581986,35.6706361
"MCDOWELL ","140 ASHWORTH RD , MARION , NC","9","2","2004",-82.0044842,35.6383383
"MCDOWELL ","4842 HIGHWAY 221 S , MARION , NC","9","16","2004",-81.9862623,35.6330001
"MCDOWELL ","85 MORGAN RD , MARION , NC","9","22","2004",-82.0573978,35.6358166
"MCDOWELL ","99 5TH ST , MARION , NC","9","23","2004",-81.9958653,35.6942179
"MCDOWELL ","1947 CLEAR CREEK RD , MARION , NC","10","16","2004",-82.1007753,35.704921
"MCDOWELL ","910 ROBY CONLEY RD , MARION , NC","12","6","2004",-82.0375964,35.691057
"MCDOWELL ","87 REID ST , MARION , NC","12","30","2004",-82.0174193,35.6655579
"MCDOWELL ","1 HABITAT DR , MARION , NC","1","10","2005",-81.9922586,35.6965001
"MCDOWELL ","444 FINLEY RD , MARION , NC","1","19","2005",-82.0198777,35.6827152
"MCDOWELL ","41 JACK RABBIT DR , MARION , NC","2","22","2005",-82.0576795,35.6262638
"MCDOWELL ","41 GROVE ST , MARION , NC","2","25","2005",-82.0232398,35.6838558
"MCDOWELL ","44 MADAC DR , MARION , NC","3","15","2005",-82.0744149,35.6553228
"MCDOWELL ","120 LEE DR , MARION , NC","4","4","2005",-82.0623722,35.6503376
"MCDOWELL ","170 CARSON ST 2 , MARION , NC","4","29","2005",-82.0172225,35.6796645
"MCDOWELL ","1717 GOOSE CREEK RD , MARION , NC","5","10","2005",-82.0263864,35.6250573
"MCDOWELL ","52 QUAIL HOLLOW DR , MARION , NC","6","29","2005",-82.037234,35.6287492
"MCDOWELL ","503 TUNNEL RD , MARION , NC","7","6","2005",-81.9811481,35.6864381
"MCDOWELL ","103 GREEN ACRES RD , MARION , NC","10","4","2005",-82.037304,35.7874375
"MCDOWELL ","128 ARBUTTUS DR , MARION , NC","10","13","2005",-81.9967301,35.5870244
"MCDOWELL ","95 LAMAR ST , MARION , NC","11","10","2005",-81.9972148,35.6943103
"MCDOWELL ","5645 US 221 N HWY , MARION , NC","1","12","2006",-82.0445328,35.7523709
"MCDOWELL ","89 MOONLIGHT DR , MARION , NC","1","24","2006",-82.0430362,35.7842314
"MCDOWELL ","205 HIGHLAND DR A , MARION , NC","3","23","2006",-82.0012315,35.6920966
"MCDOWELL ","195 PROCTORS KNOB ROAD , MARION , NC","4","5","2006",-81.969689,35.6704363
"MCDOWELL ","892 ROCKHOUSE ROAD , MARION , NC","4","20","2006",-82.0137986,35.571872
"MCDOWELL ","124 SEAGLE STREET , MARION , NC","4","26","2006",-81.9863794,35.6915477
"MCDOWELL ","151 SEAGLE STREET , MARION , NC","4","26","2006",-81.9859954,35.6917401
"MCDOWELL ","199 HARVEY'S MHP , MARION , NC","6","15","2006",-82.0092745,35.6840131
"MCDOWELL ","50 EAST SECOND STREET , MARION , NC","8","3","2006",-81.9909906,35.6798008
"MCDOWELL ","612 MOODYTOWN ROAD , MARION , NC","9","18","2007",-81.9835069,35.6775151
"MCDOWELL ","26 REID STREET , MARION , NC","10","4","2007",-82.0174377,35.6663765
"MCDOWELL ","1407 TATE STREET , MARION , NC","11","7","2007",-82.0239218,35.6746094
"MCDOWELL ","647 CHEROKEE WAY , MARION , NC","6","23","2008",-82.0353559,35.6392161
"MCDOWELL ","77 OAK PINE CT , NEBO , NC","6","28","2004",-81.8849323,35.6592279
"MCDOWELL ","500 SOUTH CREEK RD LOT 6 , NEBO , NC","8","26","2004",-81.9054131,35.6999934
"MCDOWELL ","175 RAMSEY DR , NEBO , NC","1","13","2005",-81.9437775,35.7274391
"MCDOWELL ","89 ROSE DR , NEBO , NC","4","4","2005",-81.9101805,35.7132386
"MCDOWELL ","895 126 HWY , NEBO , NC","5","10","2005",-81.9288084,35.7228505
"MCDOWELL ","52 ARCHWAY DR , NEBO , NC","1","4","2006",-81.9063321,35.6666331
"MCDOWELL ","182 LONESOME PINE DR , NEBO , NC","1","17","2006",-81.9213992,35.7234712
"MCDOWELL ","288 JOHN SWOFFORD ROAD , NEBO , NC","7","21","2006",-81.9306446,35.7150548
"MCDOWELL ","350 CHESTNUT OAK FOREST DRIVE , NEBO , NC","8","26","2007",-81.8911702,35.6634969
"MCDOWELL ","110  GINGER SNAP LANE  , NEBO , NC","8","18","2011",-81.856408,35.5897198
"MCDOWELL ","515 FOX RD , OLD FORT , NC","10","13","2004",-82.1598546,35.6058021
"MCDOWELL ","45 OLD FORT DR , OLD FORT , NC","12","29","2004",-82.1898302,35.6280551
"MCDOWELL ","130 CAMP CREEK RD , OLD FORT , NC","3","10","2005",-82.1597237,35.5543614
"MCDOWELL ","155 OBIE MOORE RD , OLD FORT , NC","8","22","2005",-82.1806697,35.6290093
"MCDOWELL ","353 VERNON BRADLEY RD , OLD FORT , NC","8","23","2005",-82.1230283,35.6564734
"MCDOWELL ","26 HOGAN DR , OLD FORT , NC","12","1","2005",-82.1510359,35.6025637
"MCDOWELL ","353 DAVISTOWN CHURCH RD , OLD FORT , NC","2","8","2006",-82.158426,35.5647784
"MCDOWELL ","353 VERNON BRADLEY ROAD , OLD FORT , NC","5","11","2006",-82.1230283,35.6564734
"MCDOWELL ","1001 LACKEY TOWN ROAD , OLD FORT , NC","12","31","2008",-82.1613429,35.62562
"MECKLENBURG ","8322 KNIGHTS BRIDGE RD , CHARLOTTE , NC","7","18","2005",-80.872161,35.114146
"MECKLENBURG ","8322 KNIGHTS BRIDGE RD , CHARLOTTE , NC","8","16","2005",-80.872161,35.114146
"MECKLENBURG ","12827 ATKINS CIR 201 , CHARLOTTE , NC","8","24","2005",-80.8505855,35.0664695
"MECKLENBURG ","6616 RAEFIELD DR 3 , CHARLOTTE , NC","10","18","2005",-80.83179,35.086016
"MECKLENBURG ","1220 PRESSLEY ROAD 12 , CHARLOTTE , NC","8","25","2008",-80.8945339,35.193679
"MECKLENBURG ","10416  JOHN PRICE ROAD 8C , CHARLOTTE , NC","2","7","2012",-80.954192,35.124678
"MECKLENBURG ","2214  LAKEVIEW LANE , CHARLOTTE , NC","10","7","2015",-80.969253,35.319369
"MECKLENBURG ","10621  Mount Holly ROAD , CHARLOTTE , NC","2","24","2016",-80.980248,35.298592
"MECKLENBURG ","20741 LAGOONA DR , CORNELIUS , NC","10","10","2005",-80.904649,35.485175
"MECKLENBURG ","21329 PINE STREET , CORNELIUS , NC","1","9","2008",-80.859802,35.483856
"MECKLENBURG ","7535  HOLLY GROVE COURT  , GIRARD , NC","9","19","2013",-79.0192997,35.7595731
"MECKLENBURG ","7844  MCWHIRTER DRIVE , MINT HILL , NC","4","4","2011",-80.643784,35.178194
"MISSOULA ","355 COLORADO ST 10 , EAST MISSOULA , NC","12","15","2005",-79.0192997,35.7595731
"MITCHELL ","25 BROAD BRANCH RD , BAKERSVILLE , NC","2","11","2004",-82.198807,36.092232
"MITCHELL ","129 WILSON RD , BAKERSVILLE , NC","2","12","2004",-82.136199,35.971693
"MITCHELL ","318 MINE CREEK ROAD , BAKERSVILLE , NC","8","8","2006",-82.161916,35.989687
"MITCHELL ","296 CRABTREE ACRES RD , SPRUCE PINE , NC","11","15","2004",-82.14033,35.90334
"MITCHELL ","32  DUNCAN STREET  , SPRUCE PINE , NC","3","17","2011",-82.053926,35.909032
"MITCHELL ","378  TWIN OAKS ROAD  , SPRUCE PINE , NC","3","4","2013",-82.139043,35.90055
"MONTGOMERY ","407  BLAKE STREET  , BISCOE , NC","1","25","2010",-79.7720184,35.3538402
"MONTGOMERY ","112  RICHARDSON ROAD , CANDOR , NC","8","11","2015",-79.8361663,35.2751415
"MONTGOMERY ","149 COLUMBUS DR , MOUNT GILEAD , NC","4","26","2005",-79.973853,35.244426
"MONTGOMERY ","140 E BANK STREET , STAR , NC","11","9","2015",-79.782302,35.401191
"MONTGOMERY ","1052 N MAIN STREET , TROY , NC","3","15","2015",-79.884477,35.37886
"MOORE ","103  HALL LANE  , BENNETT , NC","1","22","2014",-79.5049417,35.502773
"MOORE ","648  STANTON HILL ROAD , CARTHAGE , NC","9","15","2014",-79.292061,35.385726
"MOORE ","120  Riverview DRIVE, VASS , NC","",NA,NA,-79.182599,35.190847
"NASH ","8623 STRICKLAND ROAD , BAILEY , NC","2","12","2008",-78.1438935,35.8474733
"NEW HANOVER ","104  WINNER AVENUE BOX APT 2 , CAROLINA BEACH , NC","6","11","2015",-77.8935966,34.0351726
"NEW HANOVER ","422 DAVIE ST , WILMINGTON , NC","4","24","2004",-77.935317,34.188729
"NEW HANOVER ","6701 BATSONWOOD COURT , WILMINGTON , NC","12","1","2006",-77.840217,34.266884
"NEW HANOVER ","4309  CEDARWOOD LANE  , WILMINGTON , NC","7","16","2011",-77.8877979,34.2243003
"NEW HANOVER ","805  STRICKLAND PLACE 6 , WILMINGTON , NC","2","22","2013",-77.8781588,34.216126
"NEW HANOVER ","7402  TREYBURN DRIVE , WILMINGTON , NC","4","9","2015",-77.82217,34.278037
"NEW HANOVER ","4423  ROBIN DALE COURT , WILMINGTON , NC","4","24","2015",-77.882539,34.266952
"NEW HANOVER ","5550  CAROLINA BEACH ROAD BOX 136 , WILMINGTON , NC","5","26","2015",-77.9447102,34.2257255
"NEW HANOVER ","5012  HUNTERS TRAIL , WILMINGTON , NC","7","21","2015",-77.8803488,34.253762
"NEW HANOVER ","207  S. 11TH STREET , WILMINGTON , NC","7","20","2015",-77.9348569,34.233541
"NEW HANOVER ","4926  MARKET STREET , WILMINGTON , NC","8","18","2015",-77.8843272,34.2432393
"NEW HANOVER ","310  TOUCH ME NOT DRIVE , WILMINGTON , NC","9","3","2015",-77.859241,34.255818
"NEW HANOVER ","925  WORDSWORTH DRIVE , WILMINGTON , NC","9","15","2015",-77.863342,34.261832
"ONSLOW ","887  HAW BRANCH ROAD , BEULAVILLE , NC","5","27","2014",-77.637133,34.906867
"ONSLOW ","372 QUEENS RD , HUBERT , NC","4","2","2006",-77.1849761,34.7020795
"ONSLOW ","206 BIRCH ROAD , HUBERT , NC","4","11","2006",-77.2154766,34.6819752
"ONSLOW ","112  RIGGS ROAD , HUBERT , NC","9","9","2015",-77.229831,34.715795
"ONSLOW ","127  HUBERT BOULEVARD BOX 49 , HUBERT , NC","10","15","2015",-77.1837447,34.7123713
"ONSLOW ","830 MILL RIVER ROAD , JACKSONVILLE , NC","8","1","2006",-77.527997,34.723793
"ONSLOW ","1415 ONSLOW PINES ROAD , JACKSONVILLE , NC","10","7","2006",-77.497221,34.733096
"ONSLOW ","106 STILLBROOK COURT , JACKSONVILLE , NC","3","23","2007",-77.492558,34.765575
"ONSLOW ","182 SOUTH LOY AVENUE LOT 5 , JACKSONVILLE , NC","2","16","2010",-77.474078,34.664715
"ONSLOW ","1033  SPRING VILLA DRIVE  , JACKSONVILLE , NC","7","25","2012",-77.475882,34.747392
"ONSLOW ","5077  WESTERN BOULEVARD 3A , JACKSONVILLE , NC","1","3","2013",-77.3789382,34.743263
"ONSLOW ","531  HARRIS CREEK ROAD BOX LOT 16 , JACKSONVILLE , NC","2","9","2015",-77.4302414,34.7540524
"ONSLOW ","531  HARRIS CREEK ROAD  BOX LOT 16 , JACKSONVILLE , NC","6","11","2015",-77.4302414,34.7540524
"ONSLOW ","1154  CANADY ROAD BOX LOT 7 , JACKSONVILLE , NC","10","24","2015",-77.4302414,34.7540524
"ONSLOW ","529  HUFFMANTOWN ROAD  , RICHLANDS , NC","4","9","2009",-77.5529427,34.9290024
"ONSLOW ","2071  KINSTON HIGHWAY  , RICHLANDS , NC","6","4","2009",-77.613088,34.94851
"ONSLOW ","313  SCRANTON COURT , RICHLANDS , NC","6","20","2012",-77.567103,34.832612
"ONSLOW ","158  TREMBLE LANE  , RICHLANDS , NC","1","12","2013",-77.5810246,34.8346911
"ONSLOW ","302  HEWITT ROAD , RICHLANDS , NC","8","15","2014",-77.6454821,34.7678401
"ONSLOW ","672  NINE MILE ROAD , RICHLANDS , NC","10","8","2014",-77.611265,34.75208
"ONSLOW ","112  SPARROW LANE , SNEADS FERRY , NC","7","8","2014",-77.3971839,34.5526655
"ONSLOW ","283  CHADWICK ACRES ROAD , SNEADS FERRY , NC","1","16","2015",-77.3974741,34.5267904
"ONSLOW ","296  RAMSEY ROAD , [Unspecified] , NC","10","16","2015",-79.0192997,35.7595731
"PAMLICO ","176  GRIFFIN LANE , ARAPAHOE , NC","7","23","2014",-76.826554,35.015376
"PAMLICO ","373  HIDDEN LANE , MERRITT , NC","7","28","2015",-76.727883,35.08888
"PASQUOTANK ","505 NORTH ROAD STREET , ELIZABETH CITY , NC","4","27","2006",-76.2226,36.3048
"PENDER ","913  CEDAR AVENUE  , HAMPSTEAD , NC","2","13","2011",-77.5701009,34.438786
"PENDER ","913  CEDAR AVENUE  , HAMPSTEAD , NC","2","13","2011",-77.5701009,34.438786
"PENDER ","315  FRANK MILLIS ROAD , HAMPSTEAD , NC","6","25","2014",-77.7528479,34.3859133
"PENDER ","13814 NC 50 HIGHWAY , SURF CITY , NC","10","18","2006",-77.560572,34.4457365
"PERSON ","312 BARNETTE AVE , ROXBORO , NC","2","6","2004",-78.975895,36.398334
"PITT ","2922 EAST NC 102 HIGHWAY  , AYDEN , NC","6","1","2010",-77.3212323,35.4569403
"PITT ","3288  COLONY COURT 609 , GREENVILLE , NC","1","20","2011",-77.3887633,35.5704624
"PITT ","6564  GRESHAM LANE  , WASHINGTON , NC","6","17","2011",-77.099797,35.5620813
"POLK ","33 WATER LANE , MILL SPRING , NC","11","4","2007",-82.15439,35.368034
"POLK ","40  PEACH LANE , MILL SPRING , NC","6","27","2012",-82.153718,35.368418
"POLK ","370  HICKORY NUT DRIVE  , MILL SPRING , NC","7","12","2012",-82.216035,35.324287
"POLK ","108  WOLF BRANCH TRAIL  , MILL SPRING , NC","10","23","2012",-82.199986,35.381299
"POLK ","146 COYOTE PASS , RUTHERFORDTON , NC","3","21","2004",-82.17099,35.404694
"POLK ","90  BEAVER STREET  , TRYON , NC","1","10","2013",-82.2373417,35.218898
"POLK ","241  HIDDEN HILLS ROAD , TRYON , NC","10","23","2014",-82.245048,35.2168629
"POLK ","560  PHILLIP HENDERSON ROAD  , , NC","11","1","2011",-82.0093746,35.2279381
"RANDOLPH ","5501 OLD THOMASVILLE ROAD , ARCHDALE , NC","6","30","2006",-80.0461049,35.9053174
"RANDOLPH ","1404  WINSLOW AVENUE , ASHEBORO , NC","9","16","2014",-79.835465,35.708564
"RANDOLPH ","908  CENTER STREET  BOX E , ASHEBORO , NC","10","29","2014",-79.8136446,35.7079146
"RANDOLPH ","1545  INDIAN WELLS LOOP , ASHEBORO , NC","10","22","2015",-79.8005699,35.649821
"RANDOLPH ","4727  LOG CABIN ROAD , RAMSEUR , NC","6","10","2014",-79.5967189,35.619789
"RANDOLPH ","6039 FRED LINE BERRY ROAD , RANDLEMAN , NC","1","15","2008",-79.7618924,35.8730871
"RANDOLPH ","1224 SOUTH MAIN STREET , RANDLEMAN , NC","12","9","2014",-79.813742,35.79444
"RANDOLPH ","194  BOONE STREET , SEAGROVE , NC","6","12","2015",-79.7711902,35.534201
"RANDOLPH ","201 MISTY DRIVE , THOMASVILLE , NC","11","22","2005",-80.050482,35.754196
"RANDOLPH ","5350 COLLETTE ST , TRINITY , NC","5","26","2004",-79.9850079,35.8913579
"RANDOLPH ","132 GRAY ROCK N RD , TRINITY , NC","4","2","2006",-80.029043,35.753621
"RANDOLPH ","5350 COLLETTE STREET , TRINITY , NC","3","31","2007",-79.9850079,35.8913579
"RANDOLPH ","5432  TOM HILL ROAD , TRINITY , NC","4","17","2014",-79.9325999,35.878695
"RANDOLPH ","4028  CHET DRIVE , TRINITY , NC","4","9","2015",-79.939095,35.882344
"RANDOLPH ","6346  EAGLE LANDING DRIVE , TRINITY , NC","7","1","2015",-80.022902,35.822849
"RANDOLPH ","6132  Meadowbrook DRIVE , TRINITY , NC","2","2","2016",-79.990179,35.88977
"RICHMOND ","355  JONES SPRING CHURCH ROAD , ELLERBE , NC","10","6","2014",-79.732699,35.111205
"RICHMOND ","606  NC 73 HIGHWAY , ELLERBE , NC","12","3","2014",-79.6846324,35.1572605
"RICHMOND ","120  PLEASANT HILL CHURCH ROAD , ELLERBE , NC","3","3","2015",-79.820914,35.02466
"RICHMOND ","511  ENTWISTLE STREET , HAMLET , NC","2","21","2015",-79.7092052,34.887677
"RICHMOND ","3338  CARTLEDGE CREEK ROAD  , MOUNT GILEAD , NC","1","18","2010",-79.8495308,35.1375001
"RICHMOND ","120 SCOTT MCDONALD ROAD , ROCKINGHAM , NC","3","27","2008",-79.685937,34.972127
"RICHMOND ","204-F  GREENRIDGE ROAD , ROCKINGHAM , NC","12","31","2011",-79.7415987,34.9274912
"RICHMOND ","114 EAST EASON DRIVE , ROCKINGHAM , NC","4","1","2014",-79.785891,34.9186369
"RICHMOND ","156  SHANNON DRIVE , ROCKINGHAM , NC","4","2","2014",-79.7520394,34.9187261
"RICHMOND ","102  ASLINGTON STREET , ROCKINGHAM , NC","6","19","2014",-79.770882,34.955462
"RICHMOND ","138  JESSICA AVENUE , ROCKINGHAM , NC","10","6","2014",-79.781588,34.978898
"RICHMOND ","787  RICHMOND ROAD EXTENSION , ROCKINGHAM , NC","3","3","2015",-79.7183045,34.944887
"RICHMOND ","111  WILSON STREET , ROCKINGHAM , NC","8","4","2015",-79.7653053,34.9111401
"RICHMOND ","106  SAFIE THIRD STREET , ROCKINGHAM , NC","8","14","2015",-79.7590621,34.9140199
"RICHMOND ","113  SLEEPY HOLLOW DRIVE , ROCKINGHAM , NC","8","21","2015",-79.768251,34.861191
"RICHMOND ","1735  US Highway 1 , ROCKINGHAM , NC","2","5","2016",-79.646686,34.976306
"RICHMOND ","121  Wayne ROAD , ROCKINGHAM , NC","2","15","2016",-79.7923519,34.913944
"RICHMOND ","195  Yates Hill ROAD , ROCKINGHAM , NC","2","16","2016",-79.793031,34.938652
"RICHMOND ","142  Rohanen AVENUE , ROCKINGHAM , NC","3","4","2016",-79.767037,34.913737
"ROWAN ","179  Sechler STREET , CHINA GROVE , NC","3","7","2016",-80.5923545,35.5422992
"ROWAN ","2475  LIBERTY ROAD , GOLD HILL , NC","9","18","2014",-80.341913,35.557823
"ROWAN ","127 N WALNUT STREET , GRANITE QUARRY , NC","3","26","2015",-80.4484733,35.6115065
"ROWAN ","135  HILLTOP LANE , MOORESVILLE , NC","4","21","2011",-80.738573,35.6007
"ROWAN ","375 NAZARETH HOMES RD , ROCKWELL , NC","2","25","2004",-80.4226879,35.570703
"ROWAN ","815 WEST PARK DR , ROCKWELL , NC","10","6","2004",-80.4440502,35.5429067
"ROWAN ","569 HANNAH FERRY RD , SALISBURY , NC","5","27","2004",-80.464473,35.7394589
"ROWAN ","4145 PINE ST , SALISBURY , NC","9","16","2004",-80.49986,35.71578
"ROWAN ","433 CORRELL LOOP RD , SALISBURY , NC","3","29","2005",-80.501597,35.601285
"ROWAN ","410  POP STIREWALT ROAD  , SALISBURY , NC","1","7","2010",-80.489318,35.576579
"ROWAN ","7225  STOKES FERRY ROAD , SALISBURY , NC","3","31","2011",-80.371082,35.603278
"ROWAN ","7545  BRINGLE FERRY ROAD , SALISBURY , NC","2","27","2012",-80.3361399,35.6298444
"ROWAN ","645  GOLD KNOB ROAD , SALISBURY , NC","4","13","2014",-80.409511,35.579112
"ROWAN ","605  CANDLEWICK DRIVE , SALISBURY , NC","1","9","2015",-80.515869,35.669542
"ROWAN ","5933  FAITH ROAD , SALISBURY , NC","9","16","2015",-80.4584,35.565647
"ROWAN ","1114  WEST BANK STREET , SALISBURY , NC","12","10","2015",-80.482994,35.675046
"ROWAN ","12630  COOL SPRINGS ROAD  , WOODLEAF , NC","1","11","2010",-80.6464992,35.7875142
"ROWAN ","740  MT VERNON ROAD  , WOODLEAF , NC","2","8","2010",-80.64421,35.7971379
"RUTHERFORD ","231 DUSTY HOLLER RD , BOSTIC , NC","2","18","2004",-81.810619,35.407243
"RUTHERFORD ","156 RUBY DR , BOSTIC , NC","3","22","2004",-81.790389,35.405315
"RUTHERFORD ","116 HILLBROOK DR , BOSTIC , NC","5","6","2004",-81.824802,35.32937
"RUTHERFORD ","191 ROBERTSON CREEK CHURCH RD , BOSTIC , NC","6","28","2004",-81.8481445,35.3948417
"RUTHERFORD ","2800 WHITESIDES RD , BOSTIC , NC","10","17","2004",-81.870077,35.4064202
"RUTHERFORD ","3950 WHITESIDES RD , BOSTIC , NC","2","1","2005",-81.8525971,35.4266748
"RUTHERFORD ","820 JOE BOSTIC RD , BOSTIC , NC","3","4","2005",-81.815194,35.41477
"RUTHERFORD ","102 CONE ST , CAROLEEN , NC","1","13","2005",-81.790288,35.273503
"RUTHERFORD ","157 HOTEL ST , CAROLEEN , NC","1","16","2006",-81.7950455,35.2781968
"RUTHERFORD ","108 LIVERMUSH DR , CLIFFSIDE , NC","4","15","2004",-81.7659271,35.2437076
"RUTHERFORD ","108 LIVER MUSH DR , CLIFFSIDE , NC","2","12","2005",-81.7659271,35.2437076
"RUTHERFORD ","225 SUNNY BROOK LN , ELLENBORO , NC","10","25","2004",-81.7425198,35.3422082
"RUTHERFORD ","534 PILGRIM RD , ELLENBORO , NC","12","12","2005",-81.808165,35.330346
"RUTHERFORD ","152 TERRY RD , FOREST CITY , NC","2","9","2004",-81.8112981,35.3751398
"RUTHERFORD ","207 SPRUCE E ST D , FOREST CITY , NC","2","21","2004",-81.866556,35.329216
"RUTHERFORD ","429 MCCALL DR , FOREST CITY , NC","3","1","2004",-81.846868,35.339109
"RUTHERFORD ","178 T. C. TRL , FOREST CITY , NC","7","11","2004",-81.8801291,35.3281839
"RUTHERFORD ","305 OAK ST , FOREST CITY , NC","9","7","2004",-81.874502,35.332426
"RUTHERFORD ","263 WILKINS ST , FOREST CITY , NC","11","9","2004",-81.87457,35.349527
"RUTHERFORD ","518 WOMACK LAKE RD , FOREST CITY , NC","3","4","2005",-81.830887,35.2760109
"RUTHERFORD ","310 BOSTIC SUNSHINE HWY , FOREST CITY , NC","4","4","2005",-81.834445,35.3388909
"RUTHERFORD ","1021 PINEY RIDGE RD , FOREST CITY , NC","6","16","2005",-81.893644,35.325565
"RUTHERFORD ","133 CLAY ST , FOREST CITY , NC","6","30","2005",-81.873561,35.336143
"RUTHERFORD ","1517 FERRY ROAD , FOREST CITY , NC","7","26","2008",-81.8103704,35.2387461
"RUTHERFORD ","138  GRAYSON BOSTIC ROAD  , FOREST CITY , NC","8","22","2012",-81.8878829,35.3121406
"RUTHERFORD ","652  BYERS ROAD 10 , FOREST CITY , NC","7","29","2013",-81.813984,35.266856
"RUTHERFORD ","241  FLORENCE STREET  BOX C , FOREST CITY , NC","6","18","2014",-81.8651028,35.3340108
"RUTHERFORD ","245 MURRAY ST , HENRIETTA , NC","6","24","2004",-81.79294,35.2575012
"RUTHERFORD ","228 SEARCY RD , LAKE LURE , NC","1","24","2004",-82.1381391,35.4829764
"RUTHERFORD ","228 PICNIC POINT , LAKE LURE , NC","4","21","2004",-82.190404,35.424938
"RUTHERFORD ","2307 HARRIS-HENRIETTA RD , MOORESBORO , NC","1","6","2004",-81.8056,35.256263
"RUTHERFORD ","331 HIGHLAND AVE , MOORESBORO , NC","7","20","2004",-81.7959187,35.2577695
"RUTHERFORD ","126 TRINITY CHURCH RD , MOORESBORO , NC","5","20","2005",-81.74338,35.266035
"RUTHERFORD ","475 GROVER SCRUGGS RD , MOORESBORO , NC","8","22","2005",-81.8149653,35.2301918
"RUTHERFORD ","714  ISLAND FORD ROAD  , MOORESBORO , NC","5","11","2010",-81.827118,35.2132239
"RUTHERFORD ","1662 HARRIS HOLLY SPRING RD , RUTHERFORDTON , NC","1","16","2004",-81.92052,35.257319
"RUTHERFORD ","322 DILLS RD , RUTHERFORDTON , NC","6","24","2004",-81.908226,35.2566864
"RUTHERFORD ","230 TOM CAMP RD , RUTHERFORDTON , NC","8","17","2004",-81.985429,35.33479
"RUTHERFORD ","861 SOUTH MAIN ST , RUTHERFORDTON , NC","10","14","2004",-81.962977,35.344777
"RUTHERFORD ","546 PHILLIP HENDERSON RD , RUTHERFORDTON , NC","10","20","2004",-82.00908,35.227996
"RUTHERFORD ","165 CARSON FARMS RD , RUTHERFORDTON , NC","3","21","2005",-82.013497,35.334154
"RUTHERFORD ","284 FRADY ST , RUTHERFORDTON , NC","4","22","2005",-81.961669,35.386802
"RUTHERFORD ","2561 ROCK RD , RUTHERFORDTON , NC","5","5","2005",-81.943405,35.443131
"RUTHERFORD ","804 GRAYS CREEK CHURCH RD , RUTHERFORDTON , NC","5","6","2005",-82.0396602,35.3156658
"RUTHERFORD ","284 FRADY ST , RUTHERFORDTON , NC","7","25","2005",-81.961669,35.386802
"RUTHERFORD ","192 WHITESIDES RD LOT 8 , RUTHERFORDTON , NC","8","22","2005",-81.9413218,35.3770853
"RUTHERFORD ","266 MARTIN RD , RUTHERFORDTON , NC","10","20","2005",-82.026855,35.31528
"RUTHERFORD ","369 WHITESIDES RD , RUTHERFORDTON , NC","1","4","2006",-81.9370569,35.3784359
"RUTHERFORD ","200 PINEVIEW DR , RUTHERFORDTON , NC","1","12","2006",-81.947173,35.394971
"RUTHERFORD ","883 SOUTH US 221 HIGHWAY , RUTHERFORDTON , NC","1","11","2007",-81.9673715,35.4049133
"RUTHERFORD ","411 CLEGHORN ST , SPINDALE , NC","6","17","2004",-81.9543744,35.3696241
"RUTHERFORD ","975 OAKLAND RD , SPINDALE , NC","7","6","2004",-81.92075,35.33103
"RUTHERFORD ","975 OAKLAND RD , SPINDALE , NC","2","1","2005",-81.92075,35.33103
"RUTHERFORD ","307  CLEGHORN STREET  , SPINDALE , NC","2","10","2010",-81.9543744,35.3696241
"RUTHERFORD ","107  BENNETT STREET  , SPINDALE , NC","6","17","2013",-81.924218,35.370547
"SAMPSON ","1434 HAYNES STRETCH ROAD , AUTRYVILLE , NC","2","13","2008",-78.581874,34.9719582
"SAMPSON ","3786  AUTRYVILLE ROAD  , AUTRYVILLE , NC","5","27","2009",-78.5980809,35.0145162
"SAMPSON ","1920  LEROY AUTRY ROAD , AUTRYVILLE , NC","11","23","2015",-78.5843844,35.0375465
"SAMPSON ","210 HOG HOUSE LANE , CLINTON , NC","4","30","2006",-78.371889,35.12128
"SAMPSON ","4851 HOBBTON HIGHWAY , CLINTON , NC","2","21","2008",-78.3265072,35.0720146
"SAMPSON ","8130 NORTH 421 HIGHWAY , CLINTON , NC","4","23","2008",-78.3461338,35.0200054
"SAMPSON ","79  JUNK YARD LANE  , CLINTON , NC","6","21","2012",-78.3476087,35.0962291
"SAMPSON ","735  FAISON HIGHWAY , CLINTON , NC","8","11","2015",-78.300629,35.0105519
"SAMPSON ","2411  HUNTER ROAD , CLINTON , NC","9","16","2015",-78.2933127,35.1459959
"SAMPSON ","100  BURGESS LANE , CLINTON , NC","11","2","2015",-78.2739233,34.9927571
"SAMPSON ","3105  Highway 421 , CLINTON , NC","2","19","2016",-78.2599468,34.9261751
"SAMPSON ","74 LEWIS ILEY TEW RD , DUNN , NC","1","14","2005",-78.55528,35.250925
"SAMPSON ","17 ELMORE ROAD , DUNN , NC","2","19","2007",-78.5458963,35.2360627
"SAMPSON ","2376 LEE CHAPEL CHURCH ROAD , DUNN , NC","9","30","2007",-78.5362653,35.2679282
"SAMPSON ","1770 EUGENE JERNIGAN ROAD , DUNN , NC","9","26","2008",-78.5788876,35.2350144
"SAMPSON ","95  ARTESIAN SPRING LANE  , DUNN , NC","4","14","2009",-78.4232759,35.2501286
"SAMPSON ","95  ARTESIAN SPRING LANE  , DUNN , NC","1","12","2010",-78.4232759,35.2501286
"SAMPSON ","9230 FAISON HWY , FAISON , NC","2","24","2006",-78.2170404,35.1052747
"SAMPSON ","81 GALE LANE , GODWIN , NC","4","10","2006",-78.6814075,35.2176639
"SAMPSON ","987 KENAN WEEKS RD , NEWTON GROVE , NC","1","20","2006",-78.312467,35.191381
"SAMPSON ","1560  JUNIPER ROAD , NEWTON GROVE , NC","3","16","2015",-78.376582,35.17102
"SAMPSON ","166  MANDOLIN LANE  , ROSEBORO , NC","4","23","2010",-78.4415502,34.9691099
"SAMPSON ","214  WOODLAND LANE , ROSEBORO , NC","12","5","2015",-78.5584973,34.9361317
"SAMPSON ","565 FANN SCHOOL RD , SALEMBURG , NC","7","24","2004",-78.499363,35.091992
"SAMPSON ","3328 CABIN MUSEUM ROAD , TURKEY , NC","11","29","2006",-78.1956921,35.0375147
"SCOTLAND ","21328  COUNTRY MILE ROAD , LAUREL HILL , NC","12","2","2015",-79.5743517,34.8428734
"STANLY ","25299  ASH ROAD , ALBEMARLE , NC","5","21","2014",-80.119516,35.321219
"STANLY ","1521  Springhaven CIRCLE , ALBEMARLE , NC","1","12","2016",-80.163057,35.372906
"STANLY ","25248  Harwood ROAD , NEW LONDON , NC","1","14","2016",-80.29497,35.379358
"STANLY ","507 LAKE SHORE DR , NORWOOD , NC","5","9","2005",-80.109485,35.250183
"STANLY ","507  LAKESHORE DRIVE  , NORWOOD , NC","6","14","2013",-80.109485,35.250183
"STANLY ","12643  OAK GROVE ROAD  , OAKBORO , NC","3","25","2010",-80.383702,35.215109
"STOKES ","1270 POWELL LANKFORD RD , LAWSONVILLE , NC","3","8","2005",-80.275317,36.48292
"STOKES ","1040  HUMMINGBIRD LANE , WALNUT COVE , NC","10","7","2014",-80.131225,36.386045
"STOKES ","1105 HOBERT OVERBY RD , WESTFIELD , NC","2","18","2005",-80.323854,36.5300749
"SURRY ","229 MOPAR LN , DOBSON , NC","2","8","2005",-80.680291,36.365039
"SURRY ","268 LEE FOWLER RD , DOBSON , NC","10","14","2005",-80.669516,36.383623
"SURRY ","136  COACHLIGHT LANE , DOBSON , NC","12","17","2014",-80.630747,36.308579
"SURRY ","166  GARDENIA LANE , ELKIN , NC","10","26","2011",-80.789848,36.320773
"SURRY ","226  GILMER MILLER ROAD , LOWGAP , NC","2","27","2012",-80.8059959,36.496109
"SURRY ","923 CARROLL ST , MOUNT AIRY , NC","2","23","2004",-80.6228019,36.520368
"SURRY ","301 EAST DEVON DRIVE , MOUNT AIRY , NC","8","3","2007",-80.59114,36.482961
"SURRY ","352  AIRVIEW DRIVE  , MOUNT AIRY , NC","12","22","2010",-80.639089,36.482157
"SURRY ","993  SPARGER ROAD , MOUNT AIRY , NC","10","21","2011",-80.673706,36.511733
"SURRY ","451  WALCH ROAD  , MOUNT AIRY , NC","5","22","2014",-80.9131836,36.2943877
"SURRY ","2336  SILOAM ROAD , MOUNT AIRY , NC","7","9","2014",-80.626324,36.392607
"SURRY ","908  N. SOUTH STREET , MOUNT AIRY , NC","9","2","2014",-80.6154294,36.5094827
"SURRY ","109  PANHANDLE LANE , MOUNT AIRY , NC","3","3","2015",-80.495876,36.5060689
"SURRY ","205  LISA LANE , MOUNT AIRY , NC","9","23","2015",-80.7065949,36.536173
"SWAIN ","530 JENKINS BRANCH , BRYSON CITY , NC","3","1","2004",-83.455106,35.409166
"SWAIN ","8814 ALARKA RD , BRYSON CITY , NC","10","24","2004",-83.391469,35.337718
"SWAIN ","25 RATHBONE DRIVE , BRYSON CITY , NC","8","30","2007",-83.408664,35.416256
"SWAIN ","50  HILLSIDE ROAD  , BRYSON CITY , NC","12","28","2011",-83.468906,35.380472
"SWAIN ","240  SOGGY HILL ROAD  , CHEROKEE , NC","6","11","2010",-83.2710203,35.550264
"SWAIN ","170  WHITTIER DEPOT STREET  , WHITTIER , NC","9","7","2010",-83.361213,35.43473
"SWAIN ","4511  CONLEYS CREEK ROAD  , WHITTIER , NC","11","29","2010",-83.345739,35.38127
"TRANSYLVANIA ","9 UNITY DR 903 , BREVARD , NC","5","12","2005",-82.7470727,35.2319724
"TRANSYLVANIA ","140  UNITY DRIVE 608 , BREVARD , NC","2","14","2012",-82.7459206,35.2305515
"TRANSYLVANIA ","140  DEERCHASE CIRCLE  , CEDAR MOUNTAIN , NC","10","7","2012",-82.654819,35.162403
"TRANSYLVANIA ","39  SAPPHIRE SPRINGS ROAD , LAKE TOXAWAY , NC","6","27","2012",-82.9563286,35.1125995
"TRANSYLVANIA ","50 CAPPS ROAD , PISGAH FOREST , NC","12","26","2008",-82.6946448,35.2796924
"TRANSYLVANIA ","225  TIGER PATH ROAD  , SAPPHIRE , NC","2","7","2013",-82.9542677,35.1095498
"UNION ","3922 HOLLY SCHOOL RD , MARSHVILLE , NC","5","25","2005",-80.34658,35.089529
"UNION ","7917  BENTON EDWARDS ROAD  , MARSHVILLE , NC","7","1","2010",-80.29776,35.161976
"UNION ","623 EAST UNION STREET , MARSHVILLE , NC","10","10","2011",-80.360022,34.991352
"UNION ","6300  FOUNTAIN HILL CHURCH ROAD  , MARSHVILLE , NC","9","13","2012",-80.323598,35.04843
"UNION ","5115  BIRCHAVEN DRIVE  , MATTHEWS , NC","2","4","2011",-80.7236804,35.1168131
"UNION ","5115  BIRCHAVEN DRIVE  , MATTHEWS , NC","2","4","2011",-80.7236804,35.1168131
"UNION ","1203  ROANOKE CHURCH ROAD  , MONROE , NC","1","28","2010",-80.560802,35.048617
"UNION ","2500  ROUND TABLE ROAD F , MONROE , NC","6","12","2012",-80.5685699,35.015507
"UNION ","813 N ROCKY RIVER ROAD , MONROE , NC","6","11","2015",-80.61209,34.997902
"VANCE ","40 GEORGE FLOYD ROAD , HENDERSON , NC","3","8","2007",-78.3730091,36.3710668
"VANCE ","999  EAVES ROAD , HENDERSON , NC","7","17","2015",-78.3278888,36.2351822
"VANCE ","2841  Stagecoach ROAD , HENDERSON , NC","1","13","2016",-78.47341,36.407841
"VANCE ","250 HANDYMAN LANE , TOWNSVILLE , NC","2","15","2007",-78.3956052,36.5035516
"VANCE ","571 BILLY BURWELL ROAD , TOWNSVILLE , NC","9","24","2008",-78.398342,36.539089
"WAKE ","1425  GOODWIN ROAD  , APEX , NC","10","2","2012",-78.923014,35.747234
"WAKE ","2632  Olive Chapel ROAD , APEX , NC","2","4","2016",-78.919858,35.727355
"WAKE ","7225  GREEN HOPE SCHOOL ROAD , CARY , NC","5","1","2014",-78.887508,35.8052459
"WAKE ","116  PINE STREET A , FUQUAY-VARINA , NC","6","9","2010",-78.798506,35.576265
"WAKE ","1504 CRANSTON RD , GARNER , NC","2","23","2006",-78.613009,35.727635
"WAKE ","101  DUCHESS DRIVE , GARNER , NC","12","17","2014",-78.583844,35.60324
"WAKE ","167  MOUNTAIN TOP DRIVE BOX 101 , GARNER , NC","2","23","2015",-78.6141709,35.7112642
"WAKE ","118  BUFFALOE ACRES LANE , GARNER , NC","3","10","2015",-78.542901,35.6894428
"WAKE ","2832 E GARNER ROAD , GARNER , NC","5","22","2015",-78.529837,35.686526
"WAKE ","6208  Silver Spring Court , GARNER , NC","1","12","2016",-78.6347699,35.69446
"WAKE ","105  PINE SAP LANE , KNIGHTDALE , NC","10","28","2015",-78.5004164,35.7775604
"WAKE ","4605 BROCKTON DR A , RALEIGH , NC","7","14","2004",-78.5981,35.843067
"WAKE ","4020 YADKIN DR , RALEIGH , NC","7","15","2004",-78.655855,35.836982
"WAKE ","12541 BURCHFALLS DR , RALEIGH , NC","7","22","2004",-78.6275579,35.957596
"WAKE ","502 SOUTH WEST STREET  , RALEIGH , NC","3","2","2010",-78.6464968,35.7743775
"WAKE ","1513  ROARING RAPIDS ROAD  , RALEIGH , NC","7","27","2010",-78.546643,35.801693
"WAKE ","6512  SUBURBAN DRIVE 1D , RALEIGH , NC","6","26","2012",-78.6262262,35.8714349
"WAKE ","2708  PIDGEON HILL ROAD  , RALEIGH , NC","8","9","2012",-78.686432,35.87742
"WAKE ","1416  DELTONA DRIVE  , RALEIGH , NC","2","12","2014",-78.6639749,35.896234
"WAKE ","7117  JEFFREY DRIVE , RALEIGH , NC","4","4","2014",-78.69784,35.68401
"WAKE ","3700  BOND STREET , RALEIGH , NC","1","8","2015",-78.57932,35.802765
"WAKE ","3806  GREY HARBOR DRIVE BOX 104 , RALEIGH , NC","5","26","2015",-78.6381787,35.7795897
"WAKE ","4016  PICKWICK DRIVE , RALEIGH , NC","6","11","2015",-78.7008029,35.866106
"WAKE ","3000  CAPITAL BOULEVARD , RALEIGH , NC","8","27","2015",-78.5918788,35.8202421
"WAKE ","6814  FAYETTEVILLE ROAD BOX A , RALEIGH , NC","10","7","2015",-78.6381787,35.7795897
"WAKE ","3217  Huntleigh DRIVE, RALEIGH , NC","",NA,NA,-78.591564,35.826178
"WAKE ","3336  QUARRY ROAD , WAKE FOREST , NC","7","9","2015",-78.4463958,35.91022
"WAKE ","9209 PIPPIN ROAD , ZEBULON , NC","1","31","2007",-78.325765,35.857815
"WATAUGA ","247 UPPER CRAB ORCHARD RD , BANNER ELK , NC","6","9","2004",-81.7871984,36.2001837
"WATAUGA ","237  CHARLIE HICKS ROAD  , BANNER ELK , NC","2","20","2010",-81.822792,36.212829
"WATAUGA ","5722 HOWARDS CREEK RD , BOONE , NC","2","20","2004",-81.7152058,36.2771565
"WATAUGA ","434 HIGHWAY 105 , BOONE , NC","5","28","2004",-81.6696128,36.2056253
"WATAUGA ","142 CHARLOTTE ANN LN D-26 , BOONE , NC","3","10","2005",-81.674967,36.208051
"WATAUGA ","147 SWAMP BOX RD , BOONE , NC","11","17","2005",-81.6200685,36.2309453
"WATAUGA ","1790 MEAT CAMP RD , BOONE , NC","12","28","2005",-81.6713248,36.2888894
"WATAUGA ","438 JONES DRIVE , BOONE , NC","12","31","2007",-81.666746,36.260599
"WATAUGA ","1001 JUSTUS ROAD , BOONE , NC","5","29","2008",-81.783502,36.1729119
"WATAUGA ","100  ABBEY LANE  , BOONE , NC","5","2","2009",-81.696409,36.209586
"WATAUGA ","240  SHADOWLINE DRIVE  , BOONE , NC","4","12","2010",-81.6603311,36.2023904
"WATAUGA ","782  BLOWING ROCK ROAD  , BOONE , NC","4","15","2010",-81.6723668,36.2076204
"WATAUGA ","2575  HIGHWAY 105 SOUTH, BOONE , NC","4","23","2010",-81.6967667,36.2049528
"WATAUGA ","360  HODGES VALLEY ROAD 1 , BOONE , NC","1","12","2011",-81.719296,36.221196
"WATAUGA ","390  LEN MORETZ ROAD  , BOONE , NC","2","1","2011",-81.697536,36.3123829
"WATAUGA ","390  LEN MORETZ ROAD  , BOONE , NC","2","1","2011",-81.697536,36.3123829
"WATAUGA ","111  RIVER RIDGE ROAD  , BOONE , NC","8","25","2011",-81.601878,36.262031
"WATAUGA ","130  TRIVETTES DRIVE  , BOONE , NC","8","25","2011",-81.648856,36.3067319
"WATAUGA ","174  CORBITT MCNEIL ROAD  , BOONE , NC","12","13","2011",-81.576901,36.225188
"WATAUGA ","125  GRAGGVILLE ROAD , BOONE , NC","8","13","2014",-81.7065343,36.223684
"WATAUGA ","1083 ELK CREEK RD , DEEP GAP , NC","5","12","2004",-81.5673433,36.2159832
"WATAUGA ","6717 ELK CREEK RD , DEEP GAP , NC","5","12","2004",-81.512263,36.182234
"WATAUGA ","162 LITTLE JAKE RD , DEEP GAP , NC","11","27","2004",-81.462512,36.209386
"WATAUGA ","138 WILDWOOD DR , DEEP GAP , NC","4","20","2005",-81.53374,36.224962
"WATAUGA ","1517 LAUREL CREEK ROAD , SUGAR GROVE , NC","4","11","2006",-81.85856,36.242167
"WATAUGA ","363 BIG BRANCH ROAD , SUGAR GROVE , NC","7","12","2006",-81.856965,36.247915
"WATAUGA ","206 BRYANT COMBS ROAD , SUGAR GROVE , NC","2","8","2008",-81.784075,36.252387
"WATAUGA ","500  LINVILLE CREEK ROAD  , SUGAR GROVE , NC","4","19","2010",-81.761193,36.245776
"WATAUGA ","175 LITTLE DAVID RD , TODD , NC","1","27","2004",-81.6629665,36.3073228
"WATAUGA ","1392 LAUREL FORK RD , VILAS , NC","2","16","2004",-81.7269419,36.215303
"WATAUGA ","119 LUTHER LN , VILAS , NC","3","3","2005",-81.742885,36.214267
"WATAUGA ","394 WILLARD JOHNSON ROAD , VILAS , NC","9","29","2006",-81.794965,36.272811
"WATAUGA ","414  HUFFMAN ROAD  , VILAS , NC","1","26","2010",-81.8155419,36.344805
"WATAUGA ","1297 S HWY 194 , VILAS , NC","4","20","2015",-81.773698,36.235309
"WATAUGA ","1538  BEAVER DAM ROAD , VILAS , NC","11","5","2015",-81.830924,36.310963
"WATAUGA ","115 ED HARDY RD , ZIONVILLE , NC","3","4","2004",-81.721361,36.373224
"WATAUGA ","626 WILL ISAACS RD , ZIONVILLE , NC","5","28","2004",-81.737456,36.296621
"WATAUGA ","3500 NORTH FORK RD , ZIONVILLE , NC","7","23","2004",-81.7913256,36.3511833
"WATAUGA ","318 WILL ISAACS RD , ZIONVILLE , NC","11","24","2004",-81.7420269,36.294342
"WATAUGA ","1115  RICH MOUNTAIN ROAD  , ZIONVILLE , NC","4","17","2010",-81.7263678,36.3388189
"WATAUGA ","1387  MABLE SCHOOL ROAD  , ZIONVILLE , NC","6","23","2010",-81.7593716,36.3178076
"WATAUGA ","9593 NORTH 421 HIGHWAY  , ZIONVILLE , NC","7","7","2010",-81.7456715,36.2902212
"WAYNE ","319  CAMP TRAILEE ROAD  , DUDLEY , NC","4","9","2009",-78.003113,35.299091
"WAYNE ","847  GENOA ROAD  , DUDLEY , NC","4","30","2009",-78.016228,35.309986
"WAYNE ","3900  ARRINGTON BRIDGE ROAD  , DUDLEY , NC","5","27","2009",-77.9611698,35.2391785
"WAYNE ","2121  EMMAUS CHURCH ROAD  , DUDLEY , NC","6","24","2009",-78.014709,35.2529619
"WAYNE ","2253 SOUTH NC 581 HIGHWAY  , DUDLEY , NC","1","11","2010",-78.0658439,35.5205367
"WAYNE ","161  BROOK TERRACE DRIVE , DUDLEY , NC","6","29","2015",-78.0392329,35.2712198
"WAYNE ","401  PATE ROAD , FREMONT , NC","2","2","2015",-77.9727707,35.5799766
"WAYNE ","313 WINDSOR DRIVE , GOLDSBORO , NC","1","23","2008",-77.92261,35.31547
"WAYNE ","1510  DAKOTA AVENUE  , GOLDSBORO , NC","6","18","2009",-77.978069,35.394542
"WAYNE ","1005 NORTH SPENCE AVENUE  , GOLDSBORO , NC","6","20","2009",-77.9494726,35.3876909
"WAYNE ","3859 WEST US 70 HIGHWAY  , GOLDSBORO , NC","6","23","2009",-77.9304941,35.3595786
"WAYNE ","1310  STEVENS MILL ROAD  , GOLDSBORO , NC","5","30","2010",-78.0422615,35.3800982
"WAYNE ","100  MARLETTE DRIVE  , GOLDSBORO , NC","2","10","2011",-77.917259,35.320993
"WAYNE ","100  MARLETTE DRIVE  , GOLDSBORO , NC","2","10","2011",-77.917259,35.320993
"WAYNE ","104  KENDALL LANE  , GOLDSBORO , NC","2","24","2011",-77.8861888,35.4664788
"WAYNE ","104  KENDALL LANE  , GOLDSBORO , NC","2","24","2011",-77.8861888,35.4664788
"WAYNE ","767  STONEY CREEK CHURCH ROAD D , GOLDSBORO , NC","6","29","2011",-77.9555759,35.445345
"WAYNE ","117  DELUXE DRIVE  , GOLDSBORO , NC","10","8","2013",-78.0475109,35.3229349
"WAYNE ","1904  MARGARET DRIVE , GOLDSBORO , NC","12","8","2014",-78.0405059,35.40592
"WAYNE ","714  NATIONAL DRIVE , GOLDSBORO , NC","12","11","2014",-77.905013,35.379762
"WAYNE ","1219  Collier STREET , GOLDSBORO , NC","2","26","2016",-78.013035,35.401995
"WAYNE ","1154 WEST HWY NC 55 , MOUNT OLIVE , NC","4","19","2006",-78.1059608,35.2060474
"WAYNE ","282  WALLER ROAD  , MOUNT OLIVE , NC","6","9","2011",-78.1254472,35.2025652
"WAYNE ","266  IVEY LANE  , PIKEVILLE , NC","5","12","2010",-78.0112,35.501319
"WAYNE ","400  IVEY LANE  , PIKEVILLE , NC","12","4","2013",-78.0141851,35.5004816
"WAYNE ","335  DAVE HOWELL ROAD  , PRINCETON , NC","8","8","2012",-78.2166421,35.4603552
"WAYNE ","437  PRINCETON ROAD , PRINCETON , NC","10","8","2014",-78.143745,35.407241
"WAYNE ","103  RED HAWK TRAIL  , SEVEN SPRINGS , NC","6","5","2009",-77.951196,35.247773
"WAYNE ","1968  PINEVIEW CEMETARY ROAD  , SEVEN SPRINGS , NC","2","17","2010",-77.900922,35.2055612
"WILKES ","149  GREEN ORCHARD ROAD  , BOOMER , NC","11","21","2012",-81.2431145,36.0691879
"WILKES ","526 STONY FORK RD , FERGUSON , NC","4","17","2004",-81.4510863,36.1563838
"WILKES ","1085  OAK RIDGE CHURCH ROAD  , HAYS , NC","8","13","2010",-81.0927772,36.2616969
"WILKES ","357  HART LANE , MILLERS CREEK , NC","4","12","2011",-81.2477569,36.1993719
"WILKES ","1864  ARBOR GROVE CHURCH ROAD , MILLERS CREEK , NC","12","14","2011",-81.26407,36.191852
"WILKES ","3433  VANOY ROAD , MILLERS CREEK , NC","2","8","2012",-81.2744699,36.295859
"WILKES ","430  PARKER LANE  , MORAVIAN FALLS , NC","8","8","2011",-81.1821996,36.0888298
"WILKES ","2127  AIRPORT ROAD  , NORTH WILKESBORO , NC","5","14","2011",-81.107877,36.2161789
"WILKES ","147STREET  , NORTH WILKESBORO , NC","6","18","2012",-81.1529448,36.1489171
"WILKES ","164  PINE HILL CIRCLE , NORTH WILKESBORO , NC","9","9","2014",-81.104369,36.187397
"WILKES ","149  CHICKADEE ROAD , NORTH WILKESBORO , NC","10","9","2015",-81.166521,36.219087
"WILKES ","2541 LUMP RD , PURLEAR , NC","5","3","2004",-81.390763,36.282673
"WILKES ","11346 BOONE TRAIL , PURLEAR , NC","10","10","2005",-81.3308396,36.1669179
"WILKES ","122  JACOB LANE  , PURLEAR , NC","1","4","2011",-81.2944738,36.2075912
"WILKES ","339  WARD STREET  , ROARING RIVER , NC","4","18","2011",-80.995095,36.2172569
"WILKES ","2525  CENTER CHURCH  , THURMOND , NC","12","3","2014",-80.925675,36.341578
"WILKES ","251  FLINTSTONE HOLLOW ROAD  , TRAPHILL , NC","11","23","2011",-81.0325796,36.346521
"WILKES ","150  FORD TOWN ROAD , TRAPHILL , NC","5","16","2014",-81.081083,36.317517
"WILKES ","155  BUCK ROAD  , WILKESBORO , NC","4","17","2009",-81.2218,36.153682
"WILKES ","1201  INDUSTRIAL PARK ROAD  C-5 , WILKESBORO , NC","1","16","2013",-81.1488095,36.1320216
"WILKES ","1325  S COLLEGIATE DRIVE  BOX 206-H , WILKESBORO , NC","4","10","2014",-81.1606401,36.1459649
"WILSON ","5004 SOUTH US 301 HIGHWAY  , LUCAMA , NC","2","8","2010",-77.974805,35.661519
"WILSON ","5942 WEST BAKER ROAD  , WILSON , NC","6","8","2010",-77.9739309,35.798578
"WILSON ","4901  SKYLAND LOOP  , WILSON , NC","6","14","2010",-77.973124,35.677359
"WILSON ","5431 A  WEAVER ROAD  , WILSON , NC","1","29","2012",-77.8376586,35.7502373
"WILSON ","1927  FIRESTONE PARKWAY  , WILSON , NC","2","25","2013",-77.885278,35.739857
"WILSON ","2251-I  BANKS LANE  , WILSON , NC","3","1","2013",-77.873345,35.728914
"WILSON ","4521  Saint Mary's Church ROAD, WILSON , NC","",NA,NA,-77.970209,35.674908
"YADKIN ","1309  BUCK SHOALS ROAD  , HAMPTONVILLE , NC","1","5","2010",-80.81964,36.11849
"YADKIN ","129 WEST MAIN STREET , JONESVILLE , NC","6","5","2014",-80.844081,36.233733
"YADKIN ","2538 COURTNEY-HUNTSVILLE RD , YADKINVILLE , NC","12","22","2004",-80.6028959,36.0662014
"YADKIN ","1316 LITTLE CREEK RD , YADKINVILLE , NC","3","15","2005",-80.53351,36.122865
"YADKIN ","2640  BETHEL CHURCH ROAD , YADKINVILLE , NC","4","2","2014",-80.709267,36.0794349
"YADKIN ","1612  SHACKTOWN ROAD , YADKINVILLE , NC","7","31","2014",-80.636376,36.123093
"YANCEY ","439 US 19 W HWY , BURNSVILLE , NC","1","22","2004",-82.5690548,35.5912402
"YANCEY ","1 MAIN E ST , BURNSVILLE , NC","11","6","2004",-82.3005007,35.9172265
"YANCEY ","675 BLANKENSHIP CREEK RD , BURNSVILLE , NC","11","6","2004",-82.373836,35.862111
"YANCEY ","4916  HIGHWAY 19E HIGHWAY  , BURNSVILLE , NC","3","1","2011",-82.199982,35.9098169
"YANCEY ","79  SILVER SPRINGS ROAD  , BURNSVILLE , NC","5","10","2013",-82.300961,35.9173357
"YANCEY ","261  DEPOT STREET  , BURNSVILLE , NC","6","12","2013",-82.279973,35.912896
