"COUNTY","FullAddress","STATE","Month","Date","Year","lon","lat"
"ADAIR ","1521 N LEWIS PLACE , ACHILLE , OK","OK",1,20,2015,-96.3872105,33.8334343
"ADAIR ","26676 EAST 888 ROAD  , BUNCH , OK","OK",7,10,2006,-94.841514,35.7342293
"ADAIR ","120 NORTH 7TH STREET  , STILWELL , OK","OK",7,2,2007,-94.6342636,35.8165511
"ADAIR ","120 SOUTH SEVENTH, STILWELL , OK","OK",8,22,2007,-94.6342636,35.8165511
"ADAIR ","6  RURAL ROUTE  1605 , STILWELL , OK","OK",9,6,2007,-94.6285553,35.81453
"ADAIR ","1  CHEROKEE RURAL ROUTE, WATTS , OK","OK",11,6,2007,-94.5702202,36.1092487
"ADAIR ","315  3RD STREET  , WATTS , OK","OK",10,18,2012,-94.5751589,36.1074465
"ADAIR ","101 10 CHERRY E, WESTVILLE , OK","OK",3,26,2001,-94.5688486,35.9956252
"ADAIR ","506 SOUTH 2ND STREET  , WESTVILLE , OK","OK",6,21,2007,-94.5630483,35.9862673
"ADAIR ","103  CHERRY 104 , WESTVILLE , OK","OK",8,31,2011,-94.5686345,35.9954889
"ADAIR ","317  MAPLE STREET  , WESTVILLE , OK","OK",8,31,2011,-94.575572,35.9907886
"ADAIR ","415  2ND STREET  , WESTVILLE , OK","OK",8,22,2012,-94.5638627,35.9911528
"ALFALFA ","419  WALNUT, ALINE , OK","OK",8,15,2011,-98.4480108,36.5075909
"ATOKA ","105 VOCA SW RD, ATOKA , OK","OK",5,3,2002,-96.218584,34.2442543
"ATOKA ","1302 11TH E, ATOKA , OK","OK",1,10,2003,-96.1157648,34.3770876
"BEAVER ","910 G  AVE 5, BEAVER , OK","OK",3,7,2002,-100.5235324,36.808347
"BEAVER ","14 OF ELMWOOD HY 412 E, ELMWOOD , OK","OK",5,7,2002,-100.5226468,36.6164172
"BECKHAM ","301 3RD S, CARTER , OK","OK",4,2,2002,-99.5019119,35.2179659
"BECKHAM ","230 SHELL, ELK CITY , OK","OK",2,2,2002,-99.4021036,35.4202052
"BECKHAM ","1200 VAN BUREN S  77, ELK CITY , OK","OK",3,11,2002,-99.3996841,35.3984754
"BECKHAM ","508 D W AVE, ELK CITY , OK","OK",4,26,2002,-99.4098525,35.4174496
"BECKHAM ","  820 OLIVER N, ELK CITY , OK","OK",7,9,2003,-99.4108975,35.4176584
"BECKHAM ","  309 ADAMS S, ELK CITY , OK","OK",10,29,2003,-99.4075185,35.4083637
"BECKHAM ","  1202 BOONE S, ELK CITY , OK","OK",11,18,2003,-99.4128121,35.4036412
"BECKHAM ","  303 HOOVER  CIR, ELK CITY , OK","OK",12,4,2003,-99.408159,35.4295577
"BECKHAM ","  1907 AVE B W, ELK CITY , OK","OK",1,24,2004,-99.4280363,35.4158146
"BECKHAM ","  310 WALKER S, ELK CITY , OK","OK",2,19,2004,-99.409769,35.408468
"BECKHAM ","622 WEST EAST AVENUE  , ELK CITY , OK","OK",2,21,2009,-99.4111925,35.4183687
"BECKHAM ","  112 PINE S ST, ERICK , OK","OK",4,4,2002,-99.8640864,35.2142005
"BECKHAM ","  102 PINE S, ERICK , OK","OK",6,23,2004,-99.8640864,35.2142005
"BECKHAM ","  611 SISSON E, SAYRE , OK","OK",11,11,2003,-99.6334399,35.2996646
"BRYAN ","  3450 PIPELINE  RD, BENNINGTON , OK","OK",2,1,2004,-95.9581809,33.9826498
"BRYAN ","  64 DAISY MAE, BLUE , OK","OK",9,14,2004,-96.2268589,33.99566
"BRYAN ","  602 RUSSELL  ST, CADDO , OK","OK",5,15,2004,-96.2683731,34.1271311
"BRYAN ","  407 CHOCTAW S, CADDO , OK","OK",6,9,2004,-96.2685607,34.1233729
"BRYAN ","  618 MCKINLEY S ST  311, CALERA , OK","OK",3,27,2001,-96.4336356,33.9298404
"BRYAN ","  513 RYAN E ST, CALERA , OK","OK",4,23,2001,-96.423106,33.93161
"BRYAN ","  RT1 WILUFA WOODS  RD  52, CARTWRIGHT , OK","OK",11,21,2003,-96.5617912,33.8528917
"BRYAN ","  593 4TH  AVE, CARTWRIGHT , OK","OK",1,12,2004,-96.562308,33.858014
"BRYAN ","  2569 SAND CREEK  RD, CARTWRIGHT , OK","OK",9,27,2005,-96.5627984,33.867011
"BRYAN ","34  DERRYBERRY LANE  , CARTWRIGHT , OK","OK",7,27,2007,-96.5634929,33.842684
"BRYAN ","220  COLLINS STREET  , COLBERT , OK","OK",7,15,2006,-96.5050795,33.8514914
"BRYAN ","  223 13TH N, DURANT , OK","OK",3,28,2001,-96.389686,33.9962159
"BRYAN ","  1901 MISSISSIPPIG75, DURANT , OK","OK",1,10,2002,-96.3979978,33.9898467
"BRYAN ","  1901 MISSISSIPPIH90, DURANT , OK","OK",1,29,2002,-96.3979978,33.9898467
"BRYAN ","  1312 6TH N ST 11, DURANT , OK","OK",3,3,2002,-96.378382,34.004013
"BRYAN ","  401 13 S AVE, DURANT , OK","OK",9,8,2002,-96.391648,33.990726
"BRYAN ","  4805 9 S, DURANT , OK","OK",12,3,2002,-96.403704,33.9568055
"BRYAN ","  312 LOUISIANA  AVE, DURANT , OK","OK",12,18,2002,-96.380158,33.9885424
"BRYAN ","  505 GEORGIA E, DURANT , OK","OK",2,28,2003,-96.3669819,33.984294
"BRYAN ","  1016 LOUISIANA, DURANT , OK","OK",10,5,2003,-96.3884155,33.9901554
"BRYAN ","1614 SOUTH LONE OAK ROAD  , DURANT , OK","OK",11,1,2007,-96.321154,33.9742419
"BRYAN ","  134 KENEFIC  ST, KENEFIC , OK","OK",1,28,2004,-96.361826,34.1431405
"BRYAN ","284  CROWDER ROAD  , MEAD , OK","OK",7,12,2007,-96.531881,34.0392153
"BRYAN ","  54 FELTON  LN, WILLIFA WOODS , OK","OK",2,17,2006,-98.7481167,36.7181862
"CADDO ","  629 TOTTINGHAM W DR, ANADARKO , OK","OK",3,28,2001,-98.253187,35.060525
"CADDO ","  316 OKLAHOMA E ST, ANADARKO , OK","OK",5,27,2003,-98.2399707,35.0737404
"CADDO ","  6 MAIN E ST, CARNEGIE , OK","OK",4,18,2001,-98.6025999,35.1060534
"CADDO ","  324 BROADWAY S, CARNEGIE , OK","OK",5,19,2003,-98.6049238,35.1020831
"CADDO ","404 SOUTH CAROL, CARNEGIE , OK","OK",3,9,2010,-98.5961374,35.0981575
"CADDO ","402  6TH STREET  , FORT COBB , OK","OK",2,25,2007,-98.4412423,35.0991425
"CADDO ","  433 HUNT  ST, HYDRO , OK","OK",9,11,2000,-98.5746274,35.5477296
"CANADIAN ","  13508 ELM W, CALUMET , OK","OK",10,14,2001,-98.104908,35.5231039
"CANADIAN ","19915 WEST HWY 270, CALUMET , OK","OK",2,25,2006,-98.17894,35.61707
"CANADIAN ","  201 HOFF N ST, EL RENO , OK","OK",9,28,2000,-97.949783,35.534159
"CANADIAN ","  412 EVANS S ST, EL RENO , OK","OK",7,9,2002,-97.956417,35.529651
"CANADIAN ","  520 CHOCTAW S  B, EL RENO , OK","OK",2,10,2003,-97.955301,35.52848
"CANADIAN ","  500 HADDEN S, EL RENO , OK","OK",3,29,2003,-97.9617033,35.5293832
"CANADIAN ","  139 EL RENO N ST, EL RENO , OK","OK",5,12,2003,-97.945148,35.534591
"CANADIAN ","  2400 SUNSET S  LOT 7, EL RENO , OK","OK",10,27,2003,-97.981925,35.537602
"CANADIAN ","  1725 DILLIE S, EL RENO , OK","OK",2,17,2004,-97.957851,35.517123
"CANADIAN ","520 SOUTH CHOCTAW AVENUE  , EL RENO , OK","OK",4,18,2006,-97.955301,35.52848
"CANADIAN ","701 NORTH CHOCTAW AVENUE  , EL RENO , OK","OK",10,13,2009,-97.9553022,35.5388568
"CANADIAN ","  11730 MUSTANG S RD, MUSTANG , OK","OK",12,11,2000,-97.7245722,35.3502185
"CANADIAN ","  616 HIGHLAND S, MUSTANG , OK","OK",9,17,2001,-97.733662,35.386056
"CANADIAN ","  317 CAROL N TER, MUSTANG , OK","OK",11,5,2002,-97.696256,35.3940119
"CANADIAN ","  319 HILLCREST E LN, MUSTANG , OK","OK",3,31,2003,-97.718676,35.386604
"CANADIAN ","  219 HILLCREST E LN, MUSTANG , OK","OK",7,23,2003,-97.7215258,35.38637
"CANADIAN ","  2347 HIGHWAY 152 E, MUSTANG , OK","OK",8,31,2004,-97.674143,35.392654
"CANADIAN ","  5800 ALOHA  CT, MUSTANG , OK","OK",9,2,2004,-97.720424,35.409162
"CANADIAN ","  5306 MUSTANG S RD, OKLAHOMA CITY , OK","OK",3,3,2003,-97.724556,35.4116809
"CANADIAN ","  10500 23RD NW, OKLAHOMA CITY , OK","OK",6,5,2003,-97.7044768,35.4932313
"CANADIAN ","  9717 10 NW ST 339, OKLAHOMA CITY , OK","OK",9,16,2003,-97.6875448,35.4822035
"CANADIAN ","  112 GRAND  ST, UNION CITY , OK","OK",10,31,2003,-97.940986,35.390598
"CANADIAN ","  12026 16TH SW, YUKON , OK","OK",8,18,2000,-97.7377323,35.4486582
"CANADIAN ","  1008 ELM  ST, YUKON , OK","OK",12,6,2000,-97.759299,35.506578
"CANADIAN ","  105 CEDAR, YUKON , OK","OK",7,29,2001,-97.74457,35.5092027
"CANADIAN ","  220 7TH S ST, YUKON , OK","OK",3,27,2002,-97.753732,35.50538
"CANADIAN ","  12025 ASHFORD  DR, YUKON , OK","OK",1,21,2003,-97.7205094,35.5917889
"CANADIAN ","  911 2ND S ST, YUKON , OK","OK",1,23,2003,-97.7456218,35.4980529
"CANADIAN ","  106 CORNWELL S  1, YUKON , OK","OK",1,27,2003,-97.742206,35.506524
"CANADIAN ","  10309 BIRKENHEAD  RD, YUKON , OK","OK",9,9,2004,-97.700637,35.4539929
"CARTER ","  1426 RUTLEDGE SE ST, ARDMORE , OK","OK",11,3,2003,-97.12712,34.151885
"CARTER ","SUE MILLER  RD  291, LONE GROVE , OK","OK",4,25,2001,-97.2627946,34.1753716
"CARTER ","11700  PRAIRIE VALLEY ROAD  , LONE GROVE , OK","OK",7,26,2006,-97.3119714,34.2019616
"CARTER ","  301 ASH W, WILSON , OK","OK",9,30,2002,-97.4284327,34.1627269
"CHEROKEE ","  21115 WEST 888  RD, COOKSON , OK","OK",4,26,2005,-94.9319395,35.7280415
"CHEROKEE ","  107 NORTH ELM, HULBERT , OK","OK",4,16,2002,-95.1425438,35.9346796
"CHEROKEE ","  5037 770TH W RD, HULBERT , OK","OK",2,25,2003,-95.078452,35.9007301
"CHEROKEE ","10336 NORTH 427 ROAD , HULBERT , OK","OK",12,28,2011,-95.1205327,36.0269812
"CHEROKEE ","7723 WEST J B TEAGUE DRIVE  , HULBERT , OK","OK",7,11,2012,-95.1643865,35.9512125
"CHEROKEE ","  11019 530 N RD, MOODYS , OK","OK",5,31,2005,-94.9346879,36.0137545
"CHEROKEE ","  35144 488 N RD, PARK HILL , OK","OK",9,30,2002,-95.0230288,35.6666976
"CHEROKEE ","  313 BAILEY  BLVD, TAHLEQUAH , OK","OK",7,25,2001,-94.8882566,35.9819195
"CHEROKEE ","  15759 N BRYANT W RD, TAHLEQUAH , OK","OK",5,28,2002,-95.0113596,35.9480474
"CHEROKEE ","  310 1/2 B COLLEGE  ST, TAHLEQUAH , OK","OK",8,19,2002,-94.974504,35.9077219
"CHEROKEE ","  20455 WHIPPERWILL HOLLOW  RD, TAHLEQUAH , OK","OK",5,6,2003,-94.969956,35.91537
"CHEROKEE ","408 EAST NORMAL STREET , TAHLEQUAH , OK","OK",2,8,2012,-94.963758,35.918477
"CHEROKEE ","22013 SOUTH 497 ROAD  , TAHLEQUAH , OK","OK",10,10,2012,-95.0088515,35.8562341
"CHEROKEE ","24283 SOUTH WELLING ROAD  , WELLING , OK","OK",6,11,2007,-94.8816764,35.8251759
"CHOCTAW ","  112 CLAYTON W ST, HUGO , OK","OK",2,19,2002,-95.5129704,34.0123818
"CHOCTAW ","  707 E. LOWERY  ST, HUGO , OK","OK",10,11,2005,-95.5046704,34.0030885
"CHOCTAW ","  701 MAIN N ST, SOPER , OK","OK",4,26,2005,-95.6968196,34.0348258
"CLEVELAND ","  2128 NAIL PARKWAY, MOORE , OK","OK",2,24,2000,-97.4858926,35.3572709
"CLEVELAND ","  2712 YORKSHIRE  AVE, MOORE , OK","OK",3,25,2001,-97.5068638,35.3629113
"CLEVELAND ","  3804 COUNTRY CLUB S, MOORE , OK","OK",9,27,2002,-97.465457,35.302881
"CLEVELAND ","824 NORTHWEST 16TH STREET  , MOORE , OK","OK",8,27,2011,-97.504676,35.3525429
"CLEVELAND ","  901 MAGUIRE  RD 38, NOBLE , OK","OK",5,15,2001,-97.386763,35.13204
"CLEVELAND ","  906 QUANNAH PARKER TRAIL, NORMAN , OK","OK",2,3,2000,-97.4288459,35.250301
"CLEVELAND ","  112 HAYES W, NORMAN , OK","OK",3,1,2000,-97.4469359,35.232128
"CLEVELAND ","  313 INDIAN HILLS W RD, NORMAN , OK","OK",8,7,2000,-97.4455519,35.2908423
"CLEVELAND ","  213 MERCEDES S, NORMAN , OK","OK",7,27,2001,-97.468069,35.216788
"CLEVELAND ","  9351 142ND NE AVE, NORMAN , OK","OK",8,2,2001,-97.231781,35.33101
"CLEVELAND ","  101 MONTICELLO  RD, NORMAN , OK","OK",10,25,2001,-97.503581,35.218738
"CLEVELAND ","  1325 CROWN POINT  ST 6, NORMAN , OK","OK",4,21,2003,-97.4705409,35.2022975
"CLEVELAND ","1406  DORCHESTER DRIVE  , NORMAN , OK","OK",8,26,2009,-97.4577779,35.231987
"CLEVELAND ","3490 SOUTH CLASSEN BOULEVARD  , NORMAN , OK","OK",12,4,2009,-97.413981,35.175384
"CLEVELAND ","  10300 KEAR  DR, OKLAHOMA CITY , OK","OK",4,1,2002,-97.3233926,35.3638559
"CLEVELAND ","  15500 HARRAH S, OKLAHOMA CITY , OK","OK",12,11,2002,-97.157343,35.314334
"CLEVELAND ","  12700 141 SE ST, OKLAHOMA CITY , OK","OK",2,15,2003,-97.30531,35.326294
"CLEVELAND ","  10305 CASA LINDA  DR, OKLAHOMA CITY , OK","OK",2,18,2003,-97.526811,35.3661511
"CLEVELAND ","  14900 147TH SE, OKLAHOMA CITY , OK","OK",6,24,2003,-97.266597,35.321401
"CLEVELAND ","1308 EAST HILLS DRIVE  , OKLAHOMA CITY , OK","OK",7,20,2006,-97.4695882,35.3532343
"COAL ","  205 ODEN, COALGATE , OK","OK",12,30,2003,-96.2237732,34.5414597
"COMANCHE ","4703 NORTHEAST KING ROAD  , APACHE , OK","OK",2,17,2010,-98.3136588,34.8404736
"COMANCHE ","207 NORTHEAST LITTLE BEAR LOOP  , ELGIN , OK","OK",5,18,2009,-98.3873808,34.7488725
"COMANCHE ","  1419 BISHOP SW ST, LAWTON , OK","OK",1,23,2000,-98.410622,34.580153
"COMANCHE ","  911 11TH SW, LAWTON , OK","OK",9,9,2000,-98.405091,34.597685
"COMANCHE ","  2402 CORNELL S, LAWTON , OK","OK",11,2,2000,-98.425552,34.607679
"COMANCHE ","  613 EUCLID  ST, LAWTON , OK","OK",1,11,2001,-98.39802,34.615253
"COMANCHE ","  2406 12TH NW ST, LAWTON , OK","OK",4,25,2001,-98.406705,34.632969
"COMANCHE ","  1602 COLUMBIA NW ST 1, LAWTON , OK","OK",5,6,2001,-98.412728,34.612641
"COMANCHE ","  509 WASHINGTON SW AVE, LAWTON , OK","OK",5,7,2002,-98.396058,34.59354
"COMANCHE ","  4208 BEDFORD SE DR, LAWTON , OK","OK",3,24,2003,-98.337506,34.597018
"COMANCHE ","  2422 D SW AVE, LAWTON , OK","OK",9,25,2003,-98.426696,34.604107
"COMANCHE ","  1210 G SW AVE, LAWTON , OK","OK",1,23,2004,-98.407012,34.60035
"COMANCHE ","  4823 WINFIELD NE CIR, LAWTON , OK","OK",7,12,2004,-98.329219,34.613335
"COMANCHE ","824 NORTHWEST 20TH STREET  , LAWTON , OK","OK",8,12,2010,-98.419875,34.618734
"COMANCHE ","1525 NORTHWEST 43RD STREET  , LAWTON , OK","OK",3,18,2011,-98.446373,34.626589
"COMANCHE ","804 NORTHWEST ARLINGTON AVE, LAWTON , OK","OK",3,15,2013,-98.400385,34.609918
"CRAIG ","134  SAINTS CIRCLE  , VINITA , OK","OK",7,13,2006,-95.1541339,36.6386937
"CRAIG ","646 NORTH THOMPSON STREET  , VINITA , OK","OK",5,21,2009,-95.1511452,36.6496577
"CRAIG ","443454 EAST 320 ROAD  , VINITA , OK","OK",7,22,2010,-95.1048513,36.5539209
"CRAIG ","401 EAST ATTUCKS, VINITA , OK","OK",10,4,2011,-95.1516904,36.6307814
"CRAIG ","311 SOUTH BROWN STREET , VINITA , OK","OK",2,25,2012,-95.1677745,36.6387532
"CRAIG ","  156 FIRST W AVE, WELCH , OK","OK",8,18,2003,-95.0947189,36.8778566
"CRAIG ","  440 WASHINGTON S ST, WELCH , OK","OK",5,10,2004,-95.098833,36.8732756
"CREEK ","  33684 193 WEST S AVE, BRISTOW , OK","OK",12,5,2000,-96.210365,35.6742996
"CREEK ","  45470 151ST SOUTH W, BRISTOW , OK","OK",6,28,2001,-96.5013297,35.944815
"CREEK ","  402 3RD W, BRISTOW , OK","OK",5,31,2002,-96.3970159,35.829546
"CREEK ","  45470 151ST W ST, BRISTOW , OK","OK",8,29,2002,-96.5013297,35.944815
"CREEK ","  207 WASHINGTON E, BRISTOW , OK","OK",9,3,2002,-96.388087,35.827711
"CREEK ","6TH  ST 519, BRISTOW , OK","OK",7,28,2003,-96.383798,35.833131
"CREEK ","  20456 401 W S AVE, BRISTOW , OK","OK",8,15,2003,-96.4488928,35.8670844
"CREEK ","  20601 401 W S ST, BRISTOW , OK","OK",8,20,2003,-96.4407638,35.9011585
"CREEK ","351 SOUTH W, BRISTOW , OK","OK",8,28,2003,-96.254699,35.653454
"CREEK ","49189 WEST 142ND STREET  , BRISTOW , OK","OK",3,15,2006,-96.538931,35.935791
"CREEK ","9021/2 WEST 9TH STREET  , BRISTOW , OK","OK",9,20,2010,-96.3910541,35.8358075
"CREEK ","20270 SOUTH 401ST WEST AVENUE  , BRISTOW , OK","OK",11,6,2010,-96.4490299,35.868027
"CREEK ","  28587 465 WEST S AVE, DEPEW , OK","OK",8,15,2002,-96.505419,35.747998
"CREEK ","  949 SPRUDY S, DEPEW , OK","OK",4,27,2004,-96.5061215,35.8028493
"CREEK ","  205 BRISTOWN  ST, DRUMRIGHT , OK","OK",5,9,2001,-96.6073366,35.9897929
"CREEK ","  400 VIRGINIA S AVE, DRUMRIGHT , OK","OK",8,29,2002,-96.596294,35.985875
"CREEK ","  316 OHIO N ST, DRUMRIGHT , OK","OK",8,15,2003,-96.599142,35.991098
"CREEK ","  112 WOOD E, DRUMRIGHT , OK","OK",8,26,2003,-96.601107,35.985875
"CREEK ","118 EAST 4TH STREET  , DRUMRIGHT , OK","OK",2,6,2009,-96.601116,35.98128
"CREEK ","105 EAST 3RD STREET  , DRUMRIGHT , OK","OK",3,13,2010,-96.6018357,35.9824167
"CREEK ","47519 WEST 51ST STREET  , JENNINGS , OK","OK",2,24,2010,-96.5242267,36.0901202
"CREEK ","  17 1/2 BUFFALO W ST, KELLYVILLE , OK","OK",10,6,2000,-96.2168913,35.9435103
"CREEK ","  8235 127TH WEST S AVE, KELLYVILLE , OK","OK",9,19,2001,-96.2136136,35.9436968
"CREEK ","  16118 MAPLE  DR B, KELLYVILLE , OK","OK",10,13,2003,-96.1933774,35.9298983
"CREEK ","  18318 167TH W ST, KELLYVILLE , OK","OK",3,30,2004,-96.1972,35.921454
"CREEK ","26275 WEST 171ST STREET  , KELLYVILLE , OK","OK",8,2,2009,-96.2618907,35.9122442
"CREEK ","441 EAST ALLEN STREET  , KELLYVILLE , OK","OK",8,9,2010,-96.210969,35.945087
"CREEK ","20843  INDIAN ROAD  , KELLYVILLE , OK","OK",9,10,2010,-96.225671,35.902055
"CREEK ","14756 SOUTH 246TH WEST AVENUE  , KELLYVILLE , OK","OK",10,28,2010,-96.2136136,35.9436968
"CREEK ","18425 SOUTH 177TH W AVENUE  , KELLYVILLE , OK","OK",11,17,2010,-96.190344,35.8967389
"CREEK ","  207 BROADWAY W ST, KIEFER , OK","OK",7,26,2001,-96.0670672,35.943254
"CREEK ","112  STARK STREET  , KIEFER , OK","OK",3,27,2006,-96.0570348,35.9423039
"CREEK ","  125 GARDENIA  CIR  1040, MANNFORD , OK","OK",1,28,2001,-96.356256,36.122247
"CREEK ","369TH W AVE, MANNFORD , OK","OK",2,8,2001,-96.4050284,36.0666862
"CREEK ","  132 LAKE COUNTY, MANNFORD , OK","OK",3,15,2002,-96.340581,36.118544
"CREEK ","  39484 HIGHWAY 33 W, MANNFORD , OK","OK",8,7,2002,-96.4337189,36.0030304
"CREEK ","  36927 53 W, MANNFORD , OK","OK",1,2,2003,-96.2744342,36.0866745
"CREEK ","5822 SOUTH US HIGHWAY 48, MANNFORD , OK","OK",4,22,2009,-96.388289,36.080073
"CREEK ","8226 SOUTH HWY 48, MANNFORD , OK","OK",8,11,2010,-96.392213,36.044655
"CREEK ","3547 SOUTH 369TH W AVENUE  , MANNFORD , OK","OK",2,8,2012,-96.402269,36.112811
"CREEK ","  13145 EDWARDS  RD, MOUNDS , OK","OK",2,18,2000,-96.0606892,35.8715222
"CREEK ","  8430 183RD  ST, MOUNDS , OK","OK",2,1,2001,-96.0909485,35.8981336
"CREEK ","  358 220 N RD, MOUNDS , OK","OK",3,26,2003,-95.9797344,35.8510504
"CREEK ","18391 SOUTH 89TH WEST AVENUE  , MOUNDS , OK","OK",7,15,2010,-96.088211,35.896768
"CREEK ","117 EAST 5TH STREET  , MOUNDS , OK","OK",8,24,2010,-96.0583312,35.868348
"CREEK ","17639 SOUTH 49TH WEST AVENUE  , MOUNDS , OK","OK",11,3,2010,-96.0474388,35.9067718
"CREEK ","6300  W 61 STREET  , OAKHURST , OK","OK",3,28,2010,-96.0635771,36.075484
"CREEK ","  190 WEKIWA W RD, SAND SPRINGS , OK","OK",1,9,2000,-96.1908325,36.149858
"CREEK ","  11506 56 W ST, SAND SPRINGS , OK","OK",1,17,2000,-96.1233868,36.0829198
"CREEK ","  1004 FORREST E DR, SAND SPRINGS , OK","OK",1,19,2000,-96.0970967,36.1452566
"CREEK ","6408  MERRIMACK DRIVE  , SAND SPRINGS , OK","OK",10,12,2006,-96.296806,36.071577
"CREEK ","27625  ROUND MOUNTAIN DRIVE  , SAND SPRINGS , OK","OK",8,31,2009,-96.295399,36.0848806
"CREEK ","  1015  JACKSON N E, SAPULPA , OK","OK",2,28,2000,-96.100014,36.002561
"CREEK ","  510 1ST N ST, SAPULPA , OK","OK",6,30,2000,-96.101819,36.004676
"CREEK ","  111 POPLAR N  D, SAPULPA , OK","OK",10,4,2000,-96.11524,36.0002769
"CREEK ","  225 LINDEN N ST, SAPULPA , OK","OK",11,3,2000,-96.101863,36.00237
"CREEK ","  122 MILL E, SAPULPA , OK","OK",11,17,2000,-96.1104522,35.9847769
"CREEK ","  113 1/2 BIRCH N, SAPULPA , OK","OK",1,21,2001,-96.1034545,35.9989649
"CREEK ","  4511 RAY W LN, SAPULPA , OK","OK",3,20,2001,-96.198559,36.023477
"CREEK ","  11379 153RD W S AVE, SAPULPA , OK","OK",5,27,2001,-96.162947,35.999487
"CREEK ","  7836 65TH WEST S AVE, SAPULPA , OK","OK",6,11,2001,-96.066459,36.0488209
"CREEK ","  7379 58TH W S AVE, SAPULPA , OK","OK",7,16,2001,-96.058644,36.057023
"CREEK ","  713 12TH N ST, SAPULPA , OK","OK",7,24,2001,-96.115971,36.007117
"CREEK ","  2611 HICKORY BLUFF  RD, SAPULPA , OK","OK",9,17,2001,-96.165389,35.999441
"CREEK ","  3120 HICKORY BLUFF  RD, SAPULPA , OK","OK",9,17,2001,-96.1748503,35.9978533
"CREEK ","  5411 RAY W LN, SAPULPA , OK","OK",9,21,2001,-96.1995715,36.0230486
"CREEK ","  2207 CEDAR S ST, SAPULPA , OK","OK",1,22,2002,-96.117333,35.972709
"CREEK ","  1501 9TH N ST 41, SAPULPA , OK","OK",2,9,2002,-96.110825,36.0182659
"CREEK ","  8718 SUNSET  DR, SAPULPA , OK","OK",2,21,2002,-96.08986,35.947459
"CREEK ","  2203 MAIN S ST, SAPULPA , OK","OK",5,25,2002,-96.112508,35.972513
"CREEK ","  12033 250TH WEST S AVE, SAPULPA , OK","OK",12,13,2002,-96.271547,35.989246
"CREEK ","  1301 PARK S ST C24, SAPULPA , OK","OK",12,12,2003,-96.1070718,35.9821508
"CREEK ","  9608 71ST SOUTH W ST  9608, SAPULPA , OK","OK",1,26,2004,-96.1000464,36.062992
"CREEK ","  1003 PFENDLER E ST, SAPULPA , OK","OK",2,19,2004,-96.1006648,36.0038345
"CREEK ","  222 DEWEY W AVE, SAPULPA , OK","OK",10,4,2005,-96.118225,35.998241
"CREEK ","505 NORTH 2ND STREET  , SAPULPA , OK","OK",8,29,2006,-96.102393,36.004607
"CREEK ","7925  NEW SAPULPA ROAD  , SAPULPA , OK","OK",10,16,2008,-96.0937305,36.0221711
"CREEK ","1138 EAST JONES AVENUE  , SAPULPA , OK","OK",1,8,2009,-96.096962,36.005439
"CREEK ","16136 SOUTH HICKORY  67 , SAPULPA , OK","OK",1,10,2009,-96.1205014,35.9294086
"CREEK ","12224  SHAW DRIVE  , SAPULPA , OK","OK",2,2,2009,-96.140454,35.9862113
"CREEK ","17365 SOUTH 97TH WEST AVENUE  , SAPULPA , OK","OK",4,1,2009,-96.1010041,35.913165
"CREEK ","811 NORTH 10TH, SAPULPA , OK","OK",4,14,2009,-96.1127429,36.0085551
"CREEK ","420 WEST BRYAN AVENUE  , SAPULPA , OK","OK",4,24,2009,-96.1196978,35.9927282
"CREEK ","8333 SOUTH 127TH WEST AVENUE  , SAPULPA , OK","OK",6,15,2009,-96.1347244,36.0403265
"CREEK ","11578  W 86TH ST S, SAPULPA , OK","OK",7,2,2009,-96.122073,36.038728
"CREEK ","9203  GRANT STREET  , SAPULPA , OK","OK",7,31,2009,-96.1311209,36.029925
"CREEK ","12117 SOUTH SHAW DRIVE  , SAPULPA , OK","OK",8,4,2009,-96.1412006,35.9870339
"CREEK ","14839 SOUTH 106TH WEST PLACE 25 , SAPULPA , OK","OK",8,25,2009,-96.1111642,35.9173889
"CREEK ","720 SOUTH INDEPENDENCE STREET  , SAPULPA , OK","OK",9,22,2009,-96.12054,35.989911
"CREEK ","418 NORTH 3RD STREET  , SAPULPA , OK","OK",10,19,2009,-96.1043971,36.003688
"CREEK ","317 SOUTH HAWTHORN STREET  , SAPULPA , OK","OK",11,13,2009,-96.1277537,35.9945276
"CREEK ","540  QUAIL RUN LANE  , SAPULPA , OK","OK",1,27,2010,-96.084108,36.006285
"CREEK ","11322 SOUTH 193RD WEST AVENUE  , SAPULPA , OK","OK",2,2,2010,-96.20874,36.000023
"CREEK ","9701  NEW SAPULPA ROAD 29A , SAPULPA , OK","OK",3,15,2010,-96.092722,36.022473
"CREEK ","1469 EAST JONES, SAPULPA , OK","OK",7,10,2010,-96.089022,36.006188
"CREEK ","12418 SOUTH 241 WEST AVENUE  , SAPULPA , OK","OK",7,16,2010,-96.268737,35.983638
"CREEK ","15248  GREENHILL DRIVE  , SAPULPA , OK","OK",7,28,2010,-96.0887865,35.9427571
"CREEK ","11379 SOUTH 153RD  W. AVENUE  , SAPULPA , OK","OK",7,29,2010,-96.162947,35.999487
"CREEK ","623 SOUTH ELM, SAPULPA , OK","OK",8,20,2010,-96.1092587,35.9912258
"CREEK ","212  DIVISION, SAPULPA , OK","OK",9,7,2010,-96.101257,35.996379
"CREEK ","10380 SOUTH 235TH W AVENUE  , SAPULPA , OK","OK",9,15,2010,-96.255854,36.013526
"CREEK ","111 EAST BURNHAM, SAPULPA , OK","OK",9,16,2010,-96.111502,35.980633
"CREEK ","1140 EAST MCKINLEY AVENUE  , SAPULPA , OK","OK",11,2,2010,-96.09687,35.994239
"CREEK ","9410 WEST SOUTHFORK ROAD  , SAPULPA , OK","OK",4,7,2011,-96.0994755,35.9327462
"CREEK ","32 EAST 2ND, SHAMROCK , OK","OK",8,9,2006,-96.585599,35.909334
"CREEK ","989  TRAIL END ROAD  , TERLTON , OK","OK",2,7,2012,-96.419881,36.150182
"CREEK ","6121 SOUTH 45TH W AVENUE  , TULSA , OK","OK",5,7,2009,-96.043244,36.074646
"CREEK ","8418 SOUTH 36TH WEST AVENUE  , TULSA , OK","OK",11,12,2009,-96.0335829,36.042056
"CREEK ","7522 SOUTH 63RD WEST AVENUE  , TULSA , OK","OK",4,27,2010,-96.062504,36.053259
"CREEK ","6715 WEST SOUTH 64TH STREET B , TULSA , OK","OK",3,28,2011,-96.0519451,36.0715022
"CUSTER ","  320 AMES N, BUTLER , OK","OK",3,29,2002,-99.1849359,35.639413
"CUSTER ","  PANTHER CREEK ROAD RT2 3A , CANUTE , OK","OK",7,26,2007,-99.2795337,35.4219943
"CUSTER ","  1006 ORIENT, CLINTON , OK","OK",4,5,2002,-98.972553,35.516134
"CUSTER ","  2401 28TH S, CLINTON , OK","OK",4,30,2004,-98.9935652,35.4670402
"DELAWARE ","206  SKYLINE, BERNICE , OK","OK",9,29,2011,-94.9155822,36.6269102
"DELAWARE ","362  SERENITY DRIVE  , COLCORD , OK","OK",3,19,2011,-94.6930014,36.264249
"DELAWARE ","181  MOBILE VISTA DRIVE  , EUCHA , OK","OK",2,5,2011,-94.9177009,36.474143
"DELAWARE ","  1531 80TH  ST, GROVE , OK","OK",2,13,2001,-94.8099412,36.61829
"DELAWARE ","  60950 360 E RD, GROVE , OK","OK",6,12,2001,-94.8054522,36.5030607
"DELAWARE ","1011 SOUTH MILL STREET  , GROVE , OK","OK",7,1,2008,-94.7666321,36.586044
"ELLIS ","  316 WALNUT S, FARGO , OK","OK",6,21,2001,-99.6247768,36.373346
"GARFIELD ","  575 DAVIS N, ENID , OK","OK",9,1,2001,-97.861174,36.402442
"GARFIELD ","  601 OKLAHOMA W, ENID , OK","OK",4,5,2002,-97.885506,36.393108
"GARFIELD ","  605 6 N ST, ENID , OK","OK",8,22,2002,-97.86903,36.402844
"GARFIELD ","  1210 CYPRESS E, ENID , OK","OK",10,6,2003,-97.859917,36.400958
"GRADY ","  2476 COUNTY ROAD 1339, BLANCHARD , OK","OK",3,25,2004,-97.674994,35.074978
"GRADY ","2236  COUNTY ROAD 1236, CHICKASHA , OK","OK",10,28,2004,-97.9364326,35.052565
"GRADY ","  1616 EIGHT  ST, MINCO , OK","OK",6,11,2001,-97.9527842,35.3098143
"GRADY ","  1013 WASHINGTON W, MINCO , OK","OK",4,30,2002,-97.9444913,35.3128371
"GRADY ","  615 9TH N ST, NINNEKAH , OK","OK",7,12,2000,-97.9441132,35.0430088
"GRADY ","  1014 19TH S ST, RUSH SPRINGS , OK","OK",4,17,2003,-97.9569845,34.7825721
"GRADY ","  525 WASHINGTON W, RUSH SPRINGS , OK","OK",10,10,2003,-97.9569845,34.7825721
"GRADY ","  902 DELAWARE  AVE, RUSH SPRINGS , OK","OK",1,23,2005,-97.9569845,34.7825721
"GRADY ","  1210 IDAHO W AVE, TUTTLE , OK","OK",1,15,2000,-97.8122658,35.2908947
"GRADY ","  1103 2ND NW, TUTTLE , OK","OK",1,13,2003,-97.8146921,35.2839025
"GRADY ","  1103 SECOND NW ST, TUTTLE , OK","OK",8,3,2003,-97.8146921,35.2839025
"GRADY ","  209 1/2 CEMETERY N RD, TUTTLE , OK","OK",9,3,2003,-97.7604946,35.291614
"GRANT ","  708 KIOWA W, NASH , OK","OK",11,17,2000,-98.050341,36.6661413
"HARMON ","GIBSON  RD  793, GOULD , OK","OK",7,21,2003,-99.772422,34.6677619
"HARMON ","  4208 VERNON  DR, HOLLIS , OK","OK",8,22,2002,-99.9120456,34.6883948
"HARMON ","  310 COTTONWOOD  DR, VINSON , OK","OK",11,9,2004,-99.8598231,34.900612
"HASKELL ","  310 COTTONWOOD  DR, KEOTA , OK","OK",10,24,2002,-94.9216195,35.2556524
"HASKELL ","  603 MAIN S, MCCURTAIN , OK","OK",11,15,2000,-94.9643329,35.1506304
"HASKELL ","512 WEST BROADWAY STREET  , STIGLER , OK","OK",5,4,2001,-95.1244518,35.257863
"HASKELL ","  314 COLLEGE  ST, STIGLER , OK","OK",5,20,2010,-95.1230169,35.253708
"HASKELL ","  320 VERSA E, STIGLER , OK","OK",11,1,2010,-95.1230169,35.253708
"HUGHES ","206  BURTON STREET  , CALVIN , OK","OK",5,9,2004,-96.2486171,34.9678671
"HUGHES ","30878 SOUTH SHW 82, CALVIN , OK","OK",9,26,2009,-96.2486171,34.9678671
"HUGHES ","  9th 207 SE ST 5A, HOLDENVILLE , OK","OK",8,11,2004,-96.3991765,35.0803617
"HUGHES ","8117 EAST E/W 130 ROAD  , WETUMKA , OK","OK",1,5,2014,-96.242665,35.130328
"JACKSON ","118 SOUTHWEST C STREET  , ALTUS , OK","OK",4,23,2002,-99.3341527,34.6474494
"JACKSON ","306 NORTHEAST 3RD, ALTUS , OK","OK",5,29,2003,-99.3007938,34.6514758
"JACKSON ","502 NORTHWEST 3RD, ALTUS , OK","OK",9,12,2003,-99.3007938,34.6514758
"JACKSON ","705 NORTHWEST 2ND, ALTUS , OK","OK",10,5,2003,-99.3021306,34.6518107
"JACKSON ","931  KATY  , ALTUS , OK","OK",12,15,2014,-99.321235,34.6298456
"JACKSON ","4302 NORTH 381 ROAD  , BLAIR , OK","OK",2,11,2003,-95.3149047,34.9209728
"JACKSON ","  413 VORHEES N ST, BLAIR , OK","OK",5,9,2008,-99.3353635,34.7795085
"JACKSON ","  201 BURNS N ST, ELDORADO , OK","OK",3,18,2008,-99.6481484,34.4720173
"JACKSON ","  8218 COUNTY RD 121 E RD, OLUSTEE , OK","OK",11,23,2002,-99.4223109,34.548684
"JEFFERSON ","  427 EVERETT, ADDINGTON , OK","OK",4,19,2002,-97.9669797,34.2445351
"JEFFERSON ","  415 1/2 NONA E, WAURIKA , OK","OK",4,6,2001,-97.997536,34.1670371
"JEFFERSON ","  401 1/2 MORGAN  ST, WAURIKA , OK","OK",11,7,2004,-97.997536,34.1670371
"JEFFERSON ","  20447 E COUNTY ROAD 159, WAURIKA , OK","OK",10,23,2006,-97.997536,34.1670371
"JOHNSTON ","  815 ZINN S, MILL CREEK , OK","OK",10,24,2000,-96.8263981,34.4042586
"JOHNSTON ","21124  STATE HIGHWAY 19, MILL CREEK , OK","OK",3,1,2002,-96.8263981,34.4042586
"JOHNSTON ","224 EAST 1ST STREET  , TISHOMINGO , OK","OK",9,15,2000,-96.665969,34.2405039
"JOHNSTON ","904 WEST C STREET  , TISHOMINGO , OK","OK",11,15,2000,-96.655067,34.1938339
"JOHNSTON ","  602 7TH E ST, TISHOMINGO , OK","OK",10,2,2004,-96.6793869,34.2400496
"JOHNSTON ","  702 A E ST, TISHOMINGO , OK","OK",9,17,2011,-96.7787568,34.0895379
"JOHNSTON ","  407 8TH N ST, WAPANUCKA , OK","OK",10,14,2003,-96.429845,34.371164
"KAY ","  406 MOORE E ST, BLACKWELL , OK","OK",2,13,2008,-97.2828207,36.8044767
"KAY ","  109 1/2 KIMP S, BLACKWELL , OK","OK",1,18,2011,-97.2828207,36.8044767
"KAY ","  208 BROADWAY S, KAW CITY , OK","OK",1,13,2005,-96.8672668,36.7668466
"KAY ","  112 LAFEVERS, NEWKIRK , OK","OK",7,9,2003,-97.0533717,36.8822549
"KAY ","  901 MAYTUBBY N, PONCA CITY , OK","OK",7,30,2002,-97.0855948,36.706981
"KAY ","1100 SOUTH BYRD STREET 37 , PONCA CITY , OK","OK",9,25,2002,-97.0471839,36.728361
"KAY ","  1223 LINCOLN W, PONCA CITY , OK","OK",4,3,2003,-97.1010335,36.6952693
"KAY ","  611 4TH N ST, PONCA CITY , OK","OK",8,11,2003,-97.0796689,36.7093885
"KAY ","1301 WEST COOLIDGE AVENUE  , PONCA CITY , OK","OK",8,20,2003,-97.299082,36.789173
"KAY ","277  ENLOW AVENUE  , PONCA CITY , OK","OK",2,24,2004,-97.289391,36.788156
"KAY ","509 NORTH 1ST STREET  , PONCA CITY , OK","OK",2,25,2004,-97.083239,36.708378
"KAY ","  5 TIMBERVIEW  PL, PONCA CITY , OK","OK",5,26,2004,-96.896641,36.764187
"KAY ","  2901 RIVERVIEW W RD, PONCA CITY , OK","OK",6,30,2004,-97.1192079,36.6375289
"KAY ","  332 OSAGE S ST 1, PONCA CITY , OK","OK",11,3,2007,-97.090937,36.7001909
"KAY ","  812 GRAND W, PONCA CITY , OK","OK",9,23,2008,-97.093825,36.703603
"KAY ","  410 8TH N, PONCA CITY , OK","OK",9,25,2008,-97.074924,36.707114
"KAY ","  408 PALM N ST, PONCA CITY , OK","OK",2,16,2009,-97.092055,36.707558
"KAY ","  213 GARY W, PONCA CITY , OK","OK",2,20,2009,-97.085936,36.723627
"KAY ","  2100 UNION N ST 1201, PONCA CITY , OK","OK",4,3,2009,-97.0857904,36.7268842
"KAY ","  5984 LAKE ROAD, PONCA CITY , OK","OK",8,3,2009,-96.9979736,36.7095293
"KAY ","1000 SOUTH 5TH STREET , PONCA CITY , OK","OK",2,21,2012,-97.079323,36.693966
"KAY ","  1314 6TH S ST, TONKAWA , OK","OK",3,12,2000,-97.3073217,36.6914142
"KAY ","  312 PERRY S, TONKAWA , OK","OK",8,10,2003,-97.3100441,36.6783679
"KAY ","1006 SOUTH WAVERLY STREET  , TONKAWA , OK","OK",6,27,2006,-97.3100441,36.6783679
"KINGFISHER ","  FT OAKLAND ROAD  , DOVER , OK","OK",11,20,2003,-97.9111664,35.9814291
"KINGFISHER ","209 EAST LIBERTY AVENUE  , DOVER , OK","OK",11,20,2003,-97.9111664,35.9814291
"KINGFISHER ","218 SOUTH PALM STREET  , HENNESSEY , OK","OK",11,8,2002,-97.8986675,36.1092046
"KIOWA ","120 NORTH OSAGE STREET  , HOBART , OK","OK",1,5,2003,-88.1248399,44.5561608
"KIOWA ","  300 FRANTZ S, HOBART , OK","OK",12,13,2003,-99.0931317,35.0295009
"KIOWA ","  9600 MAIN S, MOUNTAIN PARK , OK","OK",1,28,2003,-98.9513157,34.6970972
"KIOWA ","414 NORTH 7TH STREET  , MOUNTAIN PARK , OK","OK",6,8,2004,-110.570436,45.660867
"LATIMER ","COUNTY ROAD 290 N, WILBURTON , OK","OK",4,12,2002,-95.3091383,34.91871
"LATIMER ","  623 STEPHENS S, WILBURTON , OK","OK",4,24,2002,-95.3091383,34.91871
"LATIMER ","11TH W ST 113D, WILBURTON , OK","OK",5,1,2002,-95.32415,34.9129713
"LATIMER ","  1501 D  ST, WILBURTON , OK","OK",9,11,2003,-101.7497651,37.0399312
"LE FLORE ","  306 MAIN E, POTEAU , OK","OK",1,8,2004,-94.6702541,35.167203
"LE FLORE ","  1313 MAIN E, SPIRO , OK","OK",8,3,2011,-94.7913905,35.3073543
"LEFLORE ","  1209 ROCK ISLAND E, ARKOMA , OK","OK",3,10,2002,-94.4341043,35.3545364
"LEFLORE ","  402 1/2 MAIN E, ARKOMA , OK","OK",12,7,2002,-94.4346953,35.359478
"LEFLORE ","29031  CABIN LANE  , CAMERON , OK","OK",7,8,2003,-94.5346655,35.1339862
"LEFLORE ","20706  FIELDS LANE  , CAMERON , OK","OK",7,24,2003,-94.5346655,35.1339862
"LEFLORE ","1800 SOUTH GRAY STREET  , HEAVENER , OK","OK",5,13,2001,-94.6030084,34.8955218
"LEFLORE ","  2406 PRYOR E AVE, HEAVENER , OK","OK",10,20,2002,-94.6030084,34.8955218
"LEFLORE ","106  ROWE AVENUE  , HEAVENER , OK","OK",12,5,2002,-94.6030084,34.8955218
"LEFLORE ","  22756 CEDAR  RD, MUSE , OK","OK",12,16,2003,-94.7629103,34.671933
"LEFLORE ","17117  SHELLEY CARLILE DRIVE  , PANAMA , OK","OK",10,21,2000,-94.6724465,35.1673193
"LEFLORE ","  739 RIVERSIDE  DR, PANAMA , OK","OK",6,22,2002,-94.5958128,35.0696412
"LEFLORE ","  205 CHOCTAW  ST, PANAMA , OK","OK",9,7,2002,-94.6702313,35.1732666
"LEFLORE ","  203 BLACKWELL  ST, POCOLA , OK","OK",5,17,2002,-94.4779956,35.2312065
"LEFLORE ","  113 HICKMAN  ST, POTEAU , OK","OK",6,13,2002,-94.68211,35.1771174
"LEFLORE ","  601 INDIANA S ST, POTEAU , OK","OK",7,17,2002,-94.6665856,35.1722067
"LEFLORE ","  800 WASHINGTON, SHADY POINT , OK","OK",5,4,2001,-95.9437983,36.7145582
"LEFLORE ","  310 ILLINOIS N ST, SHADY POINT , OK","OK",5,4,2001,-94.67145,35.1642861
"LEFLORE ","  606 MISSOURI, SPIRO , OK","OK",1,31,2001,-94.619944,35.2412073
"LEFLORE ","  803 MCKENZIE W AVE, SPIRO , OK","OK",1,31,2001,-94.619944,35.2412073
"LEFLORE ","  1700 CENTRAL  ST, SPIRO , OK","OK",11,26,2002,-94.5755605,35.2810755
"LEFLORE ","  704 OKLAHOMA  ST, SPIRO , OK","OK",1,12,2004,-94.619944,35.2412073
"LINCOLN ","  312 MAIN N ST, CHANDLER , OK","OK",8,13,2010,-97.0072862,35.6871972
"LINCOLN ","  1 WAITS LANE  RT  2828, WELLSTON , OK","OK",5,23,2002,-97.063363,35.6942278
"LINCOLN ","1008  BIRCH AVE, WELLSTON , OK","OK",3,26,2014,-97.063432,35.686488
"LOGAN ","7706 SOUTH VASSPR ROAD  , COYLE , OK","OK",2,21,2012,-97.2344804,35.9567175
"LOGAN ","  2217 7 W ST, EDMOND , OK","OK",2,8,2001,-97.4870124,35.6487267
"LOGAN ","  707 ASH, GUTHRIE , OK","OK",7,19,2000,-97.4215345,35.8845698
"LOGAN ","  9520 116TH W ST, GUTHRIE , OK","OK",12,28,2000,-97.4253185,35.878937
"LOGAN ","  1011 JEFFERSON E, GUTHRIE , OK","OK",1,5,2001,-97.4215133,35.8863264
"LOGAN ","  404 MEADOW BACK, GUTHRIE , OK","OK",3,5,2001,-97.4253185,35.878937
"LOGAN ","  300 CHISOLM  TRL, GUTHRIE , OK","OK",4,4,2001,-97.4826719,35.756556
"LOGAN ","  1023 HARRISON E, GUTHRIE , OK","OK",7,27,2001,-97.412665,35.876778
"LOGAN ","  13200 ARMADILLO  DR, GUTHRIE , OK","OK",10,6,2001,-97.2623447,35.8788322
"LOGAN ","  3207 TWO CREEKS  RD, GUTHRIE , OK","OK",6,22,2002,-97.385581,35.857741
"LOGAN ","  10675 ARCADIA  LN, GUTHRIE , OK","OK",7,26,2002,-97.342389,35.768363
"LOGAN ","  817 CLEVELAND E, GUTHRIE , OK","OK",1,28,2003,-97.415615,35.87887
"LOGAN ","  3701 PRAIRIE GROVE, GUTHRIE , OK","OK",8,17,2004,-97.379834,35.837994
"LOGAN ","  810 PINE N ST 2, GUTHRIE , OK","OK",9,8,2006,-97.407165,35.885597
"LOGAN ","  1403 OKLAHOMA E, LUTHER , OK","OK",6,6,2001,-97.4767376,35.483592
"LOGAN ","  10124 RIDGECREST  RD, MERIDIAN , OK","OK",8,10,2002,-97.5811455,35.4951016
"LOGAN ","  5050 DAVID PAYNE  RD, STILLWATER , OK","OK",12,29,2000,-97.0583681,36.1156071
"LOGAN ","  3 OAK PARK, STILLWATER , OK","OK",5,14,2001,-97.0208633,36.1201041
"LOVE ","  2725 TRIPLETT E RD, MARIETTA , OK","OK",9,22,2000,-97.1166788,33.937045
"LOVE ","  13400 TUMBLEWEED  TRL, MARIETTA , OK","OK",12,9,2004,-84.5414252,34.4273428
"LOVE ","  2500 BLACKOAK, OVERBROOK , OK","OK",8,23,2001,-97.1415529,34.06748
"LOVE ","  2087 ALLEN  RD, OVERBROOK , OK","OK",8,10,2010,-96.5987476,33.050338
"MAJOR ","821 NORTH WENTZ STREET  , CLEO SPRINGS , OK","OK",10,23,2003,-98.4406325,36.405312
"MARSHALL ","  21500 A CHARTER OAK E RD, ENOS , OK","OK",1,21,2005,-95.9098348,36.0553194
"MARSHALL ","  21500 B CHARTER OAK E RD, KINGSTON , OK","OK",5,31,2001,-95.9098348,36.0553194
"MARSHALL ","  1718 YOST E RD, KINGSTON , OK","OK",5,16,2003,-96.7197216,33.99871
"MARSHALL ","  1202 DUNCAN S, KINGSTON , OK","OK",12,17,2004,-96.7197216,33.99871
"MARSHALL ","  408 2ND E ST, KINGSTON , OK","OK",8,19,2005,-96.7241629,34.0014578
"MARSHALL ","  403 CREEK W, KINGSTON , OK","OK",3,24,2006,-96.7143199,33.8870074
"MAYES ","  205 MAYTUBBY N, ADAIR , OK","OK",5,14,2003,-95.2713584,36.4367575
"MAYES ","  206 MAYTUBBY S, ADAIR , OK","OK",9,3,2003,-95.2713584,36.4367575
"MAYES ","  1106 GAYE  ST, ADAIR , OK","OK",3,3,2004,-95.2713584,36.4367575
"MAYES ","  1864 TWIN OAK  ST, ADAIR , OK","OK",4,14,2004,-95.2713584,36.4367575
"MAYES ","  103 GUNTER E, CHOUTEAU , OK","OK",7,11,2003,-95.3430239,36.1859301
"MAYES ","4005 WEST 380 ROAD  , LANGLEY , OK","OK",8,30,2002,-95.0293352,36.5246056
"MAYES ","109 NORTH HOWEY STREET  , LOCUST GROVE , OK","OK",8,25,2003,-95.1677401,36.2000936
"MAYES ","603 EAST 8TH STREET  , LOCUST GROVE , OK","OK",3,15,2006,-78.4892773,38.0352663
"MAYES ","34203 SOUTH 4505 ROAD  , PRYOR , OK","OK",12,26,2001,-96.0713735,34.883994
"MAYES ","  318 MAGNOLIA, PRYOR , OK","OK",1,19,2002,-95.3188184,36.2897939
"MAYES ","638 EAST PAWNEE AVENUE  , PRYOR , OK","OK",7,26,2002,-95.3169136,36.3084275
"MAYES ","  407 MAYS  ST, PRYOR , OK","OK",5,21,2003,-95.3169136,36.3084275
"MAYES ","  405 RADCLIFF E, PRYOR , OK","OK",3,5,2011,-95.3169136,36.3084275
"MAYES ","  305 DELAWARE S ST, SALINA , OK","OK",1,24,2003,-95.1532966,36.2928692
"MAYES ","  28 COTTON WOOD  ST, VINITA , OK","OK",1,21,2002,-95.1541339,36.6386937
"MCCLAIN ","  210 WHITAKER N ST, BLANCHARD , OK","OK",7,22,2000,-97.6580935,35.1378441
"MCCLAIN ","245 NORTH 438 ROAD  , BLANCHARD , OK","OK",1,15,2001,-96.3853426,33.9808514
"MCCLAIN ","5525 SOUTH 427, BLANCHARD , OK","OK",3,7,2001,-96.4401087,34.5634578
"MCCLAIN ","  710 SALTWELL N ST, COLE , OK","OK",3,11,2001,-97.5728127,35.1022899
"MCCLAIN ","  207 COLVARD W ST, MAYSVILLE , OK","OK",12,1,2003,-97.4058604,34.8172987
"MCCLAIN ","  444414 CENTERLANE  DR, NEWCASTLE , OK","OK",5,7,2002,-97.59976,35.2472869
"MCCLAIN ","  1045 HAMOND HEIGHTS, PURCELL , OK","OK",2,22,2004,-97.3611394,35.0136831
"MCCURTAIN ","  223 MAIN N ST 3, BROKEN ARROW , OK","OK",11,13,2001,-95.7866051,36.0536512
"MCCURTAIN ","  519 BRULE W ST, BROKEN BOW , OK","OK",11,13,2001,-94.7391045,34.0292764
"MCCURTAIN ","  110 BLANCHARD, BROKEN BOW , OK","OK",7,19,2002,-94.7391045,34.0292764
"MCCURTAIN ","  401 HUFFMAN  RD, BROKEN BOW , OK","OK",6,17,2003,-94.7323246,34.0241617
"MCCURTAIN ","  109 MINOR CIRCLE, BROKEN BOW , OK","OK",9,22,2004,-94.730107,34.0329361
"MCCURTAIN ","  704 DIERKS, BROKEN BOW , OK","OK",3,17,2005,-94.7346601,34.0333886
"MCCURTAIN ","  901 DIERKS N, BROKEN BOW , OK","OK",10,12,2005,-94.7346927,34.0353091
"MCCURTAIN ","  409 1/2 PARK N DR, BROKEN BOW , OK","OK",4,23,2008,-94.7395982,34.0309489
"MCCURTAIN ","GIBSON  RD 107, BROKEN BOW , OK","OK",9,22,2011,-94.7309801,34.011456
"MCCURTAIN ","  702 CHOCTAW W, EAGLETOWN , OK","OK",10,7,2003,-94.572408,34.033964
"MCCURTAIN ","11  VAUGHN DRIVE  , EAGLETOWN , OK","OK",8,9,2004,-94.7443824,34.0271249
"MCCURTAIN ","  299 CAMP  ST, HAWORTH , OK","OK",10,7,2002,-94.6527114,33.8465003
"MCCURTAIN ","403  OAK STREET  , IDABEL , OK","OK",7,13,2004,-94.8004429,33.8974141
"MCCURTAIN ","  5 PARK SE DR, IDABEL , OK","OK",3,30,2011,-94.8254397,33.8827677
"MCCURTAIN ","  5 PARLE SE DR, MILLERTON , OK","OK",3,6,2002,-95.0135582,33.9859409
"MCCURTAIN ","  14 CENTRAL N, RINGOLD , OK","OK",10,17,2004,-95.090474,34.1768819
"MCCURTAIN ","  1604 HERRON  ST, RINGOLD , OK","OK",6,1,2006,-95.125119,34.174946
"MCINTOSH ","121027 S 4156 ROAD , EUFAULA , OK","OK",3,9,2015,-95.611133,35.1799339
"MUSKOGEE ","102  2ND STREET  , FORT GIBSON , OK","OK",6,28,2009,-95.2161162,35.7844712
"MUSKOGEE ","405 WEST MAPLE STREET  , HASKELL , OK","OK",9,18,2002,-95.6749667,35.8270803
"MUSKOGEE ","  317 JACKSON N ST, HASKELL , OK","OK",9,29,2009,-95.674149,35.8203784
"MUSKOGEE ","  1527 10 E HWY, MUSKOGEE , OK","OK",1,9,2000,-95.1908248,35.6565821
"MUSKOGEE ","  494 2 MILE N RD, MUSKOGEE , OK","OK",2,2,2000,-95.3535163,35.7414449
"MUSKOGEE ","  1430 POPLAR E SR, MUSKOGEE , OK","OK",9,26,2000,-95.3696909,35.7478769
"MUSKOGEE ","  715 SHADY  ST, MUSKOGEE , OK","OK",11,7,2000,-95.2443715,35.8035124
"MUSKOGEE ","1454 EAST POPULAR, MUSKOGEE , OK","OK",11,30,2000,-95.3383197,35.7319662
"MUSKOGEE ","1107 EAST PIERCE STREET  , MUSKOGEE , OK","OK",5,7,2001,-95.2365837,35.7953798
"MUSKOGEE ","  304 SEMINOLE S ST, MUSKOGEE , OK","OK",2,20,2002,-95.3492101,35.7378028
"MUSKOGEE ","502 WEST SKELLY  708 , MUSKOGEE , OK","OK",5,14,2002,-95.6786096,35.8130188
"MUSKOGEE ","  603 DAYTON  ST, MUSKOGEE , OK","OK",6,22,2002,-95.3596023,35.7483152
"MUSKOGEE ","  2417 CHEROKEE S, MUSKOGEE , OK","OK",7,2,2002,-95.378287,35.721872
"MUSKOGEE ","  4421 DENISON  ST, MUSKOGEE , OK","OK",7,10,2002,-95.4164723,35.7576777
"MUSKOGEE ","  1630 CENTER  LN, MUSKOGEE , OK","OK",10,3,2002,-95.353152,35.7315468
"MUSKOGEE ","  709 K N ST, MUSKOGEE , OK","OK",10,3,2002,-95.3533854,35.7498484
"MUSKOGEE ","  714 21ST S ST, MUSKOGEE , OK","OK",10,28,2002,-95.3905113,35.747366
"MUSKOGEE ","  950 32ND S  205A, MUSKOGEE , OK","OK",12,20,2002,-95.4024045,35.7440746
"MUSKOGEE ","  1516 DENVER  ST, MUSKOGEE , OK","OK",2,28,2003,-95.388751,35.7513947
"MUSKOGEE ","  815 DENVER  ST, MUSKOGEE , OK","OK",4,3,2003,-95.3805808,35.7484371
"MUSKOGEE ","  2328 FREDONIA  ST, MUSKOGEE , OK","OK",4,11,2003,-95.3388227,35.7468106
"MUSKOGEE ","  2707 OKLAHOMA  ST, MUSKOGEE , OK","OK",4,11,2003,-95.3973293,35.7570917
"MUSKOGEE ","  1606 CHESTNUT  ST, MUSKOGEE , OK","OK",5,15,2003,-95.3470787,35.7624903
"MUSKOGEE ","  2000 BROCKWAY  ST, MUSKOGEE , OK","OK",6,26,2003,-95.3395273,35.7670367
"MUSKOGEE ","  1510 ASH  ST, MUSKOGEE , OK","OK",10,9,2003,-95.352087,35.76146
"MUSKOGEE ","  808 CROMWELL  ST, MUSKOGEE , OK","OK",11,3,2003,-95.3531081,35.760587
"MUSKOGEE ","  1932 BALTIMORE  AVE, MUSKOGEE , OK","OK",1,14,2004,-95.3465966,35.7384206
"MUSKOGEE ","  540 HARRIS W RD, MUSKOGEE , OK","OK",2,28,2004,-95.3674939,35.784889
"MUSKOGEE ","  1418 CHERRY  ST, MUSKOGEE , OK","OK",3,3,2004,-95.3515261,35.7597791
"MUSKOGEE ","  759 93RD SOUTH W ST, MUSKOGEE , OK","OK",4,14,2004,-95.389607,35.6243427
"MUSKOGEE ","  952 32ND S ST 28, MUSKOGEE , OK","OK",4,15,2004,-95.4024047,35.7440187
"MUSKOGEE ","  403 AUGUSTA W ST, MUSKOGEE , OK","OK",8,31,2004,-95.3837612,35.7327962
"MUSKOGEE ","  1522 CHERRY  ST, MUSKOGEE , OK","OK",8,31,2004,-95.3515444,35.7610921
"MUSKOGEE ","  1911 24 S ST, MUSKOGEE , OK","OK",10,17,2004,-95.3938045,35.7319903
"MUSKOGEE ","  2705 OKLAHOMA W ST, MUSKOGEE , OK","OK",11,23,2004,-95.3974623,35.7570915
"MUSKOGEE ","  1108 WOOD  ST, MUSKOGEE , OK","OK",3,8,2005,-95.3604483,35.7323608
"MUSKOGEE ","  827 YORK S ST 9, MUSKOGEE , OK","OK",3,11,2005,-95.341011,35.730086
"MUSKOGEE ","  712 DAYTON  ST, MUSKOGEE , OK","OK",4,19,2005,-95.3583653,35.7481999
"MUSKOGEE ","  214 GENEVA  ST, MUSKOGEE , OK","OK",10,4,2005,-95.3689454,35.7405052
"MUSKOGEE ","  321 3RD S ST, MUSKOGEE , OK","OK",10,14,2005,-95.3733317,35.7457614
"MUSKOGEE ","  1508 CHERRY  ST, MUSKOGEE , OK","OK",1,4,2006,-95.351541,35.7608528
"MUSKOGEE ","  4027 OKLAHOMA, MUSKOGEE , OK","OK",1,17,2006,-95.4120251,35.7567792
"MUSKOGEE ","  1510 BOSTON W ST, MUSKOGEE , OK","OK",8,3,2006,-95.38718,35.7531196
"MUSKOGEE ","  3231 CHEROKEE S ST 17, MUSKOGEE , OK","OK",9,12,2006,-95.3759665,35.7197962
"MUSKOGEE ","  300 40TH N ST 411, MUSKOGEE , OK","OK",2,19,2008,-95.4115855,35.7568342
"MUSKOGEE ","  820 MISSOURI, MUSKOGEE , OK","OK",2,9,2009,-95.3552552,35.7358975
"MUSKOGEE ","  1516 DENVER W, MUSKOGEE , OK","OK",4,14,2009,-95.388751,35.7513947
"MUSKOGEE ","  2129 FREDONIA, MUSKOGEE , OK","OK",5,6,2009,-95.3435429,35.7466209
"MUSKOGEE ","  910 OSAGE  ST, MUSKOGEE , OK","OK",6,10,2009,-95.3505238,35.734569
"MUSKOGEE ","2821 WEST 39TH STREET  , MUSKOGEE , OK","OK",6,12,2009,-95.3993855,35.7021628
"MUSKOGEE ","  1814 FOX  LN, MUSKOGEE , OK","OK",6,28,2009,-95.3471063,35.6930147
"MUSKOGEE ","  1000 23RD S, MUSKOGEE , OK","OK",9,21,2009,-95.3927367,35.7438192
"MUSKOGEE ","4941 EAST 103RD ST S STREET  , MUSKOGEE , OK","OK",9,23,2009,-95.2922876,35.6098048
"MUSKOGEE ","2110 WEST BROADWAY STREET  , MUSKOGEE , OK","OK",10,7,2009,-95.391436,35.7560858
"MUSKOGEE ","2120  HAYES STREET  , MUSKOGEE , OK","OK",10,11,2009,-95.3436024,35.7500648
"MUSKOGEE ","2129 EAST OKMULGEE AVENUE  , MUSKOGEE , OK","OK",11,8,2009,-95.3443684,35.7386575
"MUSKOGEE ","6301  OKLAHOMA, MUSKOGEE , OK","OK",11,17,2009,-95.4409778,35.7565025
"MUSKOGEE ","2200  ELMIRA STREET  , MUSKOGEE , OK","OK",11,25,2009,-95.3426279,35.7457994
"MUSKOGEE ","1324  SUMMIT STREET  , MUSKOGEE , OK","OK",11,26,2009,-95.3494267,35.7583889
"MUSKOGEE ","512  GALVESTON STREET  , MUSKOGEE , OK","OK",12,30,2009,-95.3597928,35.751484
"MUSKOGEE ","1708 SOUTH CHEROKEE STREET  , MUSKOGEE , OK","OK",1,4,2010,-95.3757229,35.72866
"MUSKOGEE ","4210 SOUTH WOODLAND ROAD  , MUSKOGEE , OK","OK",1,17,2010,-95.251231,35.698419
"MUSKOGEE ","607  MARIETTA STREET  , MUSKOGEE , OK","OK",1,20,2010,-95.3868918,35.7344657
"MUSKOGEE ","1206 EAST AUGUSTA STREET  , MUSKOGEE , OK","OK",1,22,2010,-95.3592803,35.7332683
"MUSKOGEE ","1203 EAST BROADWAY STREET  , MUSKOGEE , OK","OK",2,17,2010,-95.3448238,35.7415218
"MUSKOGEE ","130 EAST SMITH FERRY ROAD  , MUSKOGEE , OK","OK",4,14,2010,-95.374383,35.697414
"MUSKOGEE ","628 SOUTH B STREET  , MUSKOGEE , OK","OK",4,15,2010,-95.3686532,35.7414945
"MUSKOGEE ","8TH SOUTH COURT STREET  , MUSKOGEE , OK","OK",5,31,2010,-95.3809032,35.7463695
"MUSKOGEE ","3504  FONDULAC STREET  , MUSKOGEE , OK","OK",6,17,2010,-95.4162224,35.759505
"MUSKOGEE ","2423  CAROLYN STREET  , MUSKOGEE , OK","OK",6,24,2010,-95.3945139,35.7477565
"MUSKOGEE ","832 SOUTH F STREET  , MUSKOGEE , OK","OK",7,17,2010,-95.3645968,35.7375657
"MUSKOGEE ","5207  DENISON STREET  , MUSKOGEE , OK","OK",7,26,2010,-95.427003,35.7576989
"MUSKOGEE ","214  GENEVA STREET  , MUSKOGEE , OK","OK",7,27,2010,-95.3689454,35.7405052
"MUSKOGEE ","1821 NORTH YORK STREET 1 , MUSKOGEE , OK","OK",8,7,2010,-95.3407348,35.7651311
"MUSKOGEE ","2203  WARD STREET  , MUSKOGEE , OK","OK",9,8,2010,-95.3417939,35.765661
"MUSKOGEE ","301  BALTIMORE STREET  , MUSKOGEE , OK","OK",9,29,2010,-95.3653922,35.7453108
"MUSKOGEE ","1120  FITE STREET  , MUSKOGEE , OK","OK",10,11,2010,-95.3594713,35.7271699
"MUSKOGEE ","721 NORTH G STREET  , MUSKOGEE , OK","OK",10,21,2010,-95.3574644,35.7520728
"MUSKOGEE ","2911 SOUTH YORK, MUSKOGEE , OK","OK",10,26,2010,-95.3403555,35.7191997
"MUSKOGEE ","808  HAMILTON STREET  , MUSKOGEE , OK","OK",11,10,2010,-95.3617945,35.7371043
"MUSKOGEE ","1706 SOUTH CHEROKEE STREET  , MUSKOGEE , OK","OK",11,17,2010,-95.375722,35.7288659
"MUSKOGEE ","5103 WEST BROADWAY STREET 4 , MUSKOGEE , OK","OK",12,8,2010,-95.3667072,35.7478179
"MUSKOGEE ","911  CHOCTAW STREET  , MUSKOGEE , OK","OK",12,15,2010,-95.3529709,35.7344212
"MUSKOGEE ","1428  CHERRY STREET  , MUSKOGEE , OK","OK",1,12,2011,-95.3515319,35.7603448
"MUSKOGEE ","2423  CAROLYN AVENUE  , MUSKOGEE , OK","OK",1,14,2011,-95.3945139,35.7477565
"MUSKOGEE ","529  FRANKFORT, MUSKOGEE , OK","OK",1,22,2011,-95.3631607,35.7400146
"MUSKOGEE ","4031  OKLAHOMA STREET  , MUSKOGEE , OK","OK",1,22,2011,-95.4120777,35.7567803
"MUSKOGEE ","10750 WEST 43RD SOUTH STREET  , MUSKOGEE , OK","OK",1,25,2011,-95.522651,35.698693
"MUSKOGEE ","2316  FREDONIA STREET  , MUSKOGEE , OK","OK",3,10,2011,-95.3394642,35.7468118
"MUSKOGEE ","325 NORTH 7TH STREET  , MUSKOGEE , OK","OK",9,15,2011,-95.3760473,35.7539894
"MUSKOGEE ","205  GOLF LANE  , MUSKOGEE , OK","OK",9,22,2011,-95.3696909,35.7478769
"MUSKOGEE ","4014 WEST 73RD STREET  , MUSKOGEE , OK","OK",9,25,2011,-95.3116023,35.6532987
"MUSKOGEE ","725 SOUTH S 24TH ST, MUSKOGEE , OK","OK",11,4,2013,-95.3939343,35.7461908
"MUSKOGEE ","2401  CHICAGO ST STREET  , MUSKOGEE , OK","OK",3,28,2014,-95.3649231,35.7744573
"MUSKOGEE ","2121 NORTH MAIN STREET APT # 201 , OKTAHA , OK","OK",11,11,2009,-104.5229773,33.4183488
"MUSKOGEE ","1015  EASTSIDE BOULEVARD  , OKTAHA , OK","OK",10,7,2010,-95.4749764,35.5764881
"MUSKOGEE ","1611 WEST BROADWAY, OKTAHA , OK","OK",1,31,2011,-95.6514663,35.5555984
"MUSKOGEE ","1613  DORCHESTER STREET  , WARNER , OK","OK",6,13,2002,-95.3055239,35.4942644
"MUSKOGEE ","1613  ROCHESTER STREET  , WARNER , OK","OK",6,15,2010,-95.3055239,35.4942644
"MUSKOGEE ","519 SOUTH CREEK STREET  , WARNER , OK","OK",10,6,2010,-94.6112736,35.0475407
"MUSKOGEE ","1408  CALLAHAN STREET  , WEBBERS FALLS , OK","OK",9,2,2009,-95.1299597,35.5109296
"MUSKOGEE ","2420  ELGIN STREET  , WEBBERS FALLS , OK","OK",2,25,2010,-95.1299597,35.5109296
"MUSKOGEE ","109 WEST COMMERCIAL STREET , WEBBERS FALLS , OK","OK",2,8,2012,-95.130392,35.5105502
"NOBLE ","2016  DENVER STREET  , GLENCOE , OK","OK",7,25,2011,-104.9257754,39.7477814
"NOBLE ","9862 SOUTH 24TH WEST STREET  , PERRY , OK","OK",8,17,2004,-97.2880983,36.2894855
"NOBLE ","414  JACKSON, PERRY , OK","OK",12,29,2011,-97.283038,36.294173
"NOBLE ","509  CEMETARY ROAD  , RED ROCK , OK","OK",8,21,2010,-97.1789322,36.4592083
"NOBLE ","408  MILLARD STREET LOT 8 , STILLWATER , OK","OK",1,5,2004,-97.0583681,36.1156071
"NOBLE ","  303 5TH  AVE, STILLWATER , OK","OK",3,9,2011,-97.0613779,36.116722
"NOWATA ","1300  64 HIGHWAY 6B , DELAWARE , OK","OK",5,9,2010,-95.6394227,36.7786985
"OKFUSKEE ","104  ALVIN ROAD  , PADEN , OK","OK",12,28,2006,-96.5675136,35.5078486
"OKFUSKEE ","  912 SEMINOLE W, WELEETKA , OK","OK",9,8,2002,-96.1367337,35.3354366
"OKFUSKEE ","18605  DEER RIDGE LANE  , WELEETKA , OK","OK",2,6,2003,-96.1363921,35.3356496
"OKFUSKEE ","114  OSAGE STREET  , WELEETKA , OK","OK",3,2,2003,-96.1430934,35.3366326
"OKLAHOMA ","229 NORTH MAPLE, ARCADIA , OK","OK",9,2,2004,-97.3267025,35.6667233
"OKLAHOMA ","  123 STANLEY, BETHANY , OK","OK",12,15,2000,-97.6051068,35.5415739
"OKLAHOMA ","  5010 RIVER N DR, BETHANY , OK","OK",7,2,2001,-97.6632314,35.522989
"OKLAHOMA ","  122 CHACTAW N, BETHANY , OK","OK",9,11,2004,-97.6322639,35.5186678
"OKLAHOMA ","  9800 SKY RIDGE, CHOCTAW , OK","OK",3,20,2002,-97.3391783,35.4724964
"OKLAHOMA ","13501 SOUTHEAST 29TH STREET 134 , CHOCTAW , OK","OK",11,1,2012,-97.2885104,35.4359777
"OKLAHOMA ","515 SOUTHEAST CREEK AVENUE  , DEL CITY , OK","OK",2,27,2000,-97.4169301,35.4176416
"OKLAHOMA ","  6214 33RD NW ST C, DEL CITY , OK","OK",8,4,2000,-97.4324822,35.4316006
"OKLAHOMA ","  5203 MUELLER, DEL CITY , OK","OK",3,8,2001,-97.6324292,35.5237549
"OKLAHOMA ","  6706 24TH NW ST, DEL CITY , OK","OK",3,28,2001,-97.4273015,35.4399275
"OKLAHOMA ","  6607 32 NW, DEL CITY , OK","OK",3,31,2001,-97.4382364,35.5034873
"OKLAHOMA ","  7223 45TH NW ST, DEL CITY , OK","OK",7,3,2001,-97.4329043,35.4186415
"OKLAHOMA ","  4102 COUNCIL N  4, DEL CITY , OK","OK",8,17,2001,-97.4428071,35.4713939
"OKLAHOMA ","  3108 CHOCTAW S RD, DEL CITY , OK","OK",10,9,2001,-97.3276166,35.4777678
"OKLAHOMA ","  2808 CLARK  ST, DEL CITY , OK","OK",1,15,2002,-97.267222,35.498404
"OKLAHOMA ","  4720 CHOCTAW S RD, DEL CITY , OK","OK",5,1,2002,-97.3276138,35.4779225
"OKLAHOMA ","  721 SOONER S RD, EDMOND , OK","OK",12,28,2000,-97.4250053,35.6623433
"OKLAHOMA ","  4304 VICKIE S, EDMOND , OK","OK",1,24,2001,-97.5055094,35.6711499
"OKLAHOMA ","  3029 DEL RANCHO, EDMOND , OK","OK",1,23,2004,-97.4780954,35.6528323
"OKLAHOMA ","  4415 1/2 RENO E, EDMOND , OK","OK",7,9,2004,-97.8906402,35.6534238
"OKLAHOMA ","  4748 26TH SE ST, EDMOND , OK","OK",9,1,2004,-97.4698027,35.6304471
"OKLAHOMA ","  1305 MALLARD  DR, EDMOND , OK","OK",12,21,2004,-97.500275,35.6634332
"OKLAHOMA ","  4208 28TH SE ST, EDMOND , OK","OK",5,31,2006,-97.4726793,35.6280529
"OKLAHOMA ","  4773 26 SE ST, HARRAH , OK","OK",1,12,2001,-97.2320466,35.4379032
"OKLAHOMA ","  3912 LAMAR, HARRAH , OK","OK",5,17,2001,-97.1636408,35.4895085
"OKLAHOMA ","  21 EASTBROOK  DR, HARRAH , OK","OK",3,15,2002,-97.1636408,35.4895085
"OKLAHOMA ","  4409 SYCAMORE  LN, HARRAH , OK","OK",4,28,2002,-97.2163995,35.4544391
"OKLAHOMA ","  1412 PADDOCK, HARRAH , OK","OK",2,4,2006,-97.1593731,35.2307708
"OKLAHOMA ","  601 VISTA LANE S  80, LUTHER , OK","OK",10,14,2000,-97.195588,35.6617259
"OKLAHOMA ","  14 WOODLAND W DR, LUTHER , OK","OK",7,11,2001,-97.5016997,35.5191035
"OKLAHOMA ","  1202 BLACKWELDER N, LUTHER , OK","OK",3,10,2006,-97.195588,35.6617259
"OKLAHOMA ","  10101 BLANCHE  LN, MIDWEST CITY , OK","OK",1,12,2000,-97.3967019,35.4495065
"OKLAHOMA ","225 EAST EDWARDS STREET  , MIDWEST CITY , OK","OK",7,9,2000,-97.3967019,35.4495065
"OKLAHOMA ","  1237 PEBBLY N RD, MIDWEST CITY , OK","OK",8,9,2000,-97.3967019,35.4495065
"OKLAHOMA ","  19 LIBERTY LANE, MIDWEST CITY , OK","OK",9,26,2000,-97.4216009,35.4376265
"OKLAHOMA ","  23901 LYNN  LN, MIDWEST CITY , OK","OK",7,1,2001,-97.3416244,35.4522995
"OKLAHOMA ","19796 NORTHEAST 23RD, MIDWEST CITY , OK","OK",7,10,2001,-97.2885598,35.4931254
"OKLAHOMA ","  13925 HARRAH N RD, MIDWEST CITY , OK","OK",8,18,2001,-97.3967019,35.4495065
"OKLAHOMA ","  17501 HOGBACK N RD, MIDWEST CITY , OK","OK",9,25,2001,-97.3967019,35.4495065
"OKLAHOMA ","  21420 BOWMAN  RD, MIDWEST CITY , OK","OK",3,12,2002,-97.3805389,35.4396008
"OKLAHOMA ","  1317 AVERY, MIDWEST CITY , OK","OK",3,21,2002,-97.3489064,35.4516127
"OKLAHOMA ","  327 CAMPBELL W DR, MIDWEST CITY , OK","OK",7,21,2002,-97.402821,35.481384
"OKLAHOMA ","  1400 CHRISTINE  DR, MIDWEST CITY , OK","OK",8,22,2002,-97.3592142,35.4824207
"OKLAHOMA ","  1419 MIDWEST N BLVD 135, MIDWEST CITY , OK","OK",10,19,2002,-97.3886192,35.4844302
"OKLAHOMA ","  929 LOCUST N LN, MIDWEST CITY , OK","OK",11,13,2002,-97.3845156,35.4769307
"OKLAHOMA ","  8819 WINDY HOLLOW  DR 41, MIDWEST CITY , OK","OK",2,19,2003,-97.3746831,35.4770631
"OKLAHOMA ","  605 FOSTER  PL, MIDWEST CITY , OK","OK",4,9,2003,-97.4102519,35.4431645
"OKLAHOMA ","  902 ROSE E, MIDWEST CITY , OK","OK",4,25,2003,-97.3813142,35.4561891
"OKLAHOMA ","  713 PALMER  DR, MIDWEST CITY , OK","OK",6,16,2003,-97.3875217,35.443002
"OKLAHOMA ","  2009 CREEKRIDGE  DR, MIDWEST CITY , OK","OK",2,9,2004,-97.3780759,35.49086
"OKLAHOMA ","  10611 LE JEAN  DR, MIDWEST CITY , OK","OK",5,28,2004,-97.3416728,35.4583855
"OKLAHOMA ","  601 DOUGLAS N BLVD, NEWALLA , OK","OK",4,30,2001,-97.1629711,35.4051058
"OKLAHOMA ","  3804 SHADYWOOD N DR 105, NICOMA PARK , OK","OK",8,6,2001,-97.3230893,35.4911731
"OKLAHOMA ","  8700 17TH NE ST, OKLAHOMA CITY , OK","OK",1,3,2000,-97.3759129,35.4874395
"OKLAHOMA ","  9800 21ST NE ST 53, OKLAHOMA CITY , OK","OK",1,13,2000,-97.3563919,35.4911178
"OKLAHOMA ","  2504 MURRAY  DR, OKLAHOMA CITY , OK","OK",1,20,2000,-97.557171,35.417367
"OKLAHOMA ","  710 POPLAR N LN, OKLAHOMA CITY , OK","OK",2,4,2000,-97.3481401,35.4735042
"OKLAHOMA ","  6629 ZEBRA  ST, OKLAHOMA CITY , OK","OK",2,8,2000,-97.4143754,35.483866
"OKLAHOMA ","  1513 KUDU  ST, OKLAHOMA CITY , OK","OK",2,12,2000,-97.4148411,35.4837076
"OKLAHOMA ","  1801 ST LUKE N, OKLAHOMA CITY , OK","OK",2,22,2000,-97.3633886,35.4870715
"OKLAHOMA ","  104 ROSE E DR, OKLAHOMA CITY , OK","OK",3,6,2000,-97.400301,35.455876
"OKLAHOMA ","  110 LISA  LN, OKLAHOMA CITY , OK","OK",3,7,2000,-97.1591471,35.3018457
"OKLAHOMA ","  2700 MINSTER NW, OKLAHOMA CITY , OK","OK",3,13,2000,-97.3382418,35.4985799
"OKLAHOMA ","  1400 LAFAYETTE  DR, OKLAHOMA CITY , OK","OK",6,17,2000,-97.541171,35.415336
"OKLAHOMA ","  4322 BLACKWELDER N, OKLAHOMA CITY , OK","OK",7,6,2000,-97.5385243,35.5154651
"OKLAHOMA ","  3606 OKLAHOMA S, OKLAHOMA CITY , OK","OK",7,8,2000,-97.5102619,35.4288988
"OKLAHOMA ","  1115 YOUNGS N BLVD, OKLAHOMA CITY , OK","OK",7,12,2000,-97.552614,35.479239
"OKLAHOMA ","  421 26TH SE, OKLAHOMA CITY , OK","OK",7,18,2000,-97.504064,35.438695
"OKLAHOMA ","  2804 DURANGO  CIR, OKLAHOMA CITY , OK","OK",7,21,2000,-97.7373721,35.4366788
"OKLAHOMA ","  4401 NEBRASKA S, OKLAHOMA CITY , OK","OK",8,7,2000,-97.4795724,35.4217308
"OKLAHOMA ","  7817 YOUNG S, OKLAHOMA CITY , OK","OK",8,7,2000,-97.3179767,35.4427776
"OKLAHOMA ","  2130 59TH SE ST 122, OKLAHOMA CITY , OK","OK",8,9,2000,-97.4741825,35.4056012
"OKLAHOMA ","  4212 16TH NW ST, OKLAHOMA CITY , OK","OK",8,10,2000,-97.595121,35.485759
"OKLAHOMA ","  2424 39TH SW ST, OKLAHOMA CITY , OK","OK",8,15,2000,-97.555732,35.42537
"OKLAHOMA ","  8091 23 NW ST, OKLAHOMA CITY , OK","OK",8,19,2000,-97.6557223,35.4940228
"OKLAHOMA ","  2801 42ND SW ST 11, OKLAHOMA CITY , OK","OK",8,28,2000,-97.563513,35.422949
"OKLAHOMA ","  2620 SANTA FE S, OKLAHOMA CITY , OK","OK",8,29,2000,-97.5124139,35.4385807
"OKLAHOMA ","  4628 BROOKLINE N, OKLAHOMA CITY , OK","OK",9,6,2000,-97.5662986,35.5182108
"OKLAHOMA ","  1157 89TH NW, OKLAHOMA CITY , OK","OK",9,7,2000,-97.533743,35.561862
"OKLAHOMA ","  3917 LIBERTY  DR, OKLAHOMA CITY , OK","OK",9,14,2000,-97.5886249,35.481756
"OKLAHOMA ","  5500 BARNES S, OKLAHOMA CITY , OK","OK",10,1,2000,-97.5493937,35.4106147
"OKLAHOMA ","  1317 31ST SW ST, OKLAHOMA CITY , OK","OK",10,5,2000,-97.5399489,35.433737
"OKLAHOMA ","  600 79TH SE ST, OKLAHOMA CITY , OK","OK",10,12,2000,-97.5013479,35.387184
"OKLAHOMA ","  2308 12TH SE ST, OKLAHOMA CITY , OK","OK",10,18,2000,-97.471743,35.452273
"OKLAHOMA ","  12209 28TH SW, OKLAHOMA CITY , OK","OK",10,18,2000,-97.744137,35.4368399
"OKLAHOMA ","  2709 1/2 35TH SW, OKLAHOMA CITY , OK","OK",11,2,2000,-97.5533688,35.4292341
"OKLAHOMA ","  706 26TH NW, OKLAHOMA CITY , OK","OK",11,8,2000,-97.5245486,35.4962291
"OKLAHOMA ","  10900 POWELL  RD, OKLAHOMA CITY , OK","OK",11,10,2000,-97.319546,35.359083
"OKLAHOMA ","  1735 11TH NW, OKLAHOMA CITY , OK","OK",11,15,2000,-97.54035,35.480988
"OKLAHOMA ","  1320 38TH SE, OKLAHOMA CITY , OK","OK",11,16,2000,-97.489128,35.4261117
"OKLAHOMA ","  3949 23RD NW ST, OKLAHOMA CITY , OK","OK",11,17,2000,-97.590114,35.493558
"OKLAHOMA ","  11239 PENNSYLVANIA N AVE 1010, OKLAHOMA CITY , OK","OK",11,18,2000,-97.551331,35.58339
"OKLAHOMA ","  3524 51ST NW ST 2, OKLAHOMA CITY , OK","OK",11,18,2000,-97.5803507,35.5229284
"OKLAHOMA ","  4100 POST S RD, OKLAHOMA CITY , OK","OK",12,1,2000,-97.350299,35.423748
"OKLAHOMA ","  828 4TH SE, OKLAHOMA CITY , OK","OK",12,8,2000,-97.497607,35.460875
"OKLAHOMA ","  12224 15TH SW TER, OKLAHOMA CITY , OK","OK",12,16,2000,-97.744491,35.45223
"OKLAHOMA ","  2432 18TH NW ST, OKLAHOMA CITY , OK","OK",12,17,2000,-97.556434,35.487733
"OKLAHOMA ","  605 27TH SW ST, OKLAHOMA CITY , OK","OK",12,18,2000,-97.524069,35.437587
"OKLAHOMA ","  504 22ND SE ST, OKLAHOMA CITY , OK","OK",12,26,2000,-97.5032738,35.4427495
"OKLAHOMA ","  2749 1/2 22ND NW ST, OKLAHOMA CITY , OK","OK",12,28,2000,-97.5407284,35.4925852
"OKLAHOMA ","  3240 15TH NW, OKLAHOMA CITY , OK","OK",1,4,2001,-97.574157,35.484789
"OKLAHOMA ","  7300 13TH NW ST, OKLAHOMA CITY , OK","OK",1,4,2001,-97.640705,35.482649
"OKLAHOMA ","  2141 50TH SW ST, OKLAHOMA CITY , OK","OK",1,6,2001,-97.5498104,35.4151216
"OKLAHOMA ","  5025 BRIARWOOD  DR, OKLAHOMA CITY , OK","OK",1,9,2001,-97.4552977,35.4149795
"OKLAHOMA ","  804 ANITA N DR, OKLAHOMA CITY , OK","OK",1,12,2001,-97.641791,35.4759839
"OKLAHOMA ","  6305 SANTA FE S  4, OKLAHOMA CITY , OK","OK",1,17,2001,-97.5125099,35.4030093
"OKLAHOMA ","  6804 LANCER  LN, OKLAHOMA CITY , OK","OK",2,2,2001,-97.632623,35.5459419
"OKLAHOMA ","  1320 28TH SE, OKLAHOMA CITY , OK","OK",2,7,2001,-97.540135,35.4360394
"OKLAHOMA ","  2941 1/2 27TH SW ST 1/2, OKLAHOMA CITY , OK","OK",2,10,2001,-97.5420311,35.4373798
"OKLAHOMA ","  330 23RD SE ST, OKLAHOMA CITY , OK","OK",2,20,2001,-97.5052174,35.4413134
"OKLAHOMA ","  2400 MACARTHUR N, OKLAHOMA CITY , OK","OK",2,22,2001,-97.6185724,35.4936891
"OKLAHOMA ","  2400 MCARTHUR S ST 115, OKLAHOMA CITY , OK","OK",2,22,2001,-97.6164973,35.4402404
"OKLAHOMA ","  425 26TH SE ST, OKLAHOMA CITY , OK","OK",2,27,2001,-97.5038767,35.4386222
"OKLAHOMA ","  711 28TH SE ST, OKLAHOMA CITY , OK","OK",3,5,2001,-97.4986598,35.436572
"OKLAHOMA ","  1237 PEEBLY N RD, OKLAHOMA CITY , OK","OK",3,6,2001,-97.2125366,35.451966
"OKLAHOMA ","  1128 25TH SW ST, OKLAHOMA CITY , OK","OK",3,6,2001,-97.5359908,35.439198
"OKLAHOMA ","  11010 MAY N AVE 234, OKLAHOMA CITY , OK","OK",3,13,2001,-97.5671701,35.5824442
"OKLAHOMA ","  904 TABOR  DR, OKLAHOMA CITY , OK","OK",3,15,2001,-97.5859965,35.4754638
"OKLAHOMA ","  4219 YOUNG N  141, OKLAHOMA CITY , OK","OK",3,19,2001,-97.6090877,35.2794957
"OKLAHOMA ","  1720 14TH NW ST, OKLAHOMA CITY , OK","OK",3,20,2001,-97.5399341,35.4839976
"OKLAHOMA ","  2400 MACARTHUR N  115, OKLAHOMA CITY , OK","OK",3,31,2001,-97.6185724,35.4936891
"OKLAHOMA ","  3836 11TH NW, OKLAHOMA CITY , OK","OK",4,4,2001,-97.5872722,35.4803817
"OKLAHOMA ","  2913 26TH SW, OKLAHOMA CITY , OK","OK",4,10,2001,-97.5662909,35.4384901
"OKLAHOMA ","  4680 PENNY W, OKLAHOMA CITY , OK","OK",4,11,2001,-97.6038152,35.4761535
"OKLAHOMA ","  1535 34TH NW ST, OKLAHOMA CITY , OK","OK",4,11,2001,-97.5384347,35.5055192
"OKLAHOMA ","  6100 MACARTHUR PARK  LN 2006, OKLAHOMA CITY , OK","OK",4,15,2001,-97.621887,35.491771
"OKLAHOMA ","  1916 ANN ARBOR N PL, OKLAHOMA CITY , OK","OK",4,23,2001,-97.610603,35.489063
"OKLAHOMA ","  1324 44TH NW ST, OKLAHOMA CITY , OK","OK",5,2,2001,-97.533917,35.5168939
"OKLAHOMA ","  501 44TH SE  131, OKLAHOMA CITY , OK","OK",5,6,2001,-97.5019945,35.422607
"OKLAHOMA ","  330 23RD SE ST, OKLAHOMA CITY , OK","OK",5,7,2001,-97.5052174,35.4413134
"OKLAHOMA ","  12115 89TH SE ST, OKLAHOMA CITY , OK","OK",5,9,2001,-97.315212,35.378388
"OKLAHOMA ","  4022 MERIDIAN N, OKLAHOMA CITY , OK","OK",5,10,2001,-97.601099,35.5126669
"OKLAHOMA ","  10900 POWELL  RD, OKLAHOMA CITY , OK","OK",5,14,2001,-97.319546,35.359083
"OKLAHOMA ","  1027 66 SW ST, OKLAHOMA CITY , OK","OK",5,19,2001,-97.53335,35.399757
"OKLAHOMA ","  1505 49TH TERRACE SE, OKLAHOMA CITY , OK","OK",5,22,2001,-97.485529,35.415725
"OKLAHOMA ","  5500 BARNES S ST, OKLAHOMA CITY , OK","OK",5,24,2001,-97.5493937,35.4106147
"OKLAHOMA ","  4601 SHALLOWBROOK  DR, OKLAHOMA CITY , OK","OK",6,5,2001,-97.484244,35.419225
"OKLAHOMA ","  1344 WILLIAMS  DR, OKLAHOMA CITY , OK","OK",6,9,2001,-97.5412319,35.417529
"OKLAHOMA ","  6040 BRITTON W RD D, OKLAHOMA CITY , OK","OK",6,17,2001,-97.6238804,35.5656033
"OKLAHOMA ","  3605 LIBERTY W, OKLAHOMA CITY , OK","OK",6,19,2001,-97.5814521,35.4816591
"OKLAHOMA ","  226 41ST SW ST, OKLAHOMA CITY , OK","OK",7,4,2001,-97.517359,35.423439
"OKLAHOMA ","  2701 46TH SW TER, OKLAHOMA CITY , OK","OK",7,7,2001,-97.561115,35.417982
"OKLAHOMA ","  3803 42ND SW ST, OKLAHOMA CITY , OK","OK",7,9,2001,-97.5856818,35.4223618
"OKLAHOMA ","  4100 10TH NW  108, OKLAHOMA CITY , OK","OK",7,10,2001,-97.592505,35.478423
"OKLAHOMA ","  2317 LINDLEY W, OKLAHOMA CITY , OK","OK",7,15,2001,-97.5522915,35.4656967
"OKLAHOMA ","  3527 38TH SW, OKLAHOMA CITY , OK","OK",7,18,2001,-97.5800579,35.42681
"OKLAHOMA ","  4031 8TH NW ST, OKLAHOMA CITY , OK","OK",7,25,2001,-97.5913507,35.4754198
"OKLAHOMA ","  3217 GOFF S, OKLAHOMA CITY , OK","OK",7,26,2001,-97.5805323,35.4326511
"OKLAHOMA ","  11900 ECKER N DR, OKLAHOMA CITY , OK","OK",7,27,2001,-97.410535,35.590596
"OKLAHOMA ","  1140 48TH SW ST, OKLAHOMA CITY , OK","OK",8,1,2001,-97.5366679,35.4166711
"OKLAHOMA ","  121 15TH SE ST, OKLAHOMA CITY , OK","OK",8,6,2001,-97.5104187,35.4497581
"OKLAHOMA ","  416 12TH SW, OKLAHOMA CITY , OK","OK",8,7,2001,-97.51981,35.452655
"OKLAHOMA ","  3327a 28TH SW ST, OKLAHOMA CITY , OK","OK",8,9,2001,-97.5757784,35.4361092
"OKLAHOMA ","  522 WESTWOOD  CT, OKLAHOMA CITY , OK","OK",8,10,2001,-97.6578375,35.4736879
"OKLAHOMA ","  128 56 SW ST, OKLAHOMA CITY , OK","OK",8,10,2001,-97.5160015,35.4092281
"OKLAHOMA ","  3333 46TH SW ST, OKLAHOMA CITY , OK","OK",8,16,2001,-97.576089,35.419239
"OKLAHOMA ","  4117 HARVEY S AVE, OKLAHOMA CITY , OK","OK",8,30,2001,-97.518548,35.424007
"OKLAHOMA ","  3927 BARNES N AVE, OKLAHOMA CITY , OK","OK",9,3,2001,-97.549394,35.510789
"OKLAHOMA ","  6301 SANTA FE S  3, OKLAHOMA CITY , OK","OK",9,4,2001,-97.512958,35.402997
"OKLAHOMA ","  7619 SACRAMENTO S DR, OKLAHOMA CITY , OK","OK",9,4,2001,-97.525766,35.3896342
"OKLAHOMA ","  9516 SHIELDS S BLVD 118, OKLAHOMA CITY , OK","OK",9,4,2001,-97.498904,35.3711709
"OKLAHOMA ","  3417 INDEPENDENCE S AVE, OKLAHOMA CITY , OK","OK",9,17,2001,-97.5746843,35.4308503
"OKLAHOMA ","  2750 59TH SE ST B, OKLAHOMA CITY , OK","OK",9,23,2001,-97.464114,35.405321
"OKLAHOMA ","  2823 HUDSON N ST, OKLAHOMA CITY , OK","OK",9,27,2001,-97.519224,35.498266
"OKLAHOMA ","  3544 37 SW ST, OKLAHOMA CITY , OK","OK",9,30,2001,-97.5808985,35.4272906
"OKLAHOMA ","  3504 GOFF S AVE, OKLAHOMA CITY , OK","OK",10,12,2001,-97.5791362,35.430164
"OKLAHOMA ","  2801 44TH NW ST, OKLAHOMA CITY , OK","OK",10,18,2001,-97.5634,35.51664
"OKLAHOMA ","  3208 86TH SW ST, OKLAHOMA CITY , OK","OK",10,24,2001,-97.5719359,35.380476
"OKLAHOMA ","  1604 BINKLEY SW AVE, OKLAHOMA CITY , OK","OK",11,7,2001,-97.546107,35.432316
"OKLAHOMA ","  8102 BRITTON W RD 10, OKLAHOMA CITY , OK","OK",12,12,2001,-97.657809,35.5649773
"OKLAHOMA ","  8112 W BRITTON N  10, OKLAHOMA CITY , OK","OK",12,31,2001,-97.6579263,35.5650603
"OKLAHOMA ","  2434 27 SW ST, OKLAHOMA CITY , OK","OK",1,5,2002,-97.5563099,35.437036
"OKLAHOMA ","  2232 1/2 34 NW ST, OKLAHOMA CITY , OK","OK",1,14,2002,-97.5662315,35.5054258
"OKLAHOMA ","  2616 36TH SW ST, OKLAHOMA CITY , OK","OK",1,23,2002,-97.559161,35.427405
"OKLAHOMA ","  2744 34TH SW ST, OKLAHOMA CITY , OK","OK",1,24,2002,-97.563281,35.429858
"OKLAHOMA ","  5526 23RD NW ST 119, OKLAHOMA CITY , OK","OK",1,28,2002,-97.6140124,35.4932643
"OKLAHOMA ","  3316 39 SW ST, OKLAHOMA CITY , OK","OK",1,29,2002,-97.5752967,35.4253861
"OKLAHOMA ","  1140 17TH SE ST, OKLAHOMA CITY , OK","OK",2,7,2002,-97.4887044,35.4475946
"OKLAHOMA ","  2309 WALNUT S, OKLAHOMA CITY , OK","OK",2,11,2002,-97.5088557,35.442552
"OKLAHOMA ","  2613 30TH SW, OKLAHOMA CITY , OK","OK",2,15,2002,-97.5597196,35.434347
"OKLAHOMA ","  2800 11TH NW, OKLAHOMA CITY , OK","OK",2,18,2002,-97.563616,35.480353
"OKLAHOMA ","  3217 40 SW, OKLAHOMA CITY , OK","OK",2,21,2002,-97.5733756,35.4249293
"OKLAHOMA ","  1118 INDIANA N AVE B, OKLAHOMA CITY , OK","OK",2,21,2002,-97.5410545,35.479502
"OKLAHOMA ","  1115 9 NW, OKLAHOMA CITY , OK","OK",2,27,2002,-97.5307603,35.477904
"OKLAHOMA ","  3808 CASHION  PL, OKLAHOMA CITY , OK","OK",3,1,2002,-97.586181,35.500774
"OKLAHOMA ","  2116 49 SW, OKLAHOMA CITY , OK","OK",3,3,2002,-97.548808,35.4156382
"OKLAHOMA ","  1312 38 SE, OKLAHOMA CITY , OK","OK",3,15,2002,-97.4894581,35.4261067
"OKLAHOMA ","  3420 QUAPAH  AVE, OKLAHOMA CITY , OK","OK",3,18,2002,-97.5853008,35.4301404
"OKLAHOMA ","  2720 74TH SW ST 30, OKLAHOMA CITY , OK","OK",4,4,2002,-97.562411,35.391165
"OKLAHOMA ","  1528 INDIANA S, OKLAHOMA CITY , OK","OK",4,11,2002,-97.5402171,35.4502765
"OKLAHOMA ","  812 26TH SE, OKLAHOMA CITY , OK","OK",4,17,2002,-97.4962835,35.4380546
"OKLAHOMA ","  2120 34TH NW, OKLAHOMA CITY , OK","OK",4,19,2002,-97.5485768,35.504655
"OKLAHOMA ","  5421 DREXEL S AVE, OKLAHOMA CITY , OK","OK",4,23,2002,-97.56994,35.410096
"OKLAHOMA ","  1921 8 NW ST, OKLAHOMA CITY , OK","OK",4,24,2002,-97.544358,35.477082
"OKLAHOMA ","  1103 CAROL N LN C, OKLAHOMA CITY , OK","OK",5,23,2002,-97.6242472,35.4795954
"OKLAHOMA ","  1517 42 NW ST, OKLAHOMA CITY , OK","OK",6,1,2002,-97.5375502,35.51481
"OKLAHOMA ","  2513 46 SW ST, OKLAHOMA CITY , OK","OK",6,11,2002,-97.5574843,35.4192481
"OKLAHOMA ","  137 25TH SE ST, OKLAHOMA CITY , OK","OK",6,11,2002,-97.508808,35.439707
"OKLAHOMA ","  1256 20TH SE ST, OKLAHOMA CITY , OK","OK",6,12,2002,-97.4872544,35.4439602
"OKLAHOMA ","  1512 62 SW ST, OKLAHOMA CITY , OK","OK",6,12,2002,-97.5453904,35.4021568
"OKLAHOMA ","  1608 BINKLEY SW ST, OKLAHOMA CITY , OK","OK",6,12,2002,-97.5462549,35.4323699
"OKLAHOMA ","  3229 PORTLAND S AVE, OKLAHOMA CITY , OK","OK",6,15,2002,-97.5835436,35.4316109
"OKLAHOMA ","  1638 WESTWOOD, OKLAHOMA CITY , OK","OK",6,24,2002,-97.5432672,35.4485778
"OKLAHOMA ","  3737 29TH NW ST, OKLAHOMA CITY , OK","OK",6,26,2002,-97.58505,35.498997
"OKLAHOMA ","  1638 WESTWOOD  BLVD, OKLAHOMA CITY , OK","OK",6,26,2002,-97.5432672,35.4485778
"OKLAHOMA ","  3212 45 SW ST, OKLAHOMA CITY , OK","OK",6,29,2002,-97.5716976,35.4194875
"OKLAHOMA ","  1823 9TH NW  1, OKLAHOMA CITY , OK","OK",7,1,2002,-97.5421146,35.4779451
"OKLAHOMA ","  2309 WALNUT S AVE, OKLAHOMA CITY , OK","OK",7,8,2002,-97.5088557,35.442552
"OKLAHOMA ","  6100 MACARTHUR PARK  LN 1608, OKLAHOMA CITY , OK","OK",7,9,2002,-97.621887,35.491771
"OKLAHOMA ","  6707 8TH NW, OKLAHOMA CITY , OK","OK",7,12,2002,-97.630777,35.4767729
"OKLAHOMA ","  708 60TH SE TER, OKLAHOMA CITY , OK","OK",7,12,2002,-97.4985212,35.4040347
"OKLAHOMA ","  2237 12 NW ST, OKLAHOMA CITY , OK","OK",8,2,2002,-97.551619,35.4821219
"OKLAHOMA ","  5732 16TH NW  2, OKLAHOMA CITY , OK","OK",8,14,2002,-97.6159388,35.4860176
"OKLAHOMA ","  1608 OAKHILL, OKLAHOMA CITY , OK","OK",8,16,2002,-97.643251,35.485543
"OKLAHOMA ","  3240 15TH NW, OKLAHOMA CITY , OK","OK",8,19,2002,-97.574157,35.484789
"OKLAHOMA ","  2440 42ND NW ST, OKLAHOMA CITY , OK","OK",8,21,2002,-97.5561847,35.5143239
"OKLAHOMA ","  7512 BRADLEY N AVE, OKLAHOMA CITY , OK","OK",8,27,2002,-97.646459,35.4804474
"OKLAHOMA ","  611 6TH SW, OKLAHOMA CITY , OK","OK",9,2,2002,-97.5231994,35.4591702
"OKLAHOMA ","  2332 1/2 42ND SW, OKLAHOMA CITY , OK","OK",9,10,2002,-97.5538881,35.4224727
"OKLAHOMA ","  2936 65 NW, OKLAHOMA CITY , OK","OK",9,13,2002,-97.567342,35.538098
"OKLAHOMA ","  3713 28 NW, OKLAHOMA CITY , OK","OK",9,19,2002,-97.5840751,35.4980953
"OKLAHOMA ","  2237 12 NW, OKLAHOMA CITY , OK","OK",9,20,2002,-97.551619,35.4821219
"OKLAHOMA ","  17 GRAND SE, OKLAHOMA CITY , OK","OK",9,27,2002,-97.511641,35.428592
"OKLAHOMA ","  1711 BLACKWELDER N, OKLAHOMA CITY , OK","OK",9,27,2002,-97.5383428,35.486097
"OKLAHOMA ","  2109 117TH NW ST, OKLAHOMA CITY , OK","OK",9,29,2002,-97.549882,35.58936
"OKLAHOMA ","  8521 DREXEL S AVE, OKLAHOMA CITY , OK","OK",10,1,2002,-97.570389,35.382356
"OKLAHOMA ","  923 64 NE, OKLAHOMA CITY , OK","OK",10,2,2002,-97.495005,35.537841
"OKLAHOMA ","  8917 SOWELL  RD, OKLAHOMA CITY , OK","OK",10,4,2002,-97.2294189,35.377766
"OKLAHOMA ","  2809 80TH SW ST, OKLAHOMA CITY , OK","OK",10,8,2002,-97.5632647,35.3859352
"OKLAHOMA ","  4000 POST S  A, OKLAHOMA CITY , OK","OK",10,10,2002,-97.3531552,35.4259341
"OKLAHOMA ","  4317 22ND SW ST 1909, OKLAHOMA CITY , OK","OK",10,12,2002,-97.5950883,35.4432005
"OKLAHOMA ","  1511 27TH SW ST, OKLAHOMA CITY , OK","OK",10,19,2002,-97.544047,35.4375969
"OKLAHOMA ","  1401 STRAKA  TER, OKLAHOMA CITY , OK","OK",11,1,2002,-97.5425869,35.3863685
"OKLAHOMA ","  4301 KELLY N AVE, OKLAHOMA CITY , OK","OK",11,5,2002,-97.4948426,35.5153433
"OKLAHOMA ","  2936 65TH NW, OKLAHOMA CITY , OK","OK",11,8,2002,-97.567342,35.538098
"OKLAHOMA ","  641 36TH SE, OKLAHOMA CITY , OK","OK",11,16,2002,-97.5022705,35.5077961
"OKLAHOMA ","  1244 20TH SE, OKLAHOMA CITY , OK","OK",11,17,2002,-97.4877896,35.4439849
"OKLAHOMA ","  913 KLIEN N, OKLAHOMA CITY , OK","OK",11,18,2002,-97.532162,35.477366
"OKLAHOMA ","  3300 HIGHLAND PARK  DR, OKLAHOMA CITY , OK","OK",12,1,2002,-97.5540873,35.6020044
"OKLAHOMA ","  2605 50TH NW, OKLAHOMA CITY , OK","OK",12,2,2002,-97.5592431,35.5224203
"OKLAHOMA ","  925 ROCKWELL N AVE 35, OKLAHOMA CITY , OK","OK",12,9,2002,-97.6366703,35.4774355
"OKLAHOMA ","8700 NORTHEAST 17TH STREET  , OKLAHOMA CITY , OK","OK",12,9,2002,-97.3759129,35.4874395
"OKLAHOMA ","  5501 COUNCIL S RD, OKLAHOMA CITY , OK","OK",12,15,2002,-97.658405,35.409889
"OKLAHOMA ","  2909 82ND SW ST, OKLAHOMA CITY , OK","OK",12,19,2002,-97.5664244,35.3841042
"OKLAHOMA ","  11713 ROSS N AVE, OKLAHOMA CITY , OK","OK",12,27,2002,-97.566813,35.589793
"OKLAHOMA ","  5000 89TH SE ST, OKLAHOMA CITY , OK","OK",12,28,2002,-97.431665,35.376918
"OKLAHOMA ","  9628 29TH SE  9, OKLAHOMA CITY , OK","OK",1,6,2003,-97.3592663,35.4316317
"OKLAHOMA ","  1331 MERIDIAN S AVE, OKLAHOMA CITY , OK","OK",1,7,2003,-97.601103,35.452903
"OKLAHOMA ","  12831 STRATFORD N  128, OKLAHOMA CITY , OK","OK",1,8,2003,-97.5562757,35.6013823
"OKLAHOMA ","  525 72ND SE, OKLAHOMA CITY , OK","OK",1,10,2003,-97.502142,35.393103
"OKLAHOMA ","  2814 17TH NW, OKLAHOMA CITY , OK","OK",1,17,2003,-97.563452,35.486606
"OKLAHOMA ","  5801 MISSOURI S, OKLAHOMA CITY , OK","OK",1,18,2003,-97.481091,35.407806
"OKLAHOMA ","  3208 CASHION  PL, OKLAHOMA CITY , OK","OK",1,22,2003,-97.5728075,35.5010643
"OKLAHOMA ","3137 NORTH PORTLAND AVENUE 103 , OKLAHOMA CITY , OK","OK",1,24,2003,-97.5833636,35.4999128
"OKLAHOMA ","  3826 38 SW, OKLAHOMA CITY , OK","OK",1,24,2003,-97.5866231,35.4265911
"OKLAHOMA ","  1401 17TH NW ST D, OKLAHOMA CITY , OK","OK",1,25,2003,-97.5345098,35.4872978
"OKLAHOMA ","  1449 13TH SW ST, OKLAHOMA CITY , OK","OK",1,31,2003,-97.5389965,35.4518454
"OKLAHOMA ","  10017 BROOKMILL  CT, OKLAHOMA CITY , OK","OK",2,1,2003,-97.5472304,35.3678823
"OKLAHOMA ","  5903 SUNNYLANE S, OKLAHOMA CITY , OK","OK",2,6,2003,-97.44182,35.407849
"OKLAHOMA ","  7631 12TH NW, OKLAHOMA CITY , OK","OK",2,6,2003,-97.6481504,35.481905
"OKLAHOMA ","  4000 25TH SW, OKLAHOMA CITY , OK","OK",2,11,2003,-97.590195,35.439545
"OKLAHOMA ","  2632 30TH SW, OKLAHOMA CITY , OK","OK",2,15,2003,-97.5605495,35.4339635
"OKLAHOMA ","  4017 18 NW, OKLAHOMA CITY , OK","OK",2,18,2003,-97.5905593,35.4884692
"OKLAHOMA ","  2219 11 NW ST, OKLAHOMA CITY , OK","OK",2,18,2003,-97.550783,35.481021
"OKLAHOMA ","  3016 65 SW PL, OKLAHOMA CITY , OK","OK",2,20,2003,-97.5682088,35.3983025
"OKLAHOMA ","  4017 26 SW ST, OKLAHOMA CITY , OK","OK",2,20,2003,-97.5908765,35.4390795
"OKLAHOMA ","  107 74TH SW ST A, OKLAHOMA CITY , OK","OK",2,24,2003,-97.5147678,35.392256
"OKLAHOMA ","  2624 44TH SW, OKLAHOMA CITY , OK","OK",2,24,2003,-97.559549,35.420402
"OKLAHOMA ","  1427 SULZBERGER S ST, OKLAHOMA CITY , OK","OK",2,27,2003,-97.546667,35.450914
"OKLAHOMA ","  2613 43RD SW, OKLAHOMA CITY , OK","OK",2,28,2003,-97.5589572,35.4218792
"OKLAHOMA ","  609 52ND SW, OKLAHOMA CITY , OK","OK",3,1,2003,-97.5239939,35.4128124
"OKLAHOMA ","  1401 13TH SW, OKLAHOMA CITY , OK","OK",3,2,2003,-97.5369886,35.4518521
"OKLAHOMA ","  712(A) 60 TERRACE SE, OKLAHOMA CITY , OK","OK",3,8,2003,-97.498346,35.4039829
"OKLAHOMA ","  712(B) 60TH SE TER, OKLAHOMA CITY , OK","OK",3,11,2003,-97.498346,35.4039829
"OKLAHOMA ","  8416 HIWASSEE S, OKLAHOMA CITY , OK","OK",3,13,2003,-97.298703,35.382566
"OKLAHOMA ","  911 MOBILE  WAY, OKLAHOMA CITY , OK","OK",3,15,2003,-97.5940846,35.4747221
"OKLAHOMA ","  10925 FOUNTAIN  BLVD, OKLAHOMA CITY , OK","OK",3,18,2003,-97.554997,35.357833
"OKLAHOMA ","  3004 45TH NW, OKLAHOMA CITY , OK","OK",4,2,2003,-97.568346,35.5169391
"OKLAHOMA ","  3016 65 SW PL, OKLAHOMA CITY , OK","OK",4,8,2003,-97.5682088,35.3983025
"OKLAHOMA ","  716 22ND SE, OKLAHOMA CITY , OK","OK",4,18,2003,-97.4988239,35.4429253
"OKLAHOMA ","  1716 PHILLIPS S, OKLAHOMA CITY , OK","OK",4,20,2003,-97.498095,35.4474225
"OKLAHOMA ","  224 1/2 TUTTLE N, OKLAHOMA CITY , OK","OK",4,24,2003,-97.8134827,35.2930381
"OKLAHOMA ","  4520 BROOKLINE S AVE, OKLAHOMA CITY , OK","OK",4,25,2003,-97.5676394,35.4196739
"OKLAHOMA ","  3616 38TH SW ST, OKLAHOMA CITY , OK","OK",5,1,2003,-97.5819284,35.4263063
"OKLAHOMA ","  10017 BROOK MILL  CT, OKLAHOMA CITY , OK","OK",5,3,2003,-97.6689789,35.5841896
"OKLAHOMA ","  2145 46TH SW, OKLAHOMA CITY , OK","OK",5,6,2003,-97.54998,35.419037
"OKLAHOMA ","  4041 28TH SW ST, OKLAHOMA CITY , OK","OK",5,12,2003,-97.5918753,35.4363609
"OKLAHOMA ","  3217 PORTLAND N, OKLAHOMA CITY , OK","OK",6,4,2003,-97.5837338,35.5024385
"OKLAHOMA ","  2020 11TH NW ST, OKLAHOMA CITY , OK","OK",6,4,2003,-97.5471784,35.4807403
"OKLAHOMA ","  1020 50TH SW ST, OKLAHOMA CITY , OK","OK",6,17,2003,-97.533493,35.4147407
"OKLAHOMA ","  4624 PARK W PL, OKLAHOMA CITY , OK","OK",6,17,2003,-97.6047695,35.4799335
"OKLAHOMA ","  3149 72ND SW ST, OKLAHOMA CITY , OK","OK",6,24,2003,-97.571395,35.393282
"OKLAHOMA ","  3300 28 SW ST 107, OKLAHOMA CITY , OK","OK",6,27,2003,-97.575146,35.43584
"OKLAHOMA ","  3917 LIBERTY W ST, OKLAHOMA CITY , OK","OK",6,30,2003,-97.5886249,35.481756
"OKLAHOMA ","  2432 48TH SW, OKLAHOMA CITY , OK","OK",6,30,2003,-97.55619,35.416584
"OKLAHOMA ","  5505 BROOKLINE N AVE, OKLAHOMA CITY , OK","OK",7,1,2003,-97.5683534,35.5260844
"OKLAHOMA ","  2337 15 NW ST, OKLAHOMA CITY , OK","OK",7,1,2003,-97.5539462,35.4851094
"OKLAHOMA ","  105 44TH SW, OKLAHOMA CITY , OK","OK",7,5,2003,-97.5149197,35.4207584
"OKLAHOMA ","  2135 32 NW, OKLAHOMA CITY , OK","OK",7,7,2003,-97.5492258,35.5030949
"OKLAHOMA ","  2029 31ST NW TER, OKLAHOMA CITY , OK","OK",7,21,2003,-97.5469153,35.5029772
"OKLAHOMA ","  5314 WILLOW CLIFF  RD, OKLAHOMA CITY , OK","OK",8,6,2003,-97.611553,35.525659
"OKLAHOMA ","  1915 DOGWOOD  CT, OKLAHOMA CITY , OK","OK",8,6,2003,-97.4648471,35.4462503
"OKLAHOMA ","  2400 MACARTHUR S AVE 197, OKLAHOMA CITY , OK","OK",8,7,2003,-97.6164973,35.4402404
"OKLAHOMA ","  12401 MACARTHUR N AVE 3207, OKLAHOMA CITY , OK","OK",8,20,2003,-97.6222653,35.5959714
"OKLAHOMA ","  8081 SHIELDS SE  19, OKLAHOMA CITY , OK","OK",8,21,2003,-97.505855,35.385325
"OKLAHOMA ","  3109 72ND SW ST, OKLAHOMA CITY , OK","OK",8,25,2003,-97.569877,35.393452
"OKLAHOMA ","  4724 44TH SE ST C, OKLAHOMA CITY , OK","OK",8,27,2003,-97.4348829,35.4207342
"OKLAHOMA ","  147 74TH SW  H, OKLAHOMA CITY , OK","OK",9,3,2003,-97.5148738,35.3922562
"OKLAHOMA ","  4016 47TH SE, OKLAHOMA CITY , OK","OK",9,8,2003,-97.4444548,35.4173078
"OKLAHOMA ","  333 5TH NW  1704, OKLAHOMA CITY , OK","OK",9,12,2003,-97.51891,35.4733221
"OKLAHOMA ","  1304 IRVING S ST, OKLAHOMA CITY , OK","OK",9,19,2003,-97.474335,35.45217
"OKLAHOMA ","  608 ANITA N DR, OKLAHOMA CITY , OK","OK",9,28,2003,-97.641538,35.473821
"OKLAHOMA ","  2505 90 SW ST, OKLAHOMA CITY , OK","OK",9,29,2003,-97.557236,35.375656
"OKLAHOMA ","  739 VILLAGE SOUTH  DR 120, OKLAHOMA CITY , OK","OK",10,13,2003,-97.5276835,35.3943088
"OKLAHOMA ","  2230 28TH SW, OKLAHOMA CITY , OK","OK",10,16,2003,-97.551618,35.435909
"OKLAHOMA ","  1609 32ND SW ST, OKLAHOMA CITY , OK","OK",10,16,2003,-97.5462297,35.4318833
"OKLAHOMA ","  3039 11TH SW ST, OKLAHOMA CITY , OK","OK",11,16,2003,-97.569523,35.453914
"OKLAHOMA ","  1528 82 SW, OKLAHOMA CITY , OK","OK",11,17,2003,-97.5455108,35.383303
"OKLAHOMA ","  2512 22 SW, OKLAHOMA CITY , OK","OK",11,24,2003,-97.5575261,35.4421032
"OKLAHOMA ","  2009 8 SW ST, OKLAHOMA CITY , OK","OK",11,27,2003,-97.550845,35.4566779
"OKLAHOMA ","  9717 10 NW  339, OKLAHOMA CITY , OK","OK",11,28,2003,-97.6875448,35.4822035
"OKLAHOMA ","  3305 48TH SW, OKLAHOMA CITY , OK","OK",12,1,2003,-97.5748071,35.4175198
"OKLAHOMA ","  719 28 SE ST, OKLAHOMA CITY , OK","OK",12,3,2003,-97.498307,35.436658
"OKLAHOMA ","  3600 WILSHIRE E, OKLAHOMA CITY , OK","OK",12,14,2003,-97.4505832,35.5510588
"OKLAHOMA ","  1520 YOUNGS S, OKLAHOMA CITY , OK","OK",12,18,2003,-97.5529879,35.4498921
"OKLAHOMA ","  2712 INDIANA S AVE, OKLAHOMA CITY , OK","OK",12,30,2003,-97.5412671,35.4379259
"OKLAHOMA ","  4025 MERIDIAN N, OKLAHOMA CITY , OK","OK",12,30,2003,-97.6016738,35.512834
"OKLAHOMA ","  4025 23RD SW, OKLAHOMA CITY , OK","OK",1,2,2004,-97.5912097,35.4417981
"OKLAHOMA ","  916 ROCKWOOD S, OKLAHOMA CITY , OK","OK",1,8,2004,-97.5515402,35.4562342
"OKLAHOMA ","  7176 LYREWOOD  LN 289, OKLAHOMA CITY , OK","OK",1,10,2004,-97.630612,35.544708
"OKLAHOMA ","  2825 30 SW, OKLAHOMA CITY , OK","OK",1,12,2004,-97.564864,35.434433
"OKLAHOMA ","  5012 BROOKLINE S, OKLAHOMA CITY , OK","OK",1,20,2004,-97.568584,35.4153442
"OKLAHOMA ","  7408 KNIGHT LAKE  DR 220, OKLAHOMA CITY , OK","OK",1,21,2004,-97.6323638,35.5464004
"OKLAHOMA ","  4322 BLACKWELDEN N, OKLAHOMA CITY , OK","OK",2,4,2004,-97.5385243,35.5154651
"OKLAHOMA ","  1508 30 SW, OKLAHOMA CITY , OK","OK",2,7,2004,-97.5439848,35.4340177
"OKLAHOMA ","  1425 104 NW TER, OKLAHOMA CITY , OK","OK",2,9,2004,-97.538834,35.576706
"OKLAHOMA ","  2312 HUDSON S, OKLAHOMA CITY , OK","OK",2,16,2004,-97.5196913,35.4429029
"OKLAHOMA ","  6100 MAY N, OKLAHOMA CITY , OK","OK",2,17,2004,-97.5648313,35.5331549
"OKLAHOMA ","  2035 BRITTON E RD, OKLAHOMA CITY , OK","OK",2,20,2004,-97.4774534,35.5656176
"OKLAHOMA ","  6110 MAY N  27, OKLAHOMA CITY , OK","OK",3,11,2004,-97.5906783,35.4965114
"OKLAHOMA ","  7631 12TH NW, OKLAHOMA CITY , OK","OK",3,12,2004,-97.6481504,35.481905
"OKLAHOMA ","  2223 32 SW ST, OKLAHOMA CITY , OK","OK",3,17,2004,-97.551354,35.431932
"OKLAHOMA ","  12027 ASHFORD  DR, OKLAHOMA CITY , OK","OK",3,21,2004,-97.7204122,35.5919008
"OKLAHOMA ","  8101 YOUNGS S BLVD, OKLAHOMA CITY , OK","OK",3,27,2004,-97.551937,35.385609
"OKLAHOMA ","  6120 COUNTRY RIDGE  LN, OKLAHOMA CITY , OK","OK",4,6,2004,-97.197194,35.404587
"OKLAHOMA ","  1512 1/2 YOUNGS S BLVD, OKLAHOMA CITY , OK","OK",4,7,2004,-97.5527961,35.4499296
"OKLAHOMA ","  3220 84 SW ST, OKLAHOMA CITY , OK","OK",4,7,2004,-97.5720599,35.38207
"OKLAHOMA ","  1312 25 SW ST 3, OKLAHOMA CITY , OK","OK",4,8,2004,-97.5398048,35.4391691
"OKLAHOMA ","  103 22 SW ST, OKLAHOMA CITY , OK","OK",4,13,2004,-97.514588,35.443213
"OKLAHOMA ","  1155 WILSHIRE W, OKLAHOMA CITY , OK","OK",5,1,2004,-97.533907,35.551364
"OKLAHOMA ","  3501 META S AVE, OKLAHOMA CITY , OK","OK",5,8,2004,-97.5805532,35.4300347
"OKLAHOMA ","  3824 37 SW, OKLAHOMA CITY , OK","OK",5,9,2004,-97.5865077,35.4273117
"OKLAHOMA ","  9628 29 SE ST 4, OKLAHOMA CITY , OK","OK",6,22,2004,-97.3592663,35.4316317
"OKLAHOMA ","  4313 16 NW, OKLAHOMA CITY , OK","OK",6,22,2004,-97.597391,35.4862122
"OKLAHOMA ","  5712 19 NW ST 215, OKLAHOMA CITY , OK","OK",6,24,2004,-97.6180042,35.4896344
"OKLAHOMA ","  2312 HUDSON S  A, OKLAHOMA CITY , OK","OK",6,24,2004,-97.5196913,35.4429029
"OKLAHOMA ","  3500 DOUGLAS S BLVD 11, OKLAHOMA CITY , OK","OK",7,7,2004,-97.3696225,35.4283019
"OKLAHOMA ","  6805 13 NW ST, OKLAHOMA CITY , OK","OK",7,21,2004,-97.6352972,35.482514
"OKLAHOMA ","  1332 74 SW ST 227A, OKLAHOMA CITY , OK","OK",8,31,2004,-97.540728,35.3904799
"OKLAHOMA ","  1201 9TH NW ST, OKLAHOMA CITY , OK","OK",8,31,2004,-97.532144,35.4780299
"OKLAHOMA ","  6520 57TH SE, OKLAHOMA CITY , OK","OK",9,22,2004,-97.4107733,35.4081113
"OKLAHOMA ","  1417 96 NW, OKLAHOMA CITY , OK","OK",9,29,2004,-97.5388576,35.5686853
"OKLAHOMA ","  27 42 SW ST, OKLAHOMA CITY , OK","OK",11,5,2004,-97.513766,35.422977
"OKLAHOMA ","  4801 BERRYMAN  RD, OKLAHOMA CITY , OK","OK",11,12,2004,-97.358703,35.417488
"OKLAHOMA ","  1425 51 SW ST, OKLAHOMA CITY , OK","OK",12,25,2004,-97.5426947,35.41408
"OKLAHOMA ","  900 FARA N, OKLAHOMA CITY , OK","OK",12,26,2004,-97.5164276,35.4675602
"OKLAHOMA ","  5804 HARVEY S AVE B, OKLAHOMA CITY , OK","OK",1,10,2005,-97.518068,35.4075917
"OKLAHOMA ","  2444 BINKLEY W  C, OKLAHOMA CITY , OK","OK",2,17,2005,-97.5566208,35.4321827
"OKLAHOMA ","  2004 27 NW, OKLAHOMA CITY , OK","OK",5,4,2005,-97.5459769,35.497084
"OKLAHOMA ","  8300 DOUGLAS S, OKLAHOMA CITY , OK","OK",8,3,2005,-97.534691,35.3841256
"OKLAHOMA ","  33 COPELAND, OKLAHOMA CITY , OK","OK",10,2,2005,-97.5121914,35.7600621
"OKLAHOMA ","  3524 DUMAS  AVE, OKLAHOMA CITY , OK","OK",11,23,2005,-97.5781366,35.429586
"OKLAHOMA ","  500 45 SE ST, OKLAHOMA CITY , OK","OK",2,3,2006,-97.5011992,35.4195885
"OKLAHOMA ","  624 71 SE ST, OKLAHOMA CITY , OK","OK",2,13,2006,-97.5001446,35.3945051
"OKLAHOMA ","  5607 ARROWOOD  DR, OKLAHOMA CITY , OK","OK",4,1,2006,-97.5164276,35.4675602
"OKLAHOMA ","  3745 37TH SW ST, OKLAHOMA CITY , OK","OK",4,8,2006,-97.585357,35.4276918
"OKLAHOMA ","  5720 19TH NW ST 124, OKLAHOMA CITY , OK","OK",4,11,2006,-97.6175653,35.4895608
"OKLAHOMA ","  1721 1/2 4TH NW, OKLAHOMA CITY , OK","OK",1,5,2007,-97.544389,35.472129
"OKLAHOMA ","  1001 32ND SW, OKLAHOMA CITY , OK","OK",5,11,2009,-97.5328049,35.4318073
"OKLAHOMA ","  4147 20 NW, OKLAHOMA CITY , OK","OK",4,12,2010,-97.59456,35.490461
"OKLAHOMA ","  1628 7TH NW, OKLAHOMA CITY , OK","OK",11,7,2010,-97.538568,35.47556
"OKLAHOMA ","2701 EAST LINDSEY LANE 3 , OKLAHOMA CITY , OK","OK",7,23,2012,-97.5010913,35.4971035
"OKLAHOMA ","4214  HOLIDAY PLACE  , OKLAHOMA CITY , OK","OK",8,16,2012,-97.595382,35.536058
"OKLAHOMA ","8901  AARON DR DRIVE  , OKLAHOMA CITY , OK","OK",1,21,2014,-97.669344,35.561544
"OKLAHOMA ","  2916 53 SW ST, PAULS VALLEY , OK","OK",3,18,2002,-97.1343718,34.3044168
"OKLAHOMA ","  2125 18TH NW, SPENCER , OK","OK",7,13,2003,-97.3377445,35.4882103
"OKLAHOMA ","  4805 BROOKLINE S AVE, VALLEY BROOK , OK","OK",3,12,2001,-97.4814258,35.4020066
"OKLAHOMA ","512 NORTHWEST 9TH STREET  , VALLEY BROOK , OK","OK",8,10,2010,-95.6905671,38.6120917
"OKLAHOMA ","1008 SOUTHEAST 51ST STREET  , VILLAGE , OK","OK",1,18,2003,-97.4936798,35.4138092
"OKLAHOMA ","2805 SOUTHEAST 57TH STREET  , WARR ACRES , OK","OK",9,25,2000,-97.5834533,35.5288428
"OKLAHOMA ","5613  ARROW DRIVE  , WARR ACRES , OK","OK",2,1,2001,-97.6189304,35.5225567
"OKLAHOMA ","708  WATERVIEW ROAD  , WARR ACRES , OK","OK",4,17,2001,-97.6189304,35.5225567
"OKLAHOMA ","7316  KINGS RIDGE ROAD  , WARR ACRES , OK","OK",10,21,2003,-97.635734,35.5464119
"OKLAHOMA ","  2708 CRAMER, WILSON , OK","OK",5,4,2001,-97.4258551,34.1620385
"OKMULGEE ","  5404 MACARTHUR N BLVD, BEGGS , OK","OK",7,28,2000,-96.0702731,35.7425976
"OKMULGEE ","  3719 ST CHARLES N, BEGGS , OK","OK",5,15,2009,-96.0702731,35.7425976
"OKMULGEE ","  5710 42ND NW ST, BEGGS , OK","OK",10,8,2009,-96.0702731,35.7425976
"OKMULGEE ","  6037 58TH NW ST, BEGGS , OK","OK",8,26,2011,-96.0702731,35.7425976
"OKMULGEE ","  4702 HARVARD N AVE, HENRYETTA , OK","OK",3,25,2001,-95.9819429,35.4398261
"OKMULGEE ","  1225 ANDERSON W, HENRYETTA , OK","OK",12,3,2001,-98.1239758,33.7867995
"OKMULGEE ","  17501 HOGGBACK  RD, HENRYETTA , OK","OK",10,22,2002,-95.9819429,35.4398261
"OKMULGEE ","  8775 220 N RD, HENRYETTA , OK","OK",6,10,2009,-95.9814704,35.5073053
"OKMULGEE ","405 NORTH MUSKOGEE STREET  , HENRYETTA , OK","OK",8,18,2009,-95.9819429,35.4398261
"OKMULGEE ","9881  LITTLE ROAD  , HENRYETTA , OK","OK",9,17,2009,-95.9819429,35.4398261
"OKMULGEE ","9984  OLD HWY 75, HENRYETTA , OK","OK",3,9,2010,-95.9819429,35.4398261
"OKMULGEE ","  18460 HOFFMAN  RD, HENRYETTA , OK","OK",9,8,2011,-95.864603,35.489404
"OKMULGEE ","  3 3  RT  585, MOUNDS , OK","OK",4,10,2006,-95.9966259,35.86367
"OKMULGEE ","  1204 DOLLINS N ST, MOUNDS , OK","OK",7,22,2011,-96.0606892,35.8715222
"OKMULGEE ","  10165 CHESTNUT  ST, OKMULGEE , OK","OK",9,1,2000,-96.0078407,35.5074098
"OKMULGEE ","  1211 DOLLINS N, OKMULGEE , OK","OK",1,8,2001,-95.9771182,35.451842
"OKMULGEE ","31445 SOUTH 210 ROAD  , OKMULGEE , OK","OK",1,16,2001,-95.9974969,35.5956614
"OKMULGEE ","509 NORTHEAST 1ST STREET  , OKMULGEE , OK","OK",5,10,2001,-95.9525843,35.627223
"OKMULGEE ","307 NORTH 7TH STREET  , OKMULGEE , OK","OK",8,9,2001,-95.9688729,35.6224201
"OKMULGEE ","415 EAST ORANGE STREET  , OKMULGEE , OK","OK",2,4,2002,-95.975594,35.45356
"OKMULGEE ","203 SOUTH 17TH STREET  , OKMULGEE , OK","OK",3,8,2002,-95.9751518,35.6117561
"OKMULGEE ","21355  SMITH ROAD  , OKMULGEE , OK","OK",9,8,2002,-95.9796013,35.668159
"OKMULGEE ","2345 NORTH 230 PLAZA  , OKMULGEE , OK","OK",1,27,2003,-95.9619538,35.6851611
"OKMULGEE ","14744  CREAGOR ROAD  , OKMULGEE , OK","OK",1,31,2003,-95.824081,35.8272007
"OKMULGEE ","  450 GRACE N, OKMULGEE , OK","OK",2,18,2003,-95.9321609,35.6256709
"OKMULGEE ","  400 OKLAHOMA N ST, OKMULGEE , OK","OK",4,23,2003,-95.980071,35.625777
"OKMULGEE ","  1200 MADISON N, OKMULGEE , OK","OK",4,24,2003,-95.987584,35.635923
"OKMULGEE ","  413 1/2 TAFT N ST, OKMULGEE , OK","OK",8,23,2003,-95.981686,35.626142
"OKMULGEE ","  616 FLORIDA S ST, OKMULGEE , OK","OK",3,18,2004,-95.978022,35.617403
"OKMULGEE ","  1406 OKMULGEE N ST, OKMULGEE , OK","OK",9,15,2004,-95.975638,35.639722
"OKMULGEE ","  10500 191 N RD, OKMULGEE , OK","OK",9,19,2004,-96.0331149,35.7047567
"OKMULGEE ","  2409 4TH E ST, OKMULGEE , OK","OK",9,24,2006,-95.9321543,35.6243102
"OKMULGEE ","  1408 EUFAULA W ST, OKMULGEE , OK","OK",8,13,2008,-95.987709,35.638109
"OKMULGEE ","  810 9TH W ST, OKMULGEE , OK","OK",4,22,2009,-95.980679,35.62006
"OKMULGEE ","  716 EMERSON, OKMULGEE , OK","OK",8,28,2009,-95.963074,35.611468
"OKMULGEE ","  12950 BANYAN W RD, OKMULGEE , OK","OK",11,4,2009,-95.9623885,35.5809252
"OKMULGEE ","  1400 OKMULGEE N ST, OKMULGEE , OK","OK",2,23,2010,-95.975639,35.639296
"OKMULGEE ","  10165 CHESTNUT  RD, OKMULGEE , OK","OK",3,25,2010,-96.0078407,35.5074098
"OKMULGEE ","  1721 COLLINS N ST, OKMULGEE , OK","OK",4,1,2010,-95.9772179,35.644244
"OKMULGEE ","3465  PICKERING DRIVE  , OKMULGEE , OK","OK",9,4,2010,-96.1288877,35.6910453
"OKMULGEE ","1200 NORTH MADISON, OKMULGEE , OK","OK",11,5,2010,-95.987584,35.635923
"OKMULGEE ","1611  PARK LANE  , OKMULGEE , OK","OK",11,22,2010,-95.947841,35.61424
"OKMULGEE ","2710 NORTH MIAMI AVENUE 403 , OKMULGEE , OK","OK",12,17,2010,-95.9557205,35.6545837
"OKMULGEE ","1402 EAST 4TH STREET  , OKMULGEE , OK","OK",12,20,2010,-95.9526603,35.6244255
"OKMULGEE ","800 NORTH OKMULGEE STREET  , OKMULGEE , OK","OK",7,27,2011,-95.975505,35.630185
"OKMULGEE ","815 WEST 7 STREET  , OKMULGEE , OK","OK",8,16,2011,-95.980435,35.622577
"OKMULGEE ","618 SOUTH MORTON AVENUE  , OKMULGEE , OK","OK",9,8,2011,-95.973011,35.617376
"OSAGE ","1400 EAST 36TH STREET  , BARNSDALL , OK","OK",1,3,2000,-96.1616673,36.5620247
"OSAGE ","217 WEST 9TH STREET  , BARNSDALL , OK","OK",2,22,2000,-96.1665129,36.5638425
"OSAGE ","100  CREEK FOREST  182 , BARNSDALL , OK","OK",2,20,2009,-96.1616673,36.5620247
"OSAGE ","1231 WEST 6TH STREET 1 , BARNSDALL , OK","OK",5,20,2009,-96.1642981,36.5607411
"OSAGE ","1002 NORTH WILLIAMS, BARTLESVILLE , OK","OK",1,29,2003,-95.9808179,36.7473114
"OSAGE ","1006 WEST 7TH STREET  , BARTLESVILLE , OK","OK",10,14,2010,-95.9429829,36.798138
"OSAGE ","718 NORTH GRIFFIN AVENUE  , BARTLESVILLE , OK","OK",12,18,2010,-95.9808179,36.7473114
"OSAGE ","1412 WEST 6TH STREET  , BARTLESVILLE , OK","OK",2,18,2011,-95.9961886,36.7479318
"OSAGE ","917 WEST FIRST, BURBANK , OK","OK",3,30,2002,-96.726387,36.6979145
"OSAGE ","  4775 224 N RD, FAIRFAX , OK","OK",1,14,2000,-95.9751554,35.6339734
"OSAGE ","  206 5 N ST, FAIRFAX , OK","OK",7,18,2002,-96.706949,36.5722164
"OSAGE ","  201 MAPLE W ST, FAIRFAX , OK","OK",1,12,2003,-96.7056661,36.5747792
"OSAGE ","219 WEST BIRCH, HOMINY , OK","OK",6,3,2003,-96.3952963,36.4142357
"OSAGE ","  WEST MAPLE STREET 512 , HOMINY , OK","OK",6,25,2003,-96.3967058,36.4206185
"OSAGE ","322  COUNTY TOAD 3002, HOMINY , OK","OK",10,7,2010,-96.5097804,36.5127875
"OSAGE ","12603  STATE HWY 123, OSAGE , OK","OK",5,24,2009,-96.0060623,36.7038958
"OSAGE ","  439 CARTER  AVE, PAWHUSKA , OK","OK",10,25,2001,-96.3372309,36.6678426
"OSAGE ","  560 1 N ST, PAWHUSKA , OK","OK",4,25,2002,-96.3331193,36.6583145
"OSAGE ","  903 MCKINNELY, PAWHUSKA , OK","OK",10,8,2002,-96.5505761,36.766713
"OSAGE ","  351 TALLCHIEF, PAWHUSKA , OK","OK",5,6,2008,-96.3372309,36.6678426
"OSAGE ","  518 1ST W, PAWHUSKA , OK","OK",2,22,2010,-96.3332784,36.6583171
"OSAGE ","  1313 CANARY  DR, PONCA CITY , OK","OK",5,13,2009,-97.0891462,36.7273064
"OSAGE ","1519  DENOYA, PONCA CITY , OK","OK",3,31,2010,-96.9821949,36.6674421
"OSAGE ","823 EAST 12TH STREET  , SAND SPRINGS , OK","OK",9,27,2001,-96.1013575,36.1518243
"OSAGE ","  8 TIMBERLINE, SAND SPRINGS , OK","OK",6,25,2002,-96.108891,36.1398102
"OSAGE ","  3732 KELLY  AVE, SKIATOOK , OK","OK",6,28,2001,-96.0013847,36.3684245
"OSAGE ","  CATFISH DRIVE 252 , SKIATOOK , OK","OK",8,5,2002,-96.0013847,36.3684245
"OSAGE ","153  VICTORY STREET  , SKIATOOK , OK","OK",8,28,2003,-96.0013847,36.3684245
"OSAGE ","564  NORTH CITY VIEW, SKIATOOK , OK","OK",9,28,2004,-96.0013847,36.3684245
"OSAGE ","  3875 197TH W N AVE, SKIATOOK , OK","OK",9,14,2006,-96.0013847,36.3684245
"OSAGE ","  9823 MOVELIA HILLS, SKIATOOK , OK","OK",5,9,2007,-96.0013847,36.3684245
"OSAGE ","  9803 BRIAR CLIFF  RD, SKIATOOK , OK","OK",10,22,2008,-96.0013847,36.3684245
"OSAGE ","2223  OVERLOOK DRIVE  , SKIATOOK , OK","OK",5,4,2009,-96.1252773,36.3764386
"OSAGE ","2998 WEST 177TH WEST AVENUE  , SKIATOOK , OK","OK",8,17,2009,-96.0013847,36.3684245
"OSAGE ","5028 NORTH BUCK TRAIL  , SKIATOOK , OK","OK",9,28,2009,-96.0013847,36.3684245
"OSAGE ","  114 BIGHORN N ST 9, SPERRY , OK","OK",2,6,2001,-96.0325966,36.3689413
"OSAGE ","  4 J-VINE  RD, SPERRY , OK","OK",6,29,2001,-95.991386,36.2973134
"OSAGE ","  4607 MUNSON W RD, SPERRY , OK","OK",1,8,2003,-96.0393278,36.384849
"OSAGE ","5561 NORTH JAVINE HILL ROAD  , SPERRY , OK","OK",3,21,2003,-96.0368097,36.4213572
"OSAGE ","704 SOUTH PERSHING STREET  , SPERRY , OK","OK",3,24,2003,-96.022031,36.362625
"OSAGE ","4217 WEST PERRIER STREET  , SPERRY , OK","OK",5,31,2003,-96.0354306,36.3717051
"OSAGE ","420 WEST 6TH STREET  , SPERRY , OK","OK",7,10,2008,-96.006905,36.364906
"OSAGE ","415 NORTH CHOCTAW STREET  , TULSA , OK","OK",5,15,2002,-95.9032287,36.2160694
"OSAGE ","213 NORTH BUFFALO STREET  , TULSA , OK","OK",6,10,2002,-96.033846,36.370593
"OSAGE ","415 NORTH CHOCTAW, TULSA , OK","OK",1,2,2003,-95.9032287,36.2160694
"OSAGE ","  9452 OSAGE N DR, , OK","OK",2,26,2006,-96.0014371,36.2460748
"OTTAWA ","4110 WEST 53RD N AVENUE  , AFTON , OK","OK",5,25,2001,-94.9630171,36.693687
"OTTAWA ","  1403 UNION N AVE, AFTON , OK","OK",6,24,2010,-94.9630171,36.693687
"OTTAWA ","  3536 35TH N ST, COMMERCE , OK","OK",5,4,2001,-94.8730095,36.9334023
"OTTAWA ","  6002 58TH NW ST, COMMERCE , OK","OK",5,27,2002,-94.8730095,36.9334023
"OTTAWA ","  3536 35TH W N AVE, FAIRLAND , OK","OK",3,30,2001,-94.8474567,36.7511833
"OTTAWA ","3034 WEST 43RD ST N STREET  , FAIRLAND , OK","OK",12,29,2002,-94.8474567,36.7511833
"OTTAWA ","4744 NORTH 53RD W STREET  , FAIRLAND , OK","OK",1,4,2003,-94.8474567,36.7511833
"OTTAWA ","3808 WEST 43RD ST. NORTH, FAIRLAND , OK","OK",7,2,2008,-94.8474567,36.7511833
"OTTAWA ","  106 ROSS S, MIAMI , OK","OK",10,5,2001,-94.96698,36.69126
"OTTAWA ","  314 DOWNING S, MIAMI , OK","OK",5,29,2003,-94.965164,36.686599
"OTTAWA ","106 NORTH 1ST, MIAMI , OK","OK",9,15,2003,-94.8788663,36.8762424
"OTTAWA ","  310 MAIN N, MIAMI , OK","OK",9,23,2003,-94.8772362,36.8794241
"OTTAWA ","  116 QUINCY N ST, MIAMI , OK","OK",1,26,2004,-94.874988,36.934136
"OTTAWA ","193 EAST 61201 ROAD  , MIAMI , OK","OK",8,6,2006,-95.9573587,35.6243929
"OTTAWA ","  2230 WILLOW  LN, MIAMI , OK","OK",12,7,2006,-94.85848,36.901656
"OTTAWA ","  505 ROCKDALE  AVE, MIAMI , OK","OK",2,5,2008,-94.864094,36.881778
"OTTAWA ","  225 8TH SE AVE, MIAMI , OK","OK",12,5,2008,-94.874441,36.864672
"OTTAWA ","  11619 LAKE S DR, MIAMI , OK","OK",10,5,2010,-94.8211552,36.8474964
"OTTAWA ","  114 1/2 F NW ST, MIAMI , OK","OK",1,18,2011,-94.883739,36.876646
"OTTAWA ","412 NORTHWEST J STREET  , MIAMI , OK","OK",3,21,2011,-94.888115,36.880508
"OTTAWA ","1400 NORTHEAST 16TH AVENUE  , MIAMI , OK","OK",8,10,2011,-94.8619012,36.8927372
"OTTAWA ","520 NORTHEAST F STREET  , MIAMI , OK","OK",7,12,2012,-94.8709184,36.8822261
"OTTAWA ","215 SOUTHEAST F ST SE STREET  , MIAMI , OK","OK",12,13,2013,-94.8712309,36.871981
"OTTAWA ","623  NEBRASKA STREET  , NORTH MIAMI , OK","OK",10,10,2012,-94.8820001,36.9199322
"OTTAWA ","306 NORTHEAST 11TH PLACE  , PICHER , OK","OK",1,16,2001,-94.822652,36.973339
"OTTAWA ","307 NORTHWEST L STREET  , PICHER , OK","OK",9,18,2001,-94.8341184,36.9833198
"OTTAWA ","57765 EAST 40TH ROAD  , PICHER , OK","OK",12,6,2001,-94.8467552,36.9580771
"OTTAWA ","2040 NORTHEAST A STREET  , PICHER , OK","OK",10,17,2002,-94.8444785,36.9870694
"OTTAWA ","207 SOUTHEAST M STREET 1 , QUAPAW , OK","OK",12,5,2001,-94.7938112,36.9580655
"OTTAWA ","21 NORTHEAST H, QUAPAW , OK","OK",11,12,2002,-94.6733742,36.9155261
"OTTAWA ","200  CHESTNUT STREET  , QUAPAW , OK","OK",2,1,2012,-94.7934594,36.9562748
"OTTAWA ","2013 SOUTHWEST P, WYANDOTTE , OK","OK",1,19,2000,-97.4285714,35.247763
"OTTAWA ","315 NORTHWEST S STREET  , WYANDOTTE , OK","OK",2,16,2001,-95.970428,36.749141
"OTTAWA ","321 NORTHWEST PARK AVENUE  , WYANDOTTE , OK","OK",4,4,2001,-95.9303706,36.5324416
"OTTAWA ","118 SOUTHEAST C STREET  , WYANDOTTE , OK","OK",11,5,2004,-95.1722599,36.2010291
"OTTAWA ","  321 PICHER  ST, WYANDOTTE , OK","OK",2,7,2011,-94.7252284,36.7934028
"OTTAWA ","68800 EAST 134TH ROAD  , WYANDOTTE , OK","OK",10,8,2012,-94.6458914,36.8219476
"PAWNEE ","68651 EAST COUNTRY ROAD 175, CLEVELAND , OK","OK",3,27,2003,-97.5604341,35.3593618
"PAWNEE ","  110 SLOAN S ST, TERLTON , OK","OK",9,7,2001,-96.4902982,36.1881257
"PAYNE ","305 WEST DELAWARE STREET 8 , CUSHING , OK","OK",3,9,2001,-96.76697,35.9850639
"PAYNE ","99 CLUB  RD, CUSHING , OK","OK",12,7,2001,-96.76697,35.9850639
"PAYNE ","  225 DIVINE E ST, CUSHING , OK","OK",11,29,2003,-96.76697,35.9850639
"PAYNE ","43101 EAST 43RD ROAD  , CUSHING , OK","OK",12,6,2003,-96.76697,35.9850639
"PAYNE ","  314 LUELLA N ST, CUSHING , OK","OK",9,26,2011,-96.781723,35.9828455
"PAYNE ","925 EAST 2ND STREET  , CUSHING , OK","OK",2,23,2012,-96.7595996,35.977785
"PAYNE ","1108 EAST E GREENLEE ST, CUSHING , OK","OK",12,4,2013,-96.7560743,35.9873146
"PAYNE ","  1040 BRETHREN S RD, DRUMRIGHT , OK","OK",9,4,2001,-96.6011294,35.9884013
"PAYNE ","  3745 LINWOOD N RD, DRUMRIGHT , OK","OK",1,27,2003,-96.6011294,35.9884013
"PAYNE ","700 SOUTH CLEVELAND AVENUE  , GLENCOE , OK","OK",1,14,2011,-81.573953,41.576679
"PAYNE ","1209  GREEN LEE, ORLANDO , OK","OK",7,31,2001,-97.378098,36.1489309
"PAYNE ","1227 EAST GREENLEE STREET  , PERKINS , OK","OK",3,17,2003,-96.7530734,35.9868484
"PAYNE ","1200 EAST PECAN  #16 , PERKINS , OK","OK",11,21,2003,-98.2055275,26.2149794
"PAYNE ","3923 NORTH LINWOOD, PERKINS , OK","OK",5,25,2009,-96.748552,36.021386
"PAYNE ","509 EAST WALNUT, PERKINS , OK","OK",8,25,2009,-97.07752,36.116894
"PAYNE ","6619 WEST MAIN STREET  , PERKINS , OK","OK",8,13,2010,-97.0337142,35.9788502
"PAYNE ","523.5 EAST MOSES STREET  , PERKINS , OK","OK",9,7,2010,-96.766583,35.980718
"PAYNE ","  1307 MAIN N ST, PERKINS , OK","OK",9,7,2010,-97.0337324,35.9810758
"PAYNE ","111 SOUTH ROSE AVENUE  , STILLWATER , OK","OK",2,12,2000,-96.926053,36.1240297
"PAYNE ","  5606 104TH E ST, STILLWATER , OK","OK",2,29,2000,-96.982957,36.002862
"PAYNE ","  7514 104TH E AVE, STILLWATER , OK","OK",3,6,2000,-96.955822,36.0011579
"PAYNE ","3405 SOUTH BRUSH CREEK, STILLWATER , OK","OK",10,25,2000,-97.015427,36.1561416
"PAYNE ","423 NORTHWEST 3RD STREET 5 , STILLWATER , OK","OK",12,23,2000,-97.0543965,36.1189577
"PAYNE ","710 EAST 104TH STREET  , STILLWATER , OK","OK",1,15,2001,-97.0499937,35.9999901
"PAYNE ","204 NORTHEAST 5TH, STILLWATER , OK","OK",1,16,2001,-97.0601814,36.1167477
"PAYNE ","918 WEST FREEMAN  #19 , STILLWATER , OK","OK",1,24,2001,-93.5794885,36.3707217
"PAYNE ","401 SOUTH MORTON STREET  , STILLWATER , OK","OK",1,27,2001,-96.906068,36.015752
"PAYNE ","  6909 RANGE S RD, STILLWATER , OK","OK",1,31,2001,-97.1382891,36.0406372
"PAYNE ","  500 MCDONALD N ST 90-3, STILLWATER , OK","OK",3,20,2001,-97.0805997,36.1302547
"PAYNE ","  8203 44TH E ST, STILLWATER , OK","OK",3,23,2001,-96.9948588,36.0726351
"PAYNE ","  810 JARDOT S, STILLWATER , OK","OK",6,1,2001,-97.0355469,36.112539
"PAYNE ","  4514 FURMAN  DR, STILLWATER , OK","OK",3,15,2004,-97.1221775,36.1731231
"PAYNE ","  1718 YOST  RD, STILLWATER , OK","OK",2,9,2007,-97.0802,36.2027737
"PAYNE ","  904 JAMES S CT, STILLWATER , OK","OK",7,22,2009,-97.0801168,36.1454805
"PAYNE ","  1018 KNOBLOCK  ST, STILLWATER , OK","OK",10,11,2009,-97.0654448,36.1102959
"PAYNE ","  3019 LAKEVIEW  ST, STILLWATER , OK","OK",11,16,2009,-97.0195865,36.1451624
"PAYNE ","  225 1/2 HUSBAND N  2, STILLWATER , OK","OK",7,2,2010,-97.0603618,36.1245142
"PAYNE ","  1315 FERN S, STILLWATER , OK","OK",12,9,2010,-97.052829,36.107386
"PAYNE ","  8 COUNTRY  LN, STILLWATER , OK","OK",1,14,2011,-97.0337774,36.1649644
"PAYNE ","3102 SOUTH MAIN STREET F107 , STILLWATER , OK","OK",2,19,2012,-97.059597,36.0876919
"PAYNE ","1112 SOUTH ADAMS STREET  , STILLWATER , OK","OK",8,9,2012,-97.072748,36.109257
"PAYNE ","2813 WEST LISA CIRCLE  , YALE , OK","OK",7,1,2010,-96.6991933,36.1142305
"PAYNE ","201 EAST 32RD, YALE , OK","OK",8,18,2010,-96.7719049,36.086971
"PAYNE ","208 NORTH HUSBAND STREET  , YALE , OK","OK",8,18,2010,-96.6991933,36.1142305
"PITTSBURG ","101 EAST 80TH STREET  , ASHLAND , OK","OK",8,15,2003,-96.0697207,34.7678718
"PITTSBURG ","8422 EAST 67TH STREET  , CANADIAN , OK","OK",8,11,2010,-97.7874851,35.3979159
"PITTSBURG ","2221 EAST LYDIA LANE  , HAILEYVILLE , OK","OK",8,2,2008,-95.5822044,34.8545426
"PITTSBURG ","8484 EAST VALLEY SPRINGS ROAD  , HARTSHORNE , OK","OK",1,26,2001,-95.5574811,34.8450984
"PITTSBURG ","801 SOUTH GREYSTONE STREET  , HARTSHORNE , OK","OK",3,1,2001,-95.5574811,34.8450984
"PITTSBURG ","420  E BEAUMONT AVE  2 , HARTSHORNE , OK","OK",10,3,2003,-95.5574811,34.8450984
"PITTSBURG ","420 EAST BEAUMONT STREET 5 , KIOWA , OK","OK",1,14,2010,-95.8991586,34.7206515
"PITTSBURG ","208 E ROOSEVELT STREET BOX 1 , KIOWA , OK","OK",3,13,2015,-95.8991586,34.7206515
"PITTSBURG ","420 EAST BEAUMONT STREET 7 , KREBS , OK","OK",2,2,2009,-95.7158221,34.9278748
"PITTSBURG ","529 EAST SMITH, MAZIE , OK","OK",3,9,2013,-95.3631725,36.1072897
"PITTSBURG ","800  G STREET  , MCALESTER , OK","OK",10,23,2002,-95.7796497,34.9429701
"PITTSBURG ","  901 LEHIGH20, MCALESTER , OK","OK",3,19,2003,-95.5585061,34.8444585
"PITTSBURG ","  931 LEHIGH  ST 1 & 2, MCALESTER , OK","OK",1,28,2004,-96.2150439,34.4700264
"PITTSBURG ","  1530 PENNSYLVANIA  AVE, MCALESTER , OK","OK",3,14,2008,-95.5466399,34.8421374
"PITTSBURG ","30 SOUTHEAST 3RD, MCALESTER , OK","OK",3,14,2009,-95.7662084,34.9308914
"PITTSBURG ","  501 CARL ALBERT W PKWY, MCALESTER , OK","OK",8,3,2009,-95.7769701,34.9352679
"PITTSBURG ","  900 MADISON E ST, MCALESTER , OK","OK",8,6,2009,-95.7558538,34.9344326
"PITTSBURG ","1015 SOUTH ELM, MCALESTER , OK","OK",8,15,2012,-95.7736661,34.9212831
"PITTSBURG ","45 EAST DANCING RABBIT ROAD  , MCALESTER , OK","OK",3,9,2013,-95.5902483,35.0308554
"PITTSBURG ","715 EAST CRISLER AVE AVENUE  , MCALESTER , OK","OK",3,16,2013,-95.7532763,34.9493476
"PITTSBURG ","103 EAST E CRISLER AVE, MCALESTER , OK","OK",1,9,2014,-95.7623293,34.9496043
