COUNTY,FullAddress,Month,Date,Year,Latitude,Longitude
ACCOMACK ,"17349  MUSIC CIR CIRCLE  , PARKSLEY , VA",2,14,2014,37.797359,-75.596415
ALBEMARLE ,"7273  TRUMP ROAD , COMMONWEALTH , VA",9,9,2015,38.074625,-78.487461
ALLEGHANY ,"318  ROXBURY STREET , CLIFTON FORGE , VA",3,4,2015,37.817514,-79.829837
ALLEGHANY ,"111  KARNS RD/KARNES RD ROAD  , COVINGTON , VA",3,28,2014,37.793459,-79.993946
ALLEGHANY ,"611 NORTH GREENBRIER AVENUE , COVINGTON , VA",12,4,2014,37.798822,-79.985785
APPOMATTOX ,"2166 HOLLYWOOD ROAD , APPOMATTOX , VA",3,5,2007,37.357089,-78.825291
AUGUSTA ,"1148 ROUND HILL SCHOOL RD , CRIMORA , VA",3,21,2006,38.176361,-78.868739
AUGUSTA ,"4100  LEE JACKSON HWY HIGHWAY  , GREENVILLE , VA",3,29,2014,38.003467,-79.155863
AUGUSTA ,"31 SOUTH JOLLETT LANE , GROTTOES , VA",5,29,2007,38.20931,-78.830197
AUGUSTA ,"21  KITTERY PT, STAUNTON , VA",2,12,2014,38.11787,-79.023524
AUGUSTA ,"1204 WHITE HILL RD , STUARTS DRAFT , VA",11,11,2004,38.053803,-79.057039
AUGUSTA ,"966 OLD WHITE HILL ROAD , STUARTS DRAFT , VA",5,12,2007,38.031267,-79.059274
AUGUSTA ,"18  FORRER RD/FORRER AVE ROAD  BOX , STUARTS DRAFT , VA",9,8,2014,38.030136,-79.033637
BATH ,"11038  DRY RUN ROAD , CHURCHVILLE , VA",4,3,2015,38.22624,-79.162255
BATH ,"1682  CROOKED SPUR ROAD  , MILLBORO , VA",5,13,2010,37.987113,-79.615476
BEDFORD ,"1016 BLUE MOON , BEDFORD , VA",5,19,2004,37.32025,-79.492976
BEDFORD ,"1075  SHADY LACE LN LANE  , BEDFORD , VA",3,7,2014,37.353967,-79.460938
BEDFORD ,"1211  EDGEHILL ROAD  , MONTVALE , VA",1,7,2011,37.386358,-79.71597
BEDFORD ,"1941  SHADY ROAD  , VINTON , VA",5,26,2013,37.249424,-79.840688
BOTETOURT ,"155 WEBSTER HEIGHTS ROAD , BLUE RIDGE , VA",9,12,2008,37.360379,-79.823325
BOTETOURT ,"3254 BLUE RIDGE BOULEVARD , BLUE RIDGE , VA",9,12,2008,37.361403,-79.82361
BOTETOURT ,"1811  TIMBER RIDGE ROAD  , BUCHANAN , VA",11,22,2013,37.547893,-79.82056
BOTETOURT ,"7444  TINKERVIEW ROAD  , ROANOKE , VA",10,12,2013,37.350322,-79.915131
Bristol (city) ,"1103 LAWRENCE AVE , BRISTOL , VA",4,5,2004,36.604704,-82.190452
Bristol (city) ,"15589 LEE HWY 221 , BRISTOL , VA",10,19,2004,36.656488,-82.080258
Bristol (city) ,"9108 TIMBERBEND LN , BRISTOL , VA",11,12,2004,36.627297,-82.186122
Bristol (city) ,"626 15301 LARGE HOLLOW RD , BRISTOL , VA",3,9,2005,36.755665,-82.096207
BRISTOL (CITY) ,"321  PARD STREET  , BRISTOL , VA",6,14,2010,36.601692,-82.185255
BRISTOL (CITY) ,"763  ISLAND ROAD  , BRISTOL , VA",7,14,2010,36.605312,-82.220717
BRISTOL (CITY) ,"1  EUCLID AVENUE  , BRISTOL , VA",7,31,2010,36.60868,-82.175529
BRISTOL (CITY) ,"183  2ND STREET G , BRISTOL , VA",8,19,2010,36.603165,-82.161315
BRISTOL (CITY) ,"1010  NEWTON STREET 302 , BRISTOL , VA",8,26,2010,36.596389,-82.195689
BRISTOL (CITY) ,"651  QUARRY STREET L-2 , BRISTOL , VA",8,26,2010,36.60116,-82.182462
BRISTOL (CITY) ,"15  DUKE STREET  , BRISTOL , VA",11,16,2010,36.611421,-82.202674
BRISTOL (CITY) ,"700  CLINTON AVENUE T1 , BRISTOL , VA",12,4,2012,36.603033,-82.179832
BRISTOL (CITY) ,"225  RESERVOIR STREET  , BRISTOL , VA",5,8,2013,36.595097,-82.165693
BRISTOL (CITY) ,"170  2ND STREET E , BRISTOL , VA",6,13,2013,36.604026,-82.161591
BUCHANAN ,"1045  OLD BRIDGE ROAD  , MAVISDALE , VA",3,24,2010,37.200844,-82.006816
BUCHANAN ,"1334  BETSY BRANCH ROAD  , SHORTT GAP , VA",6,12,2010,37.165505,-81.910598
CAMPBELL ,"4478 THREE CREEKS ROAD , GLADYS , VA",5,31,2007,37.136916,-78.980892
CAMPBELL ,"1301  HARDING STREET  , LYNCHBURG , VA",1,28,2013,37.383367,-79.177772
CAMPBELL ,"98  SAGE DR DRIVE  , LYNCHBURG , VA",3,3,2014,37.357892,-79.111754
CARROLL ,"1232 CARROLL VIEW RD , FANCY GAP , VA",4,21,2004,36.661519,-80.652822
CARROLL ,"800 APACHE TRAIL , FANCY GAP , VA",6,1,2006,36.653008,-80.688971
CARROLL ,"101  STRUPE HOLLOW ROAD  , IVANHOE , VA",4,7,2009,36.840131,-80.966769
CARROLL ,"3491 (B) LAMBSBURG RD , LAMBSBURG , VA",2,16,2005,36.585086,-80.760904
CHARLOTTESVILLE (CITY) ,"706  FRANKLIN STREET 4 , CHARLOTTESVILLE , VA",10,8,2013,38.019552,-78.465419
CHESAPEAKE (CITY) ,"1220 IVY STONE WAY , CHESAPEAKE , VA",5,3,2005,36.768209,-76.287493
CHESAPEAKE (CITY) ,"725  INDIAN CREEK RD ROAD  , CHESAPEAKE , VA",3,9,2014,36.599029,-76.193187
CHESAPEAKE CITY ,"721  CONFERENCE CENTER DRIVE BOX 2 , CHESAPEAKE , VA",8,2,2015,36.768209,-76.287493
CHESTERFIELD ,"21619  STUART AVENUE  , MATOACA , VA",9,21,2010,37.227935,-77.480077
COVINGTON (CITY) ,"305  EAST LOCUST STREET  , COVINGTON , VA",1,19,2011,37.794313,-79.990626
CRAIG ,"101 PRICES CABIN ROAD , NEW CASTLE , VA",5,3,2008,37.562757,-80.029908
CRAIG ,"229  WALNUT STREET  , NEW CASTLE , VA",12,8,2010,37.502333,-80.109195
DICKENSON ,"2094 ROCKHOUSE ROAD , CLINTWOOD , VA",12,12,2006,37.150107,-82.455984
DICKENSON ,"258  OMAHA SUNSET DRIVE  , CLINTWOOD , VA",6,17,2010,37.146762,-82.45296
DICKENSON ,"1795  NEWBERRY ROAD  , CLINTWOOD , VA",5,8,2013,37.19333,-82.370644
DICKENSON ,"5746  DANTE MOUNTAIN ROAD 100 , NORA , VA",6,17,2010,37.069734,-82.345778
DICKENSON ,"14535  SANDY RIDGE ROAD  , SAINT PAUL , VA",2,17,2011,36.980156,-82.388032
DICKENSON ,"14535  SANDY RIDGE ROAD  , SAINT PAUL , VA",2,17,2011,36.980156,-82.388032
FAUQUIER ,"355 WATERLOO ST , WARRENTON , VA",3,11,2004,38.717556,-77.806708
FLOYD ,"2201 SOUTH FLOYD HIGHWAY  , FLOYD , VA",6,14,2010,36.874632,-80.376823
FLOYD ,"8701  RAMSEY BOULEVARD  , FLOYD , VA",1,16,2013,37.080092,-80.120484
FLOYD ,"  213 PINE CREEK WAY  , FLOYD , VA",2,5,2013,36.919234,-80.276787
FLOYD ,"300  172 SUNNY RIDGE ROAD  , FLOYD , VA",4,16,2013,36.973544,-80.245982
FLOYD ,"1100  WHITE OAK GROVE, RINER , VA",1,16,2013,37.006603,-80.401423
FRANKLIN ,"1252  CROWELL GAP ROAD  , BOONES MILL , VA",11,19,2012,37.170717,-79.904076
FRANKLIN ,"2569  JUBAL EARLY HIGHWAY , BOONES MILL , VA",12,12,2014,37.129776,-79.852889
FRANKLIN ,"400  RAMBLING ROSE, FERRUM , VA",11,24,2013,36.902416,-80.023345
FRANKLIN ,"7444  TINKERVIEW ROAD , ROANOKE , VA",12,8,2014,37.350322,-79.915131
FRANKLIN ,"71 CASSELL DRIVE , ROCKY MOUNT , VA",10,22,2007,36.959154,-79.88575
FRANKLIN ,"280  OLD FURNACE ROAD  , ROCKY MOUNT , VA",1,12,2013,36.989437,-79.895328
FRANKLIN ,"3199  OLD FRANKLIN TURNPIKE  , ROCKY MOUNT , VA",4,17,2013,37.017982,-79.858601
FRANKLIN ,"430  DIAMOND AVE STREET , ROCKY MOUNT , VA",8,10,2014,36.998054,-79.900037
FRANKLIN ,"406  ROUND HILL ROAD , ROCKY MOUNT , VA",7,1,2015,37.060705,-79.819722
FRANKLIN ,"35  OAK STREET , ROCKY MOUNT , VA",11,16,2015,36.996923,-79.89359
FRANKLIN ,"324 SE MONTEVISTA ROAD , UNION HALL , VA",7,20,2015,37.028056,-79.648095
FRANKLIN ,"355  HILLBROOK LANE , WIRTZ , VA",12,7,2014,37.077713,-79.725122
GILES ,"500 VIEW N ST , NARROWS , VA",5,27,2004,37.326368,-80.803757
GLOUCESTER ,"15295 GEORGE WASHINGTON HWY , GLOUCESTER , VA",9,24,2005,37.354802,-76.51209
,"3169 NORTH GEORGE WASHINGTON , , VA",,NA,NA,38.929894,-77.023339
GLOUCESTER ,"MEMORIAL HIGHWAY , HAYES , VA",2,15,2012,37.564929,-76.615596
GRAYSON ,"2568 PEACH BOTTOM RD , INDEPENDENCE , VA",6,2,2004,36.652559,-81.130666
GRAYSON ,"110 WAKEFIELD LN , MOUTH OF WILSON , VA",1,22,2004,36.603866,-81.46665
GRAYSON ,"110 POTATO CREEK ROAD , MOUTH OF WILSON , VA",4,24,2006,36.576531,-81.24202
HARRISONBURG (CITY) ,"645  NORTH DOGWOOD DRIVE  , HARRISONBURG , VA",7,14,2010,38.458129,-78.876787
HARRISONBURG CITY ,"1232  COMMERCE COURT BOX 1232 , HARRISONBURG , VA",2,20,2015,38.449569,-78.868916
HENRICO ,"7102 FERNWOOD STREET , RICHMOND , VA",12,5,2006,37.615844,-77.505513
HENRY ,"221  AMOS ROAD  , MARTINSVILLE , VA",5,2,2013,36.712851,-79.862645
LEE ,"160  ARROWHEAD ROAD  , DUFFIELD , VA",6,12,2012,36.761409,-82.829414
LEE ,"1847  KLONDIKE ROAD  , DUFFIELD , VA",7,1,2013,36.74395,-82.914295
LEE ,"RT 606 INTERS. OF RT T1006 , KEOKEE , VA",2,19,2005,36.858982,-82.904052
LEE ,"327  HILTON DRIVE  , PENNINGTON GAP , VA",5,7,2013,36.728291,-82.98988
LEE ,"S RT 2 245 , ROSE HILL , VA",1,1,2004,38.029508,-78.481272
LYNCHBURG (CITY) ,"2800 KULMAN PLACE , LYNCHBURG , VA",2,2,2007,37.41373,-79.188367
LYNCHBURG (CITY) ,"1810  FLORIDA AVE AVENUE  , LYNCHBURG , VA",1,18,2013,37.388924,-79.132221
MARTINSVILLE (CITY) ,"1542  STULTZ ROAD  , MARTINSVILLE , VA",5,22,2013,36.70437,-79.894457
MARTINSVILLE (CITY) ,"1542  STULTZ ROAD  , MARTINSVILLE , VA",6,15,2013,36.70437,-79.894457
MARTINSVILLE (CITY) ,"801  FOREST STBOX 2 , MARTINSVILLE , VA",8,1,2014,36.691526,-79.872539
MONTGOMERY ,"317 CLAY ST , BLACKSBURG , VA",2,1,2005,37.228666,-80.409654
MONTGOMERY ,"3110  MEADOWBROOK DRIVE B , BLACKSBURG , VA",3,13,2013,37.246352,-80.464082
MONTGOMERY ,"401  GIVENS LN  28 , BLACKSBURG , VA",2,24,2014,37.2519,-80.4197
MONTGOMERY ,"3809  PRICES FORK RD, BLACKSBURG , VA",2,28,2014,37.212747,-80.47721
MONTGOMERY ,"3670  DEER RUN ROAD , BLACKSBURG , VA",7,22,2015,37.2636,-80.3646
MONTGOMERY ,"1222  PATRICK HENRY DRIVE , BLACKSBURG , VA",8,3,2015,37.2472,-80.4199
MONTGOMERY ,"3350  Trillium LANE , BLACKSBURG , VA",3,19,2016,37.244954,-80.43828
MONTGOMERY ,"205 STARLIGHT DR , CHRISTIANSBURG , VA",1,5,2005,37.131043,-80.380239
MONTGOMERY ,"1563  FIRE TOWER ROAD  , CHRISTIANSBURG , VA",9,19,2010,37.127888,-80.499972
MONTGOMERY ,"137  ELLETT DRIVE  , CHRISTIANSBURG , VA",11,12,2010,37.127681,-80.400903
MONTGOMERY ,"1600  SIMPSON ROAD 921 , CHRISTIANSBURG , VA",12,10,2010,37.139617,-80.378789
MONTGOMERY ,"80  RED OAK DRIVE 1 , CHRISTIANSBURG , VA",1,14,2011,37.1725,-80.4196
MONTGOMERY ,"955  RIDGEWAY DRIVE, CHRISTIANSBURG , VA",4,10,2013,37.1481,-80.3915
MONTGOMERY ,"960  WALTON ROAD, CHRISTIANSBURG , VA",5,29,2013,37.150439,-80.511037
MONTGOMERY ,"3171  ESKRIDGE ROAD  LOT 5 , CHRISTIANSBURG , VA",6,25,2013,37.129852,-80.408939
MONTGOMERY ,"1420  HARMON DRIVE  , CHRISTIANSBURG , VA",7,2,2013,37.126667,-80.436093
MONTGOMERY ,"1224  ROCK ROAD  LOT 79 , CHRISTIANSBURG , VA",7,3,2013,37.127008,-80.516394
,"2432 NORTHWEST PEPPERS FERRY , , VA",,NA,NA,37.17126,-80.480786
MONTGOMERY ,"ROAD  , CHRISTIANSBURG , VA",7,4,2013,36.971909,-80.327667
MONTGOMERY ,"175  EAST STREET  67 , CHRISTIANSBURG , VA",10,4,2013,37.133932,-80.393162
MONTGOMERY ,"795  MONTGOMERY ST STREET  , CHRISTIANSBURG , VA",1,26,2014,37.142,-80.402
MONTGOMERY ,"3300  SPRINGVIEW DR, CHRISTIANSBURG , VA",2,21,2014,37.126,-80.4978
MONTGOMERY ,"4424  BLUEGRASS RD, CHRISTIANSBURG , VA",2,27,2014,37.048809,-80.506264
MONTGOMERY ,"231  DALET DRIVE, CHRISTIANSBURG , VA",3,11,2014,37.179124,-80.419427
MONTGOMERY ,"1060  THORN LANE BOX 42 , CHRISTIANSBURG , VA",2,2,2015,37.129852,-80.408939
MONTGOMERY ,"1701  TESTERMAND DRIVE , CHRISTIANSBURG , VA",3,29,2015,37.1248,-80.506
MONTGOMERY ,"140  SUMMIT RIDGE ROAD , CHRISTIANSBURG , VA",6,6,2015,37.1193,-80.3996
MONTGOMERY ,"2060 E EAST LANE , CHRISTIANSBURG , VA",7,29,2015,37.133614,-80.393061
MONTGOMERY ,"385  LIGHT STREET , CHRISTIANSBURG , VA",9,21,2015,37.133284,-80.421953
MONTGOMERY ,"17 SE Alleghany STREET , CHRISTIANSBURG , VA",2,23,2016,37.1246,-80.4004
MONTGOMERY ,"1345  Rigby STREET , CHRISTIANSBURG , VA",3,8,2016,37.1473,-80.4076
MONTGOMERY ,"1805  Gallimore STREET , CHRISTIANSBURG , VA",3,9,2016,37.1238,-80.492
MONTGOMERY ,"320  White Pine DRIVE , CHRISTIANSBURG , VA",3,23,2016,37.1422,-80.3367
MONTGOMERY ,"9388  US 460, ELLISTON , VA",4,19,2010,37.2202,-80.228405
MONTGOMERY ,"164  BRAKE ROAD 4 , ELLISTON , VA",4,19,2010,37.215296,-80.229601
MONTGOMERY ,"164  BRAKE ROAD 4 , ELLISTON , VA",4,19,2010,37.215296,-80.229601
MONTGOMERY ,"4161  BRADSHAW ROAD  , ELLISTON , VA",7,1,2010,37.2829,-80.2485
MONTGOMERY ,"5233  COLES ROAD, ELLISTON , VA",12,12,2012,37.206998,-80.214262
MONTGOMERY ,"4733  CALLOWAY STREET  6 , ELLISTON , VA",3,19,2013,37.216288,-80.229766
MONTGOMERY ,"9757  OLD ROANOKE ROAD, ELLISTON , VA",6,19,2013,37.221528,-80.213919
MONTGOMERY ,"1018  BRAKE RD  21 , ELLISTON , VA",12,9,2013,37.197118,-80.213894
,"1641  MOOMAW CIR/MOONMAW CIR , , VA",,NA,NA,37.431573,-78.656894
MONTGOMERY ,"CIRCLE  , ELLISTON , VA",1,17,2014,37.423797,-79.915206
MONTGOMERY ,"4737  CALLOWAY ST  LOT 4 , ELLISTON , VA",3,19,2014,37.21628,-80.229745
MONTGOMERY ,"5215  Brooman DRIVE BOX 39 , ELLISTON , VA",2,21,2016,37.216178,-80.229465
MONTGOMERY ,"1301  HIGH ROCK HILL RD ROAD  , PILOT , VA",1,3,2014,37.056937,-80.343603
MONTGOMERY ,"4247  NECTARINE DRIVE , PILOT , VA",8,16,2015,37.0593,-80.3543
MONTGOMERY ,"3932  WINESAP ROAD  , RADFORD , VA",1,24,2011,37.1533,-80.5196
MONTGOMERY ,"1555  UNION VALLEY ROAD 4 , RINER , VA",1,3,2011,37.0635,-80.427
MONTGOMERY ,", RINER , VA",8,6,2015,37.066518,-80.440607
MONTGOMERY ,"5825  ROANOKE STREET , SHAWSVILLE , VA",2,24,2015,37.1646,-80.292
MONTGOMERY ,"6704  ROANOKE ROAD , SHAWSVILLE , VA",5,13,2015,37.1691,-80.2601
MONTGOMERY ,"1350  NORTH FORK ROAD , SHAWSVILLE , VA",10,11,2015,37.213729,-80.284148
NEW KENT ,"11201 CARRIAGE RD , PROVIDENCE FORGE , VA",4,14,2005,37.435436,-76.995739
NEWPORT NEWS (CITY) ,"501 MIKES LN , NEWPORT NEWS , VA",11,10,2005,37.017818,-76.446474
NORFOLK (CITY) ,"123 MAPLE AVE , NORFOLK , VA",3,23,2005,36.947005,-76.25953
NORFOLK (CITY) ,"308 NAVAL BASE RD A , NORFOLK , VA",5,17,2005,36.913741,-76.265488
,"1276 WEST OCEAN VIEW AVE AVENUE , , VA",,NA,NA,36.967497,-76.287396
NORFOLK (CITY) ,"E , NORFOLK , VA",6,3,2013,36.850769,-76.285873
NORFOLK (CITY) ,"404  FORREST AVE AVENUE  , NORFOLK , VA",6,24,2013,36.929038,-76.309783
NORFOLK (CITY) ,"528  EILERS STREET  , NORFOLK , VA",7,3,2013,36.923996,-76.310818
NORFOLK (CITY) ,"9624  10TH BAY ST STREET  BOX 4 , NORFOLK , VA",6,5,2014,36.850769,-76.285873
NORFOLK (CITY) ,"1459  BAYVILLE ST STREET , NORFOLK , VA",7,25,2014,36.965714,-76.293455
NORFOLK (CITY) ,"8810  PLYMOUTH ST STREET , NORFOLK , VA",8,4,2014,36.937528,-76.243
NORTON ,"806  HIGHLAND DRIVE , NORTON , VA",6,7,2012,36.936012,-82.630852
PAGE ,"330  CHAPEL ROAD , STANLEY , VA",12,18,2014,38.576212,-78.48946
PATRICK ,"333 SHOTGUN RD , MEADOWS OF DAN , VA",9,14,2005,36.70179,-80.384074
PITTSYLVANIA ,"169 CARTER DRIVE , DANVILLE , VA",6,30,2006,36.609328,-79.441209
PRINCE WILLIAM ,"9027 BURWELL DR , NOKESVILLE , VA",4,1,2004,38.757624,-77.646371
PULASKI ,"194 WOODSIDE DR , DRAPER , VA",10,1,2004,36.974329,-80.852092
PULASKI ,"198  ARMSTRONG STREET  , DUBLIN , VA",10,17,2012,37.096825,-80.688141
PULASKI ,"5991 CLAPBOARD HOLLOW ROAD , HIWASSEE , VA",6,28,2007,37.018639,-80.664462
PULASKI ,"2826 EAST 3RD AVENUE , NEW RIVER , VA",12,3,2014,37.138538,-80.558116
PULASKI ,"836 BARBARA LN , PULASKI , VA",3,18,2004,37.055477,-80.771002
PULASKI ,"4451 BILLY AVE , PULASKI , VA",3,24,2004,37.057402,-80.787907
PULASKI ,"726 VALLEY ST , PULASKI , VA",1,13,2005,37.041117,-80.785596
PULASKI ,"621 BIRCH ST , PULASKI , VA",11,28,2005,37.0392,-80.767155
PULASKI ,"275  BENTLEY HOLLOW ROAD  , PULASKI , VA",5,27,2010,37.039076,-80.751516
PULASKI ,"4382  NOVELL LOOP  , PULASKI , VA",11,6,2013,37.098556,-80.734321
PULASKI ,"4361  RUSSELL ROAD , PULASKI , VA",12,9,2014,37.035776,-80.736211
PULASKI ,"3249  100 ROAD , PULASKI , VA",12,3,2014,37.029914,-80.725323
RADFORD (CITY) ,"6972 HAZEL HOLLOW RD , FAIRLAWN , VA",5,19,2004,37.116351,-80.597451
RADFORD (CITY) ,"1914 THIRD STREET , RADFORD , VA",12,11,2007,37.116774,-80.587607
RADFORD (CITY) ,"1500 STAPLE STREET 12 , RADFORD , VA",2,19,2008,37.118185,-80.5699
RADFORD (CITY) ,"1500  STAPLES STREET 82 , RADFORD , VA",5,20,2010,37.118185,-80.5699
RADFORD (CITY) ,"107  MIDKIFF LANE B , RADFORD , VA",1,13,2011,37.108278,-80.586774
ROANOKE ,"9945  SLINGS GAP ROAD , ABINGDON , VA",6,4,2012,36.709833,-81.977348
ROANOKE ,"1960  BURKETT ROAD , ELLISTON , VA",4,24,2015,37.216178,-80.229465
ROANOKE ,"169  WEAVER DRIVE , ELLISTON , VA",4,27,2015,37.218605,-80.21474
ROANOKE ,"2351  GARDNER STREET , ELLISTON , VA",11,17,2015,37.2347,-80.2138
ROANOKE ,"2890  RIVERVIEW ROAD  , ROANOKE , VA",7,30,2010,37.256239,-79.881259
ROANOKE ,"3544  BUCK MOUNTAIN ROAD  , ROANOKE , VA",6,19,2012,37.205252,-79.956747
ROANOKE ,"4548  BONSACK ROAD  , ROANOKE , VA",2,5,2013,37.322012,-79.870465
ROANOKE ,"2022 SOUTHEAST KING CHARLES , ROANOKE , VA",7,15,2014,37.253466,-79.913673
,"AVENUE , , VA",,NA,NA,36.908174,-76.242674
ROANOKE ,"109 WEST MADISON AVENUE A , VINTON , VA",5,21,2010,37.281447,-79.897923
,"1502 SOUTHWEST PATTERSON AVE , , VA",,NA,NA,37.272759,-79.966678
ROANOKE (CITY) ,"AVENUE  , ROANOKE , VA",3,22,2013,37.000931,-76.418159
ROANOKE (CITY) ,"2712 NORTHWEST CHATHAM STREET  , ROANOKE , VA",4,14,2013,37.297457,-79.940279
ROANOKE (CITY) ,"2712 NORTHWEST CHATHAM STREET  , ROANOKE , VA",5,8,2013,37.297457,-79.940279
,"3906 NORTHWEST RICHLAND AVE , , VA",,NA,NA,37.30707,-79.949982
ROANOKE (CITY) ,"AVENUE 4 , ROANOKE , VA",5,20,2013,37.265733,-79.948618
,"3608 NORTHWEST TROUTLAND , , VA",,NA,NA,37.283635,-79.997863
ROANOKE (CITY) ,"AVENUE  , ROANOKE , VA",6,21,2013,37.000931,-76.418159
ROANOKE (CITY) ,"1528 SOUTHEAST RIVERDALE ROAD  , ROANOKE , VA",12,21,2013,37.259956,-79.9117
ROCKBRIDGE ,"54 EAST CONIFER LANE  , ABINGDON , VA",2,13,2013,36.709833,-81.977348
ROCKBRIDGE ,"  BLACK & WHITE COURT BOX 7 , FAIRFIELD , VA",11,24,2015,37.879299,-79.289478
ROCKINGHAM ,"8932 SHADE TREE LN , BROADWAY , VA",1,17,2006,38.556452,-78.802484
ROCKINGHAM ,"16220 N VALLEY PIKE , BROADWAY , VA",8,12,2015,38.590582,-78.717905
ROCKINGHAM ,"330  COLLEGE STREET BOX 4A , DAYTON , VA",4,8,2015,38.413797,-78.93891
ROCKINGHAM ,"717  FOLEY ROAD , HARRISONBURG , VA",12,12,2014,38.421907,-78.855122
ROCKINGHAM ,"1191  MERIDIAN CIRCLE , HARRISONBURG , VA",12,29,2014,38.45356,-78.83933
ROCKINGHAM ,"12197  GUINEA HOLLOW DRIVE  , HINTON , VA",2,4,2014,38.511535,-79.050042
ROCKINGHAM ,"8522 WILDERNESS LN , SINGERS GLEN , VA",3,5,2004,38.56293,-78.932084
ROCKINGHAM ,"19153  MECHANICSVILLE ROAD , TIMBERVILLE , VA",9,15,2015,38.687188,-78.78485
RUSSELL ,"32  SOUTH MILL HOLLOW ROAD  , CASTLEWOOD , VA",7,14,2010,36.840436,-82.363022
RUSSELL ,"  725 BOOTY ROAD  , CASTLEWOOD , VA",2,7,2013,36.890105,-82.279585
RUSSELL ,"1965  HIGH POINT ROAD , CASTLEWOOD , VA",12,5,2014,36.812409,-82.339394
RUSSELL ,"182  LEWIS CREEK ROAD  , HONAKER , VA",4,9,2013,37.038637,-81.97748
RUSSELL ,"68  HURRICANE DRIVE  , HONAKER , VA",4,9,2013,36.998149,-81.938833
RUSSELL ,"1916  THACKERS BRANCH  , HONAKER , VA",12,2,2014,37.016222,-81.974292
RUSSELL ,"1916  THACKERS BRANCH ROAD , HONAKER , VA",12,2,2014,37.016222,-81.974292
RUSSELL ,"204 WEST BANNER STREET  , LEBANON , VA",7,1,2010,36.901994,-82.084824
RUSSELL ,"516  BRUMLEY CIRCLE  , LEBANON , VA",7,2,2010,36.890425,-82.093626
RUSSELL ,"3239  SWORDS CREEK ROAD 1 , SWORDS CREEK , VA",1,4,2013,37.038155,-81.918617
RUSSELL ,"3621  SWORDS CREEK ROAD  , SWORDS CREEK , VA",6,6,2013,37.038155,-81.918617
SALEM (CITY) ,"300 NORTH BRUFFEY STREET  , SALEM , VA",5,9,2013,37.293567,-80.075039
SCOTT ,"1182  NATURAL TUNNEL PARKWAY , DUFFIELD , VA",2,3,2015,36.718792,-82.777878
SCOTT ,"154  BETHANY STREET 103 , GATE CITY , VA",2,23,2011,36.59443,-82.561962
SCOTT ,"154  BETHANY STREET 103 , GATE CITY , VA",2,23,2011,36.59443,-82.561962
SHENANDOAH ,"201 NORTH MAIN , WOODSTOCK , VA",7,8,2008,38.883459,-78.504108
SMYTH ,"471 STONEWAY , ATKINS , VA",5,10,2004,36.865131,-81.442789
SMYTH ,"120 OLD TANNERY RD , ATKINS , VA",9,3,2004,36.87782,-81.384812
SMYTH ,"1051 CHESTNUT RIDGE DR , CHILHOWIE , VA",6,28,2004,36.790903,-81.636392
SMYTH ,"579 OVERLOOK DR , CHILHOWIE , VA",8,20,2004,36.798924,-81.670116
SMYTH ,"680 NEED MORE RD , CHILHOWIE , VA",3,19,2005,36.761418,-81.666647
SMYTH ,"409  WHITETOP ROAD  , CHILHOWIE , VA",2,27,2010,36.795579,-81.681079
SMYTH ,"232  HOLIDAY DRIVE  , CHILHOWIE , VA",6,30,2010,36.768673,-81.645619
SMYTH ,"565  MILL CREEK ROAD  , CHILHOWIE , VA",11,8,2010,36.704771,-81.651383
SMYTH ,"263 KNIGHT RD , GROSCLOSE , VA",12,2,2004,37.431573,-78.656894
SMYTH ,"245 SPRING HOLLOW RD , MARION , VA",5,12,2004,36.757068,-81.557446
SMYTH ,"1732 HWY 16 A , MARION , VA",6,28,2004,36.823077,-81.480368
SMYTH ,"431 PORTER VALLEY RD , MARION , VA",7,11,2004,36.828639,-81.636193
SMYTH ,"696 MIDDLE FORK RD , MARION , VA",8,26,2004,36.827483,-81.643556
SMYTH ,"455 DOUGLAS ST C , MARION , VA",9,3,2004,36.825765,-81.52288
SMYTH ,"731 OLIVE ST , MARION , VA",9,23,2004,36.825293,-81.515388
SMYTH ,"610 WALKERS CREED RD , MARION , VA",10,11,2004,36.866433,-81.543365
SMYTH ,"213 TRIMBLE DR , MARION , VA",10,25,2004,36.817018,-81.558487
SMYTH ,"395 SUGAR ST , MARION , VA",1,6,2005,36.752063,-81.576483
SMYTH ,"213 TREMBLE , MARION , VA",3,24,2005,36.817018,-81.558487
SMYTH ,"1578  WALKERS CREEK ROAD  , MARION , VA",1,5,2010,36.873814,-81.563946
SMYTH ,"206  WALKERS CREEK ROAD  , MARION , VA",3,12,2010,36.857754,-81.531819
SMYTH ,"341  FIRESTONE LANE  , MARION , VA",7,13,2010,36.805343,-81.461835
SMYTH ,"422  SPRUCE STREET  , MARION , VA",8,12,2010,36.830842,-81.514226
SMYTH ,"233  DEANS BRANCH ROAD , MARION , VA",6,18,2012,36.768932,-81.55359
SMYTH ,"  3031 BROOKSIDE DRIVE  , MARION , VA",2,8,2013,36.848496,-81.600824
SMYTH ,"416 SOUTH CHURCH STREET  , MARION , VA",3,8,2013,36.829251,-81.517063
SMYTH ,"801  HUTTON BRANCH ROAD  , MARION , VA",3,18,2013,36.838468,-81.455489
SMYTH ,"237 WEST CHERRY STREET  , MARION , VA",7,19,2013,36.830685,-81.522473
SMYTH ,"459  DOUGLAS STREET C , MARION , VA",7,19,2013,36.825765,-81.522836
SMYTH ,"2194  HIGHWAY 16, MARION , VA",3,2,2014,36.867297,-81.52745
SMYTH ,"281  HARRIS LANE , MARION , VA",10,21,2014,36.848934,-81.529106
SMYTH ,"604  HUME PLACE , MARION , VA",10,17,2014,36.825038,-81.521086
SMYTH ,"2208 SALTVILLE HWY , SALTVILLE , VA",2,18,2004,36.910326,-81.722044
SMYTH ,"205 DOANE HOLLOW RD , SALTVILLE , VA",1,12,2005,36.890914,-81.655606
SMYTH ,"1037  WORTHY BOULEVARD  , SALTVILLE , VA",5,26,2010,36.861035,-81.743853
SMYTH ,"  219 FRYE TOWN LANE  , SALTVILLE , VA",10,12,2012,36.906799,-81.736517
SMYTH ,"300  DAVIDSON ST STREET  , SALTVILLE , VA",1,24,2014,36.890361,-81.757185
SMYTH ,"1075  UPPER POORE VALLEY RD ROAD  , SALTVILLE , VA",1,27,2014,36.923071,-81.714773
SMYTH ,"219  FRYE TOWN LN ROAD  , SALTVILLE , VA",1,29,2014,36.906799,-81.736517
SMYTH ,"5005 BETTER HOMES DR 11 , SUGAR GROVE , VA",6,28,2004,36.786523,-81.405521
SMYTH ,"4996 SUGAR GROVE HWY , SUGAR GROVE , VA",8,8,2005,36.78634,-81.40445
STAFFORD ,"3 SAINT VINCENT COURT , STAFFORD , VA",1,30,2007,38.475493,-77.487276
STAUNTON (CITY) ,"816 GREENVILLE AVE , STAUNTON , VA",7,10,2004,38.135081,-79.067014
STAUNTON (CITY) ,"107  MILLER ST STREET  BOX 36 , STAUNTON , VA",4,8,2014,38.149576,-79.071696
TAZEWELL ,"1022  JEWELL MAIN MALL  , JEWELL RIDGE , VA",9,11,2010,37.186273,-81.785181
TAZEWELL ,"509  JEWELL MAIN ROAD  , JEWELL RIDGE , VA",1,11,2013,37.18392,-81.79229
TAZEWELL ,"227  DICKENSON STREET  , RICHLANDS , VA",2,13,2013,37.093426,-81.793884
VIRGINIA BEACH (CITY) ,"6304 OLD PROVIDENCE RD , VIRGINIA BEACH , VA",5,5,2005,36.813257,-76.209426
VIRGINIA BEACH (CITY) ,"215 SOUTH BIRDNECK ROAD  , VIRGINIA BEACH , VA",7,12,2013,36.833068,-75.998399
VIRGINIA BEACH (CITY) ,"1275  BAKER ROAD 29 , VIRGINIA BEACH , VA",7,25,2013,36.887576,-76.185099
WASHINGTON ,"151 WEST VALLEY ST 7 , ABINGDON , VA",11,22,2004,36.711374,-81.976342
WASHINGTON ,"620 PATTON ST , ABINGDON , VA",2,11,2005,36.706936,-81.990878
WASHINGTON ,"24730 DRAKE ROAD , ABINGDON , VA",11,2,2006,36.606451,-81.930607
WASHINGTON ,"818  MILLER LANE  , ABINGDON , VA",2,19,2010,36.703224,-81.99758
WASHINGTON ,"26197  WATAUGA ROAD  , ABINGDON , VA",11,15,2010,36.708899,-81.906509
WASHINGTON ,"479  NICHOLAS STREET C3 , ABINGDON , VA",11,8,2011,36.711418,-81.959023
WASHINGTON ,"584  NORFOLK STREET 35 , ABINGDON , VA",10,26,2012,36.716352,-81.955049
WASHINGTON ,"19340  BRUMLEY GAP ROAD  , ABINGDON , VA",2,13,2013,36.802367,-82.024431
WASHINGTON ,"16378  DANDELION DRIVE  , ABINGDON , VA",3,11,2013,36.712931,-81.904372
WASHINGTON ,"338  HIGHLANDS STREET  , ABINGDON , VA",5,15,2013,36.709785,-81.964058
WASHINGTON ,"19139  CALLA RD ROAD 17 , ABINGDON , VA",3,8,2014,36.671225,-82.055058
WASHINGTON ,"14469  RAINBOW ROAD  , BRISTOL , VA",3,16,2010,36.648645,-82.096815
WASHINGTON ,"20345  RANCHERO ROAD 17 , BRISTOL , VA",3,16,2010,36.654059,-82.078995
WASHINGTON ,"24136  WILSON HAUS ROAD 9 , BRISTOL , VA",11,14,2010,36.604082,-82.117312
WASHINGTON ,"322  MOORE STREET  , BRISTOL , VA",2,14,2011,36.599474,-82.181769
WASHINGTON ,"322  MOORE STREET  , BRISTOL , VA",2,14,2011,36.599474,-82.181769
WASHINGTON ,"22341  CAMPGROUND RD ROAD  , BRISTOL , VA",3,11,2014,36.624395,-82.191687
WASHINGTON ,"118 RAILROAD AVE , DAMASCUS , VA",3,10,2004,36.634154,-81.784856
WASHINGTON ,"513 APPALACHIAN TRL , DAMASCUS , VA",6,16,2004,36.633325,-81.79242
WASHINGTON ,"23386 MOUNTAIN CITY RD , DAMASCUS , VA",10,14,2004,36.623034,-81.765178
WASHINGTON ,"718 22051 VAILS MILL RD , DAMASCUS , VA",1,13,2005,36.642827,-81.811213
WASHINGTON ,"32101 PLYMOUTH CT E , DAMASCUS , VA",8,26,2005,36.639261,-81.803018
WASHINGTON ,"615 MOCK AVENUE , DAMASCUS , VA",12,18,2006,36.632517,-81.792982
WASHINGTON ,"724 EAST 5TH STREET  , DAMASCUS , VA",4,5,2010,36.631934,-81.781951
WASHINGTON ,"724 EAST 5TH STREET  , DAMASCUS , VA",4,5,2010,36.631934,-81.781951
WASHINGTON ,"31531 FORSYTHIA DR , GLADE SPRING , VA",3,4,2004,36.753455,-81.82084
WASHINGTON ,"18627 BLOOMFIELD DR , GLADE SPRING , VA",6,30,2004,36.684458,-81.729446
WASHINGTON ,"13307 GLADY LN , GLADE SPRING , VA",7,1,2004,36.758855,-81.825126
WASHINGTON ,"605 36197 WIDENERS VALLEY RD , GLADE SPRING , VA",12,16,2004,36.695929,-81.73626
WASHINGTON ,"17357 MONROR ROAD , GLADE SPRING , VA",5,5,2006,36.705424,-81.784472
WASHINGTON ,"36004 RUSH CREED ROAD , GLADE SPRING , VA",5,30,2006,36.715849,-81.738446
WASHINGTON ,"11585  MOUNT CALM DRIVE 3 , GLADE SPRING , VA",3,4,2010,36.786153,-81.821099
WASHINGTON ,"31347  OLD STAGE ROAD  , GLADE SPRING , VA",3,15,2010,36.762602,-81.817416
WASHINGTON ,"33494  BUCKS BRIDGE ROAD  , GLADE SPRING , VA",5,11,2010,36.714769,-81.776943
WASHINGTON ,"30023 HAWTHORNE DR , MEADOWVIEW , VA",4,6,2004,36.730922,-81.842404
WASHINGTON ,"26160 NORTHRIDGE RD , MEADOWVIEW , VA",10,13,2004,36.758871,-81.910193
WASHINGTON ,"806 29080 RYAN RD , MEADOWVIEW , VA",1,18,2005,36.763126,-81.862848
WASHINGTON ,"8367  BLACKWELL CHAPEL ROAD  , MEADOWVIEW , VA",6,1,2010,36.828786,-81.850532
WASHINGTON ,"29325  LANIER DRIVE  , MEADOWVIEW , VA",8,30,2010,36.74712,-81.851501
WASHINGTON ,"13067  WORTHINGTON LANE  , MEADOWVIEW , VA",2,20,2011,36.764064,-81.851069
WASHINGTON ,"13067  WORTHINGTON LANE  , MEADOWVIEW , VA",2,20,2011,36.764064,-81.851069
WASHINGTON ,"8153  HEDGE LANE , MEADOWVIEW , VA",6,7,2012,36.831807,-81.819797
WASHINGTON ,"30009  HILLMAN HIGHWAY  , MEADOWVIEW , VA",12,12,2012,36.766448,-81.846018
WASHINGTON ,"13085  WORTHINGTON LANE , MEADOWVIEW , VA",12,4,2014,36.763991,-81.850995
WAYNESBORO (CITY) ,"2240 WEST MAIN #106 STREET , WAYNESBORO , VA",6,1,2007,38.068469,-78.889468
WEBER ,"1325 LINCOLN 47 , OGDEN , VA",11,9,2005,37.261155,-79.985936
WILLIAMSBURG (CITY) ,"224  VIRGINIA AVE AVENUE  BOX B , WILLIAMSBURG , VA",4,2,2014,37.270702,-76.707457
WISE ,"1411  PANORAMIC RD ROAD  , BIG STONE GAP , VA",1,8,2014,36.846055,-82.764746
WISE ,"12131 RETFORD ROAD 61 , COEBURN , VA",6,4,2008,36.895436,-82.463184
WISE ,"295 VIRGINIA AVENUE , NORTON , VA",6,4,2008,36.938827,-82.622183
WISE ,"6224  HURRICANE ROAD  , WISE , VA",3,10,2013,36.984369,-82.555741
WYTHE ,"1025 LITTLE REED ISLAND RD , BARREN SPRINGS , VA",3,2,2004,36.916613,-80.773589
WYTHE ,"88 CHERRY LN , IVANHOE , VA",9,10,2004,36.821397,-80.967466
WYTHE ,"182 SIPE LN , IVANHOE , VA",11,28,2004,36.838477,-80.960702
WYTHE ,"1249 POWDER HILL RD , IVANHOE , VA",3,7,2005,36.826131,-80.971595
WYTHE ,"182 SIPE LN , IVANHOE , VA",4,28,2005,36.838477,-80.960702
WYTHE ,"1647 POWDER MILL RD , IVANHOE , VA",3,22,2006,36.826125,-80.971534
WYTHE ,"146  DELBY TERRACE  , IVANHOE , VA",4,1,2009,36.83939,-80.964767
WYTHE ,"148  SIPE LANE  , IVANHOE , VA",4,1,2009,36.838068,-80.960687
WYTHE ,"139 GINGERBREAD LN , MAX MEADOWS , VA",1,28,2004,36.90339,-80.958237
WYTHE ,"225 WILDLIFE DR , MAX MEADOWS , VA",3,15,2004,36.970398,-80.949525
WYTHE ,"4888 PEPPERS FERRY RD , MAX MEADOWS , VA",8,26,2004,36.977629,-80.967813
WYTHE ,"186 DENNISTON RD , MAX MEADOWS , VA",10,20,2004,36.97756,-80.944168
WYTHE ,"131 PARK ST , MAX MEADOWS , VA",10,26,2004,36.969718,-80.950815
WYTHE ,"863 IVANHOE RD C , MAX MEADOWS , VA",12,17,2004,36.897958,-80.969066
WYTHE ,"4847 LEE E HWY , MAX MEADOWS , VA",3,15,2005,36.958198,-80.861081
WYTHE ,"463 CARTESVILLE HEIGHTS RD , MAX MEADOWS , VA",3,22,2005,36.970398,-80.949525
WYTHE ,"5029 LEE E HWY 3 , MAX MEADOWS , VA",5,13,2005,36.958209,-80.861058
WYTHE ,"222 (a) WOODSIDE DR , MAX MEADOWS , VA",5,20,2005,36.974329,-80.852092
WYTHE ,"4847 EAST LEE HIGHWAY , MAX MEADOWS , VA",3,25,2007,36.958198,-80.861081
WYTHE ,"5274 EAST LEE HIGHWAY , MAX MEADOWS , VA",6,27,2007,36.953514,-80.880715
WYTHE ,"1595 IVANHOE ROAD , MAX MEADOWS , VA",6,20,2008,36.910456,-80.966325
WYTHE ,"166 BUCK PARK LN , RURAL RETREAT , VA",3,24,2004,36.89074,-81.345834
WYTHE ,"8103 LEE W HWY , RURAL RETREAT , VA",1,28,2005,36.903694,-81.308118
WYTHE ,"271 EARLES ROAD , RURAL RETREAT , VA",8,15,2006,36.890322,-81.294507
WYTHE ,"900 MURPHYVILLE ROAD , RURAL RETREAT , VA",6,1,2007,36.892343,-81.299404
WYTHE ,"314  RICHMOND AVENUE  , RURAL RETREAT , VA",6,11,2013,36.89435,-81.281606
WYTHE ,"166  PONDAROSA LANE  , WHITEVILLE , VA",4,9,2009,37.604176,-78.163872
WYTHE ,"851 OLD SCHOOL RD , WYTHEVILLE , VA",2,26,2004,36.882732,-81.014736
WYTHE ,"696 BARRETT MILL RD , WYTHEVILLE , VA",10,15,2004,36.921187,-81.085678
WYTHE ,"460 SOUTHWEST RIDGE STREET  , WYTHEVILLE , VA",2,22,2010,36.951589,-81.091832
WYTHE ,"245 SOUTH 4TH STREET  , WYTHEVILLE , VA",10,15,2012,36.947024,-81.084295
WYTHE ,"951  CRIPPLE CREEK ROAD  , WYTHEVILLE , VA",1,4,2013,36.863471,-81.141687
WYTHE ,"1686  CRIPPLE CREEK ROAD  , WYTHEVILLE , VA",1,8,2013,36.850984,-81.119382
WYTHE ,"505  HOLSTON RD ROAD 9 , WYTHEVILLE , VA",3,10,2014,36.963155,-81.091393