"COUNTY","FullAddress","STATE","Month","Date","Year","lon","lat"
"BOONE ","54 MCCLUNG LN , BLOOMINGROSE , WV","WV",9,10,2004,-81.629379,38.132424
"BOONE ","148 VALLEY VISTA CIR , RACINE , WV","WV",4,18,2005,-81.654819,38.139434
"BOONE ","30099 POND FORK RD , WHARTON , WV","WV",4,8,2004,-81.630821,37.857742
"BRAXTON ","702 1/2 KANAWHA ST , GASSAWAY , WV","WV",10,22,2005,-80.771802,38.674635
"BRAXTON ","2434 SUTTON LN , SUTTON , WV","WV",2,4,2005,-80.663364,38.701021
"BRAXTON ","356 BUCK FORK RD , SUTTON , WV","WV",5,1,2005,-80.766517,38.601626
"BRAXTON ","595 SUTTON LANE , SUTTON , WV","WV",1,13,2006,-80.714578,38.676638
"CABELL ","1902 HASH RIDGE ROAD 64B , BARBOURSVILLE , WV","WV",6,1,2006,-82.267356,38.404001
"CABELL ","411 9TH ST , HUNTINGTON , WV","WV",8,1,2004,-82.444,38.420263
"CABELL ","4128 5TH ST , HUNTINGTON , WV","WV",7,9,2005,-82.452586,38.351238
"CABELL ","5001 KATHY LN 8 , LESAGE , WV","WV",10,19,2005,-82.298482,38.506473
"CABELL ","1590 BALLS GAP RD , MILTON , WV","WV",9,1,2004,-82.113337,38.417345
"CABELL ","1035 NEWMANS BRANCH RD , MILTON , WV","WV",10,3,2004,-82.140444,38.435615
"CABELL ","1113 AMOS ST , MILTON , WV","WV",1,24,2005,-82.128834,38.422055
"CABELL ","1114 LEE CREEK RD , MILTON , WV","WV",6,2,2005,-82.090113,38.427259
"CABELL ","1649 JAMES RIVER TURNPIKE , MILTON , WV","WV",8,2,2005,-82.10898,38.419921
"CABELL ","1421 GLENWOOD STREET , MILTON , WV","WV",4,17,2006,-82.130394,38.439487
"CABELL ","2632 YATES CROSSING RD , ONA , WV","WV",8,10,2004,-82.189481,38.442159
"CABELL ","114 BETHESDA DRIVE , ONA , WV","WV",4,12,2006,-82.195531,38.430015
"CALHOUN ","51  KATIES RUN , ANNAMORIAH , WV","WV",12,20,2011,-81.237427,38.958272
"GILMER ","#10 HOWARD ST , GLENVILLE , WV","WV",11,24,2004,-80.836907,38.933993
"GILMER ","706 LEWIS N ST , GLENVILLE , WV","WV",12,10,2004,-80.826326,38.939871
"GILMER ","4640 HIGHWAY 5 W , GLENVILLE , WV","WV",8,11,2005,-80.768565,38.915833
"GREENBRIER ","200 MAIN W ST , WHITE SULPHUR SPRINGS , WV","WV",9,17,2005,-80.302987,37.790255
"GREENBRIER ","205 (B) SPRING ST , WHITE SULPHUR SPRINGS , WV","WV",9,17,2005,-80.304693,37.791018
"JACKSON ","34 PINELL ST , COTTAGEVILLE , WV","WV",9,2,2004,-81.848151,38.875575
"JACKSON ","1930 FISHER RIDGE RD , KENNA , WV","WV",5,9,2005,-81.622686,38.589316
"JACKSON ","517 WATTS CHAPEL RD , KENNA , WV","WV",2,25,2006,-81.664092,38.642604
"JACKSON ","1085 SKULL RUN RD , MURRAYSVILLE , WV","WV",8,25,2005,-81.718163,39.047232
"JACKSON ","706 RITCHIE S AVE , RAVENSWOOD , WV","WV",4,20,2005,-81.756269,38.953239
"JACKSON ","427  BULLFROG ROAD  , RIPLEY , WV","WV",8,26,2010,-81.725505,38.832014
"JACKSON ","3  STONEGATE ROAD  , SANDYVILLE , WV","WV",8,26,2010,-81.68932,38.880994
"KANAWHA ","138 1/2 HILL ST , CABIN CREEK , WV","WV",3,30,2005,-81.47464,38.198686
"KANAWHA ","1528 E 1/2 LEE STREET , CHARLES TOWN , WV","WV",6,18,2015,-77.83366,39.302252
"KANAWHA ","1515 LIVINGSTON AVE , CHARLESTON , WV","WV",1,13,2004,-81.659491,38.374239
"KANAWHA ","1505 WINDSOR DR , CHARLESTON , WV","WV",1,21,2004,-81.55191,38.397631
"KANAWHA ","5301 1/2 MACCORKLE AVE A , CHARLESTON , WV","WV",2,5,2004,-81.572843,38.317322
"KANAWHA ","211 HICKORY RD , CHARLESTON , WV","WV",3,4,2004,-81.653788,38.343143
"KANAWHA ","2652 EVERGREEN DR , CHARLESTON , WV","WV",3,10,2004,-81.595262,38.387952
"KANAWHA ","1145 BARLOW DR , CHARLESTON , WV","WV",3,15,2004,-81.60275,38.374427
"KANAWHA ","1607 BIGLEY AVE 105 , CHARLESTON , WV","WV",3,31,2004,-81.620382,38.361989
"KANAWHA ","1522 7TH AVE , CHARLESTON , WV","WV",4,6,2004,-81.661085,38.370652
"KANAWHA ","100 WASHINGTON ST 726 , CHARLESTON , WV","WV",6,19,2004,-81.640605,38.359753
"KANAWHA ","489 RUFFNE S RD , CHARLESTON , WV","WV",6,25,2004,-81.624136,38.329192
"KANAWHA ","1105 STUART ST , CHARLESTON , WV","WV",6,27,2004,-81.65457,38.369777
"KANAWHA ","268 NEWHOUSE RD C , CHARLESTON , WV","WV",7,27,2004,-81.614976,38.38481
"KANAWHA ","681 WAYSIDE DR , CHARLESTON , WV","WV",9,21,2004,-81.661986,38.358008
"KANAWHA ","268 NEWHOUSE BRANCH RD , CHARLESTON , WV","WV",10,1,2004,-81.614976,38.38481
"KANAWHA ","5318 MAIN ST , CHARLESTON , WV","WV",11,5,2004,-81.743086,38.350047
"KANAWHA ","403 1/2 SWINBURN ST , CHARLESTON , WV","WV",11,10,2004,-81.63648,38.365685
"KANAWHA ","4324 WASHINGTON W ST , CHARLESTON , WV","WV",11,26,2004,-81.718138,38.390716
"KANAWHA ","622 RANDOLPH ST B , CHARLESTON , WV","WV",11,30,2004,-81.649004,38.364113
"KANAWHA ","2529 SISSONVILLE DR , CHARLESTON , WV","WV",12,11,2004,-81.656923,38.393872
"KANAWHA ","506 RUFFNER S RD , CHARLESTON , WV","WV",12,28,2004,-81.624477,38.328338
"KANAWHA ","2413 BENCH RD , CHARLESTON , WV","WV",1,11,2005,-81.582908,38.343747
"KANAWHA ","2505 SISSONVILLE DR A , CHARLESTON , WV","WV",2,3,2005,-81.656852,38.393957
"KANAWHA ","403 1/2 SWINBURN , CHARLESTON , WV","WV",2,9,2005,-81.63648,38.365685
"KANAWHA ","2606 (a) 6TH AVE A , CHARLESTON , WV","WV",2,11,2005,-81.677814,38.375599
"KANAWHA ","4200 BUSH ST , CHARLESTON , WV","WV",2,17,2005,-81.714536,38.380188
"KANAWHA ","1524 CHANDLER DR , CHARLESTON , WV","WV",2,19,2005,-81.650035,38.379643
"KANAWHA ","611 HARPER RD , CHARLESTON , WV","WV",3,8,2005,-81.723667,38.394276
"KANAWHA ","5311 WASHINGTON AVE , CHARLESTON , WV","WV",3,13,2005,-81.574408,38.314981
"KANAWHA ","1518 LEWIS ST , CHARLESTON , WV","WV",3,14,2005,-81.620476,38.344467
"KANAWHA ","1524 CHANDLER , CHARLESTON , WV","WV",3,21,2005,-81.650035,38.379643
"KANAWHA ","1021 HENDRIX AVE , CHARLESTON , WV","WV",3,25,2005,-81.659813,38.372636
"KANAWHA ","613 TENNESSEE AVE 1/2 , CHARLESTON , WV","WV",4,1,2005,-81.641774,38.360826
"KANAWHA ","4410 SISSONVILLE DR , CHARLESTON , WV","WV",4,5,2005,-81.67403,38.437184
"KANAWHA ","137 SCENIC DR , CHARLESTON , WV","WV",4,18,2005,-81.887092,38.482255
"KANAWHA ","3535 SPRING FORK RD , CHARLESTON , WV","WV",4,22,2005,-81.499367,38.274196
"KANAWHA ","1911 IRIS DR , CHARLESTON , WV","WV",5,3,2005,-81.660429,38.379728
"KANAWHA ","500 SLACK ST D , CHARLESTON , WV","WV",5,11,2005,-81.625966,38.3564
"KANAWHA ","1023 SOUTH PARK RD , CHARLESTON , WV","WV",6,18,2005,-81.610288,38.305131
"KANAWHA ","807 WESTMINSTER WAY , CHARLESTON , WV","WV",6,25,2005,-81.664008,38.344785
"KANAWHA ","611 MARY ST , CHARLESTON , WV","WV",7,10,2005,-81.6247,38.367751
"KANAWHA ","340 WALKER RD G , CHARLESTON , WV","WV",7,28,2005,-81.627844,38.453637
"KANAWHA ","4212 WINTERBERRY LN , CHARLESTON , WV","WV",1,13,2006,-81.713641,38.382737
"KANAWHA ","131 LUDE RD , CHARLESTON , WV","WV",1,25,2006,-81.731393,38.320143
"KANAWHA ","1516 CASCADE DR , CHARLESTON , WV","WV",2,2,2006,-81.551908,38.395721
"KANAWHA ","136 LAKIN ST. , CHARLESTON , WV","WV",3,29,2006,-81.614632,38.356892
"KANAWHA ","1516 1/2 EAST LEE ST , CHARLESTON , WV","WV",4,11,2006,-81.622477,38.3424
"KANAWHA ","1519 LEWIS ST. , CHARLESTON , WV","WV",4,15,2006,-81.620196,38.344238
"KANAWHA ","1519 LEWIS STREET , CHARLESTON , WV","WV",4,15,2006,-81.620196,38.344238
"KANAWHA ","396 RT 5 , CHARLESTON , WV","WV",5,30,2006,-81.711956,38.397742
"KANAWHA ","571 A MUNDY HOLLOW ROAD , CHARLESTON , WV","WV",6,5,2006,-81.673113,38.454536
"KANAWHA ","78 ROUTE 7 (LINCOLN DRIVE) , CHARLESTON , WV","WV",6,12,2006,-81.722011,38.395498
"KANAWHA ","202 FORE DRIVE , CHARLESTON , WV","WV",6,27,2006,-81.658193,38.421191
"KANAWHA ","325B ROUTE 5 , CHARLESTON , WV","WV",7,4,2006,-81.711951,38.397735
"KANAWHA ","923 HEAVENLY DRIVE , CHARLESTON , WV","WV",8,20,2006,-81.750473,38.274568
"KANAWHA ","2223 FALCON DRIVE , CHARLESTON , WV","WV",8,29,2006,-81.658441,38.400457
"KANAWHA ","822 SOUTH RUFFINER ROAD , CHARLESTON , WV","WV",9,9,2006,-81.633577,38.3198
"KANAWHA ","1400 WATTS STREET B , CHARLESTON , WV","WV",12,14,2006,-81.637407,38.365449
"KANAWHA ","1317 CRESCENT ROAD , CHARLESTON , WV","WV",12,21,2006,-81.626312,38.362203
"KANAWHA ","79 SMITH CREEK ROAD , CHARLESTON , WV","WV",12,28,2006,-81.80843,38.339604
"KANAWHA ","1509 KIRKWOOD DRIVE , CHARLESTON , WV","WV",1,22,2007,-81.549678,38.398069
"KANAWHA ","5134 DERRICK'S CREEK ROAD , CHARLESTON , WV","WV",1,31,2007,-81.691989,38.556417
"KANAWHA ","1890 CORVAIR DRIVE , CHARLESTON , WV","WV",2,2,2007,-81.655396,38.387993
"KANAWHA ","127 CLINE HOLLOW ROAD , CHARLESTON , WV","WV",3,16,2007,-81.503352,38.338919
"KANAWHA ","831 WOODWARD DRIVE , CHARLESTON , WV","WV",4,13,2007,-81.67657,38.378898
"KANAWHA ","5 PINE VALLEY DRIVE , CHARLESTON , WV","WV",4,28,2007,-81.655599,38.47903
"KANAWHA ","RT 5 340F , CHARLESTON , WV","WV",6,1,2007,-81.711952,38.397736
"KANAWHA ","307 ADA MAE DRIVE , CHARLESTON , WV","WV",6,20,2007,-81.539617,38.406999
"KANAWHA ","836 GREENDALE DRIVE , CHARLESTON , WV","WV",6,23,2007,-81.641998,38.365446
"KANAWHA ","915 HUNT AVENUE , CHARLESTON , WV","WV",8,6,2007,-81.654593,38.370136
"KANAWHA ","108 WILDWOOD ACRES , CHARLESTON , WV","WV",8,21,2007,-81.68837,38.392534
"KANAWHA ","5102 GREG TAN LANE , CHARLESTON , WV","WV",11,19,2007,-81.754994,38.43236
"KANAWHA ","364 RT 5 BAYOU , CHARLESTON , WV","WV",1,1,2008,-81.632623,38.34982
"KANAWHA ","1521 SMITH ROAD 6 , CHARLESTON , WV","WV",2,10,2008,-81.658473,38.336475
"KANAWHA ","514 FALCON DRIVE , CHARLESTON , WV","WV",3,10,2008,-81.656302,38.399066
"KANAWHA ","341G 5 ROUTE , CHARLESTON , WV","WV",9,15,2008,-81.711952,38.397736
"KANAWHA ","208 KELLY'S CREEK ROAD , CHARLESTON , WV","WV",9,24,2008,-81.722375,38.50436
"KANAWHA ","2372 SAVARY DRIVE , CHARLESTON , WV","WV",11,19,2008,-81.67997,38.384036
"KANAWHA ","156 WILDWOOD ACRES ROAD A , CHARLESTON , WV","WV",11,20,2008,-81.681569,38.395549
"KANAWHA ","2107 6TH AVENUE , CHARLESTON , WV","WV",12,31,2008,-81.672428,38.374737
"KANAWHA ","4903  WASHINGTON AVENUE 12 , CHARLESTON , WV","WV",4,8,2009,-81.767987,38.406575
"KANAWHA ","999  WILLS CREEK, CHARLESTON , WV","WV",4,10,2009,-81.763142,38.277064
"KANAWHA ","136-5  DUTCH CREEK ROAD  , CHARLESTON , WV","WV",6,17,2009,-81.70953,38.459046
"KANAWHA ","514  FALCON DRIVE  , CHARLESTON , WV","WV",1,11,2010,-81.656302,38.399066
"KANAWHA ","1630  CLAY AVENUE  , CHARLESTON , WV","WV",1,13,2010,-81.66239,38.373807
"KANAWHA ","2009  WEBERWOOD DRIVE  , CHARLESTON , WV","WV",2,2,2010,-81.668575,38.351481
"KANAWHA ","200  TUPPERS CREEK ROAD  , CHARLESTON , WV","WV",3,30,2010,-81.651477,38.461588
"KANAWHA ","1910  IRIS DRIVE  , CHARLESTON , WV","WV",5,12,2010,-81.659844,38.379696
"KANAWHA ","2029  CARSON STREET  , CHARLESTON , WV","WV",9,14,2010,-81.61312,38.367526
"KANAWHA ","496  FALCON DRIVE  , CHARLESTON , WV","WV",1,26,2011,-81.654335,38.408574
"KANAWHA ","616  RUFFNER AVENUE , CHARLESTON , WV","WV",4,14,2011,-81.621112,38.345418
"KANAWHA ","152  FORE DRIVE  , CHARLESTON , WV","WV",12,23,2011,-81.663965,38.417434
"KANAWHA ","1658  FRANKLIN AVENUE  , CHARLESTON , WV","WV",1,19,2012,-81.614887,38.338923
"KANAWHA ","5045  BIG TYLER ROAD  , CHARLESTON , WV","WV",8,5,2012,-81.744892,38.426633
"KANAWHA ","17611  DERRICK CREEK ROAD  , CHARLESTON , WV","WV",10,17,2012,-81.676399,38.506094
"KANAWHA ","1411  1/2  JACKSON STREET B , CHARLESTON , WV","WV",5,3,2013,-81.62273,38.344616
"KANAWHA ","2008  HUTCHINSON STREET  , CHARLESTON , WV","WV",6,5,2013,-81.663458,38.3785
"KANAWHA ","1520  HURON TERRACE  , CHARLESTON , WV","WV",6,25,2013,-81.61579,38.347757
"KANAWHA ","11917 MCCORKLE AVENUE , CHESAPEAKE , WV","WV",11,4,2008,-81.542628,38.228258
"KANAWHA ","350 ELK RIVER N RD , CLENDENIN , WV","WV",6,23,2004,-81.289842,38.47163
"KANAWHA ","185 SPENCER ROAD 185 , CLENDENIN , WV","WV",11,13,2007,-81.354262,38.505479
"KANAWHA ","1585 REAMER ROAD , CLENDENIN , WV","WV",7,21,2008,-81.371289,38.475586
"KANAWHA ","21  Governor Drive , CLENDENIN , WV","WV",1,21,2016,-81.348175,38.488709
"KANAWHA ","631 VALLEY VIEW DR , CROSS LANES , WV","WV",9,22,2004,-81.769104,38.404673
"KANAWHA ","5106 SHANNON DR 427 , CROSS LANES , WV","WV",10,12,2004,-81.782657,38.423437
"KANAWHA ","5308 ROCKY FORK RD , CROSS LANES , WV","WV",2,2,2005,-81.740821,38.432964
"KANAWHA ","103 OAKWOOD RD , CROSS LANES , WV","WV",3,11,2005,-81.798192,38.421029
"KANAWHA ","5039 DELORES , CROSS LANES , WV","WV",3,28,2005,-81.754884,38.441081
"KANAWHA ","1002 LISA CT , CROSS LANES , WV","WV",5,4,2005,-81.776394,38.431139
"KANAWHA ","5039 DOLORES DR , CROSS LANES , WV","WV",6,14,2005,-81.754884,38.441081
"KANAWHA ","5135 CRYSTAL DR , CROSS LANES , WV","WV",6,30,2005,-81.753565,38.426365
"KANAWHA ","138 BRICK LANE , CROSS LANES , WV","WV",2,5,2008,-81.796923,38.417693
"KANAWHA ","5243 DALEWOOD DRIVE , CROSS LANES , WV","WV",4,28,2008,-81.762736,38.425874
"KANAWHA ","326 RT 6 (JONES RIDGE) ROAD , CROSS LANES , WV","WV",8,25,2008,-81.790685,38.420371
"KANAWHA ","4803 WASHINGTON STREET WEST , CROSS LANES , WV","WV",10,22,2008,-81.756812,38.40363
"KANAWHA ","4728  BIG TYLER ROAD  , CROSS LANES , WV","WV",5,15,2009,-81.727194,38.404679
"KANAWHA ","206  BROADLAWN TERRACE  , CROSS LANES , WV","WV",7,5,2012,-81.790685,38.420371
"KANAWHA ","400 WILSON AVE , DUNBAR , WV","WV",2,7,2004,-81.746384,38.380423
"KANAWHA ","860 DUTCH HOLLOW RD , DUNBAR , WV","WV",2,10,2004,-81.743457,38.371865
"KANAWHA ","2701 FAIRLAWN AVE 56 , DUNBAR , WV","WV",3,12,2005,-81.750106,38.371819
"KANAWHA ","1352 DUTCH HOLLOW RD , DUNBAR , WV","WV",3,17,2005,-81.737519,38.391723
"KANAWHA ","1842 ROXAIANA RD , DUNBAR , WV","WV",4,13,2005,-81.727731,38.365619
"KANAWHA ","334 17TH STREET , DUNBAR , WV","WV",4,24,2008,-81.746364,38.360751
"KANAWHA ","528  21ST STREET  , DUNBAR , WV","WV",5,29,2010,-81.74667,38.367047
"KANAWHA ","136  FRANCIS STREET  , DUNBAR , WV","WV",6,12,2013,-81.731749,38.372575
"KANAWHA ","5101 ELK RIVER RD , ELKVIEW , WV","WV",1,19,2004,-81.390468,38.474665
"KANAWHA ","121 NEW HOPE RD , ELKVIEW , WV","WV",4,23,2004,-81.468159,38.424522
"KANAWHA ","565 NEW HOPE RD , ELKVIEW , WV","WV",4,23,2004,-81.460584,38.438463
"KANAWHA ","632 JAKE'S RUN RD , ELKVIEW , WV","WV",2,3,2005,-81.454162,38.507951
"KANAWHA ","138 CEMETERY HILL , ELKVIEW , WV","WV",11,30,2006,-81.483077,38.434748
"KANAWHA ","220B BIG FORK ROAD , ELKVIEW , WV","WV",1,3,2007,-81.433179,38.512728
"KANAWHA ","210 VINE DRIVE , ELKVIEW , WV","WV",6,26,2007,-81.448584,38.408684
"KANAWHA ","429A CHURCH ROAD , ELKVIEW , WV","WV",1,26,2008,-81.483585,38.416744
"KANAWHA ","6 GIVENS TRAILER PARK , ELKVIEW , WV","WV",7,21,2008,-81.477329,38.431884
"KANAWHA ","201  FERNRIDGE DRIVE  , ELKVIEW , WV","WV",5,13,2010,-81.477329,38.431884
"KANAWHA ","94  DICKENS ROAD  , ELKVIEW , WV","WV",2,16,2011,-81.404871,38.531765
"KANAWHA ","254  POINSETTIA LANE  , ELKVIEW , WV","WV",11,28,2011,-81.445377,38.401409
"KANAWHA ","1107  PARK AVENUE  , ELKVIEW , WV","WV",7,17,2012,-81.484089,38.431612
"KANAWHA ","333 WALKER DRIVE , KANAWHA , WV","WV",1,30,2008,-81.642705,38.462727
"KANAWHA ","316 9TH ST A , MARMET , WV","WV",6,22,2004,-81.538609,38.229678
"KANAWHA ","2321 23RD ST , NITRO , WV","WV",3,31,2004,-81.839574,38.42371
"KANAWHA ","1107 PARK AVE , NITRO , WV","WV",9,27,2004,-81.845814,38.417197
"KANAWHA ","18 SHADOW HILLS PARK , NITRO , WV","WV",2,3,2005,-81.815731,38.429447
"KANAWHA ","2403 24TH ST , NITRO , WV","WV",2,3,2005,-81.840853,38.424445
"KANAWHA ","3996 39TH E ST , NITRO , WV","WV",4,5,2005,-81.829033,38.429423
"KANAWHA ","604 6TH ST , NITRO , WV","WV",12,22,2005,-81.843631,38.414059
"KANAWHA ","54 31ST E ST , NITRO , WV","WV",1,19,2006,-81.834236,38.428145
"KANAWHA ","1609 16TH STREET , NITRO , WV","WV",3,20,2008,-81.842476,38.419372
"KANAWHA ","149  MAIN AVENIDA 4 , NITRO , WV","WV",5,25,2009,-81.844775,38.410439
"KANAWHA ","1428  MAIN AVENUE  , NITRO , WV","WV",1,25,2010,-81.830643,38.394146
"KANAWHA ","1111  1ST AVENUE  , NITRO , WV","WV",1,22,2011,-81.840164,38.403896
"KANAWHA ","1106  11TH STREET  , NITRO , WV","WV",2,14,2012,-81.843405,38.416651
"KANAWHA ","423  WASHINGTON STREET  , NITRO , WV","WV",7,6,2012,-81.821627,38.383418
"KANAWHA ","443 SOUTHWEST 2ND AVE CIRCLE  , S CHARLESTON , WV","WV",4,24,2013,-81.690454,38.365883
"KANAWHA ","65 WHISPERING OAKS ST , SAINT ALBANS , WV","WV",1,16,2004,-81.791573,38.364734
"KANAWHA ","104 THIRD N AVE , SAINT ALBANS , WV","WV",1,31,2004,-81.852899,38.409592
"KANAWHA ","2843 MAC CORKLE AVE 109 , SAINT ALBANS , WV","WV",2,2,2004,-81.793158,38.380575
"KANAWHA ","700 DAMES HILL RD , SAINT ALBANS , WV","WV",3,4,2004,-81.844772,38.385417
"KANAWHA ","820 HUGHES DR , SAINT ALBANS , WV","WV",4,8,2004,-81.799881,38.375139
"KANAWHA ","526 BARRETT ST , SAINT ALBANS , WV","WV",6,2,2004,-81.849657,38.380771
"KANAWHA ","104 THIRD N ST , SAINT ALBANS , WV","WV",6,10,2004,-81.852899,38.409592
"KANAWHA ","434 WEIMER AVE , SAINT ALBANS , WV","WV",10,17,2004,-81.832745,38.381291
"KANAWHA ","1006 GREEN VALLEY DR , SAINT ALBANS , WV","WV",10,26,2004,-81.795004,38.354106
"KANAWHA ","5593 KANAWHA TURNPIKE , SAINT ALBANS , WV","WV",12,22,2004,-81.749174,38.353019
"KANAWHA ","2644 FURLONG AVE , SAINT ALBANS , WV","WV",12,29,2004,-81.80004,38.380785
"KANAWHA ","2612 FURLONG AVE , SAINT ALBANS , WV","WV",1,31,2005,-81.801891,38.381212
"KANAWHA ","725 PARK ST , SAINT ALBANS , WV","WV",2,8,2005,-81.825622,38.382335
"KANAWHA ","850 AUSTIN DR , SAINT ALBANS , WV","WV",2,26,2005,-81.881057,38.396338
"KANAWHA ","111 WEST ST , SAINT ALBANS , WV","WV",3,2,2005,-81.812144,38.384658
"KANAWHA ","692 AUSTIN DR , SAINT ALBANS , WV","WV",4,13,2005,-81.873294,38.396623
"KANAWHA ","127 MIRACLE DR , SAINT ALBANS , WV","WV",4,26,2005,-81.86211,38.412264
"KANAWHA ","500 HOLLEY , SAINT ALBANS , WV","WV",5,12,2005,-81.824477,38.384667
"KANAWHA ","2418 WASHINGTON AVE , SAINT ALBANS , WV","WV",5,26,2005,-81.806117,38.379254
"KANAWHA ","2630 FURLONG , SAINT ALBANS , WV","WV",6,15,2005,-81.800749,38.380968
"KANAWHA ","214 VALENCIA PL , SAINT ALBANS , WV","WV",7,5,2005,-81.830657,38.365795
"KANAWHA ","45 B ST 8 , SAINT ALBANS , WV","WV",8,3,2005,-81.838758,38.392709
"KANAWHA ","111 WEST ST , SAINT ALBANS , WV","WV",8,11,2005,-81.812144,38.384658
"KANAWHA ","417 DUPONT AVE , SAINT ALBANS , WV","WV",9,15,2005,-81.844193,38.406499
"KANAWHA ","300 SHORT ST. , SAINT ALBANS , WV","WV",1,29,2006,-81.848946,38.385184
"KANAWHA ","126 1/2 HUDSON VALLEY DRIVE , SAINT ALBANS , WV","WV",2,8,2006,-81.771748,38.325128
"KANAWHA ","103 3RD N AVE , SAINT ALBANS , WV","WV",3,23,2006,-81.852639,38.409461
"KANAWHA ","1483 PENNSLYVANIA AVENUE , SAINT ALBANS , WV","WV",11,30,2006,-81.830826,38.375657
"KANAWHA ","218 WEST VIRGINIA STREET , SAINT ALBANS , WV","WV",3,6,2007,-81.859655,38.389421
"KANAWHA ","1421 SCOTT DRIVE , SAINT ALBANS , WV","WV",3,23,2007,-81.860563,38.36951
"KANAWHA ","404 HIGH STREET C , SAINT ALBANS , WV","WV",2,8,2008,-81.854529,38.387092
"KANAWHA ","202 FAIRVIEW DRIVE , SAINT ALBANS , WV","WV",5,21,2008,-81.847262,38.385048
"KANAWHA ","2314 JEFFERSON AVENUE , SAINT ALBANS , WV","WV",8,19,2008,-81.80807,38.378289
"KANAWHA ","117 MIRACLE DRIVE , SAINT ALBANS , WV","WV",9,2,2008,-81.861573,38.412209
"KANAWHA ","754  COAL RIVER ROAD  , SAINT ALBANS , WV","WV",4,15,2009,-81.87058,38.368573
"KANAWHA ","425  SEXTON ROAD B , SAINT ALBANS , WV","WV",5,26,2009,-81.825922,38.353224
"KANAWHA ","1  TOMPKINS CROSSING ROAD  , SAINT ALBANS , WV","WV",6,29,2009,-81.860372,38.415029
"KANAWHA ","425B  SEXTON ROAD  , SAINT ALBANS , WV","WV",1,28,2010,-81.825922,38.353224
"KANAWHA ","2644A  FURLONG AVENUE  , SAINT ALBANS , WV","WV",2,3,2010,-81.80004,38.380785
"KANAWHA ","181  MIRACLE DRIVE  , SAINT ALBANS , WV","WV",5,28,2010,-81.865289,38.412388
"KANAWHA ","304  VIRGINIA AVENUE  , SAINT ALBANS , WV","WV",6,29,2010,-81.853696,38.403547
"KANAWHA ","832  GREEN VALLEY DRIVE  , SAINT ALBANS , WV","WV",8,2,2010,-81.790034,38.355652
"KANAWHA ","711  RUSSELL ROAD  , SAINT ALBANS , WV","WV",8,3,2010,-81.890888,38.389072
"KANAWHA ","408  BIRCH STREET  , SAINT ALBANS , WV","WV",1,4,2011,-81.851821,38.385347
"KANAWHA ","2601  MONROE AVENIDA , SAINT ALBANS , WV","WV",12,5,2011,-81.802988,38.377685
"KANAWHA ","1307  FIVE MILE ROAD  , SAINT ALBANS , WV","WV",8,14,2012,-81.832187,38.391472
"KANAWHA ","201  SHORT STREET  , SAINT ALBANS , WV","WV",5,2,2013,-81.847932,38.384846
"KANAWHA ","919  JACKSON ROAD  , SAINT ALBANS , WV","WV",6,19,2013,-81.820198,38.374151
"KANAWHA ","AVENUE 115 , SAINT ALBANS , WV","WV",11,20,2013,-81.819166,38.37937
"KANAWHA ","5606 HABITAT ST , SAINT. ALBANS , WV","WV",6,15,2004,-81.819166,38.37937
"KANAWHA ","519 WOLFPEN DR , SISSONVILLE , WV","WV",1,28,2004,-81.644388,38.441429
"KANAWHA ","13 WHITETAIL LN , SISSONVILLE , WV","WV",2,14,2004,-81.645814,38.444349
"KANAWHA ","1788 TOLLEY RD , SISSONVILLE , WV","WV",3,23,2004,-81.62777,38.506298
"KANAWHA ","1790b TOLLEY RD , SISSONVILLE , WV","WV",3,23,2004,-81.627828,38.50629
"KANAWHA ","201 LEGG STAR RT , SISSONVILLE , WV","WV",8,27,2004,-81.65641,38.495417
"KANAWHA ","44 FISHER'S BRANCH RD , SISSONVILLE , WV","WV",12,31,2004,-81.675614,38.445646
"KANAWHA ","6438 STARLITE DR , SISSONVILLE , WV","WV",3,15,2005,-81.669716,38.478825
"KANAWHA ","698 CLEARVIEW HEIGHTS E , SISSONVILLE , WV","WV",4,12,2005,-81.673295,38.492159
"KANAWHA ","2140 DERRICKS CREEK ROAD , SISSONVILLE , WV","WV",1,9,2008,-81.649932,38.509949
"KANAWHA ","1790 TOLLEY ROAD , SISSONVILLE , WV","WV",5,5,2008,-81.627828,38.50629
"KANAWHA ","7375 SISSONVILLE DRIVE , SISSONVILLE , WV","WV",11,24,2008,-81.648545,38.496594
"KANAWHA ","7626  HUGHART DRIVE  , SISSONVILLE , WV","WV",4,13,2009,-81.570773,38.488299
"KANAWHA ","1996  LEGG FORK ROAD  , SISSONVILLE , WV","WV",6,29,2009,-81.615553,38.49142
"KANAWHA ","134  PINE VALLEY DRIVE  , SISSONVILLE , WV","WV",2,19,2010,-81.656289,38.478166
"KANAWHA ","329B  SIGMOND FORK ROAD  , SISSONVILLE , WV","WV",8,5,2010,-81.63096,38.528149
"KANAWHA ","13486  DERRICKS CREEK ROAD  , SISSONVILLE , WV","WV",8,31,2010,-81.686252,38.520547
"KANAWHA ","832 WILLOW DR , SOUTH CHARLESTON , WV","WV",2,26,2004,-81.735712,38.309602
"KANAWHA ","224 1/2 5TH AVE , SOUTH CHARLESTON , WV","WV",4,1,2004,-81.570487,38.268424
"KANAWHA ","610 GREEN RD , SOUTH CHARLESTON , WV","WV",4,16,2004,-81.717993,38.322365
"KANAWHA ","120 SHEPARD AVE D , SOUTH CHARLESTON , WV","WV",7,7,2004,-81.690345,38.362043
"KANAWHA ","5318 MAIN ST , SOUTH CHARLESTON , WV","WV",12,22,2004,-81.743086,38.350047
"KANAWHA ","713 CHESAPEAKE AVE , SOUTH CHARLESTON , WV","WV",2,4,2005,-81.723744,38.351513
"KANAWHA ","109 10TH AVE , SOUTH CHARLESTON , WV","WV",3,5,2005,-81.702555,38.36913
"KANAWHA ","707 HAMDOR ST A , SOUTH CHARLESTON , WV","WV",9,12,2005,-81.726629,38.351418
"KANAWHA ","507 CHESTNUT RD , SOUTH CHARLESTON , WV","WV",9,21,2005,-81.731225,38.353718
"KANAWHA ","131 LUBE ROAD , SOUTH CHARLESTON , WV","WV",1,25,2006,-81.699886,38.368552
"KANAWHA ","131 LUDE ROAD , SOUTH CHARLESTON , WV","WV",3,25,2006,-81.731393,38.320143
"KANAWHA ","78 ROUTE 7 , SOUTH CHARLESTON , WV","WV",6,12,2006,-81.555972,38.309288
"KANAWHA ","705 KINDER STREET , SOUTH CHARLESTON , WV","WV",2,29,2008,-81.733234,38.351461
"KANAWHA ","306 EASTWOOD AVENUE , SOUTH CHARLESTON , WV","WV",7,17,2008,-81.72216,38.357881
"KANAWHA ","326 3 AVENUE , SOUTH CHARLESTON , WV","WV",10,19,2008,-81.692518,38.365817
"KANAWHA ","319 CENTRAL AVENUE , SOUTH CHARLESTON , WV","WV",11,23,2008,-81.690019,38.35929
"KANAWHA ","1636  OAKHURST DRIVE  , SOUTH CHARLESTON , WV","WV",4,29,2009,-81.703825,38.336845
"KANAWHA ","63  FAIRVIEW ACRES ROAD , SOUTH CHARLESTON , WV","WV",5,12,2014,-81.731491,38.329245
"KANAWHA ","2746 LINCOLN AVE , ST ALBANYS , WV","WV",4,22,2004,-81.798117,38.378659
"KANAWHA ","112 PULTERSON , TAD , WV","WV",3,15,2006,-81.494286,38.333433
"KANAWHA ","193 RENSFORD STAR ROUTE , TAD , WV","WV",6,2,2007,-81.494286,38.333433
"KANAWHA ","100 COAL RIVER RD , TORNADO , WV","WV",3,11,2005,-81.854307,38.342843
"KANAWHA ","137 BUCKNER ROAD , TORNADO , WV","WV",4,9,2006,-81.846469,38.3234
"KANAWHA ","208 FERRELL ROAD 208 , TORNADO , WV","WV",1,16,2008,-81.831232,38.342026
"KANAWHA ","522 WINIFREDE HOLLOW RD , WINIFREDE , WV","WV",3,28,2005,-81.556785,38.191491
"LINCOLN ","101 UPPER MOLLY'S BRANCH ROAD , ALUM CREEK , WV","WV",9,25,2006,-81.817031,38.28357
"LINCOLN ","1326 COON CREEK RD , CULLODEN , WV","WV",12,10,2005,-82.088224,38.348657
"MASON ","480  PINE DRIVE  , MASON , WV","WV",8,2,2012,-82.087356,38.645801
"MASON ","2107 MONROE AVE , POINT PLEASANT , WV","WV",4,19,2005,-82.132083,38.862478
"MASON ","3318 HOWARD AVE , POINT PLEASANT , WV","WV",6,3,2005,-82.124965,38.880557
"PUTNAM ","202 CHESTNUT E ST , ELEANOR , WV","WV",2,16,2005,-81.926982,38.534119
"PUTNAM ","54 HANING DR , POCA , WV","WV",12,9,2004,-81.797377,38.468795
"PUTNAM ","448 WOODS DR , SAINT ALBANS , WV","WV",10,19,2005,-81.9075,38.345925
"PUTNAM ","209 BEECHWOOD ESTATES , SCOTT DEPOT , WV","WV",1,24,2005,-81.923815,38.441402
"PUTNAM ","102 HARMONS BRANCH RD , WINFIELD , WV","WV",3,24,2005,-81.909873,38.500065
"RALEIGH ","106 EATON ST , CRAB ORCHARD , WV","WV",5,6,2005,-81.233886,37.736609
"RALEIGH ","353 RITTER DR , GLEN MORGAN , WV","WV",1,16,2006,-81.149822,37.754884
"RALEIGH ","225 1/2 BRAMMER ST , MIDWAY , WV","WV",3,17,2004,-81.240251,37.717631
"RANDOLPH ","306 FIRST ST 6 , ELKINS , WV","WV",3,18,2005,-79.84632,38.922945
"RANDOLPH ","15 CENTRAL ST , ELKINS , WV","WV",5,9,2005,-79.853174,38.924809
"ROANE ","1193 AMMA RD , AMMA , WV","WV",11,17,2005,-81.256626,38.582953
"ROANE ","2602 KETTLE DR , GANDEEVILLE , WV","WV",3,29,2005,-81.410399,38.705091
"ROANE ","161 ARNOLDSBURG RD , SPENCER , WV","WV",6,3,2004,-81.239627,38.798043
"ROANE ","40 FRONT ST , SPENCER , WV","WV",2,10,2005,-81.347594,38.80303
"ROANE ","146 BEAR FORK , SPENCER , WV","WV",4,29,2005,-81.387029,38.719046
"ROANE ","2370 CHARLESTON RD , SPENCER , WV","WV",8,23,2005,-81.383906,38.724933
"ROANE ","626 LONG RIDGE RD , WALTON , WV","WV",7,21,2004,-81.437155,38.558824
"TAYLOR ","605 WATKINS ST , GRAFTON , WV","WV",9,11,2004,-80.024687,39.333389
"TREMPEALEAU ","34022 URLAIN N RD , BLAIR , WV","WV",9,2,2005,-81.827897,37.878438
"TYLER ","8794  WICK ROAD  , MIDDLEBOURNE , WV","WV",9,9,2011,-80.920896,39.44088
"UPSHUR ","9ROUTE 352 , BUCKHANNON , WV","WV",4,21,2010,-80.206496,38.934252
"WEBSTER ","7 MCGUIRE AVE , COWEN , WV","WV",8,31,2005,-80.557866,38.409553
"WOOD ","2813  SOYER STREET 8 , PARKERSBURG , WV","WV",4,16,2013,-81.540209,39.227581
"WOOD ","1012  18TH STREET 2 , VIENNA , WV","WV",2,4,2011,-81.545971,39.315104
"WOOD ","700  21ST ST.  B , VIENNA , WV","WV",11,12,2012,-81.55035,39.319378
